STK/target_primary/access_sensors/plan/RCO_2x6_50_260_1.6.csv

"Access","Start Time (UTCG)","Stop Time (UTCG)","Duration (sec)"
1,1 Jun 2023 10:20:04.100,1 Jun 2023 10:22:33.810,149.711
2,1 Jun 2023 11:53:42.862,1 Jun 2023 11:56:31.903,169.041
3,1 Jun 2023 13:26:52.605,1 Jun 2023 13:28:35.638,103.033
4,2 Jun 2023 08:40:46.153,2 Jun 2023 08:44:03.508,197.354
5,2 Jun 2023 10:15:10.682,2 Jun 2023 10:17:20.833,130.151
6,2 Jun 2023 11:48:18.365,2 Jun 2023 11:51:18.692,180.327
7,2 Jun 2023 13:22:20.494,2 Jun 2023 13:22:50.579,30.085
8,3 Jun 2023 08:35:30.798,3 Jun 2023 08:38:42.102,191.304
9,3 Jun 2023 10:10:01.531,3 Jun 2023 10:12:09.632,128.101
10,3 Jun 2023 11:42:58.646,3 Jun 2023 11:45:58.138,179.492
11,4 Jun 2023 06:58:31.243,4 Jun 2023 07:00:02.258,91.015
12,4 Jun 2023 08:30:27.110,4 Jun 2023 08:33:25.943,178.833
13,4 Jun 2023 10:04:45.469,4 Jun 2023 10:07:09.385,143.916
14,4 Jun 2023 11:37:37.645,4 Jun 2023 11:40:14.007,156.362
15,5 Jun 2023 06:51:45.715,5 Jun 2023 06:54:56.659,190.945
16,5 Jun 2023 08:25:32.031,5 Jun 2023 08:28:09.865,157.834
17,5 Jun 2023 09:59:25.804,5 Jun 2023 10:02:04.376,158.572
18,5 Jun 2023 11:32:23.226,5 Jun 2023 11:34:23.835,120.609
19,6 Jun 2023 06:46:23.012,6 Jun 2023 06:49:41.946,198.934
20,6 Jun 2023 08:20:34.584,6 Jun 2023 08:22:55.580,140.996
21,6 Jun 2023 09:53:59.080,6 Jun 2023 09:56:54.398,175.318
22,6 Jun 2023 11:27:26.792,6 Jun 2023 11:28:47.078,80.286
23,7 Jun 2023 06:41:05.469,7 Jun 2023 06:44:21.774,196.305
24,7 Jun 2023 08:15:35.221,7 Jun 2023 08:17:43.566,128.345
25,7 Jun 2023 09:48:36.835,7 Jun 2023 09:51:39.245,182.410
26,8 Jun 2023 05:04:37.578,8 Jun 2023 05:05:25.381,47.803
27,8 Jun 2023 06:35:55.935,8 Jun 2023 06:39:02.867,186.932
28,8 Jun 2023 08:10:22.989,8 Jun 2023 08:12:37.327,134.338
29,8 Jun 2023 09:43:16.456,8 Jun 2023 09:46:10.678,174.222

"Access","Start Time (UTCG)","Stop Time (UTCG)","Duration (sec)"
1,1 Jun 2023 11:07:13.808,1 Jun 2023 11:09:24.959,131.151
2,1 Jun 2023 12:40:08.479,1 Jun 2023 12:43:05.611,177.133
3,2 Jun 2023 07:54:39.532,2 Jun 2023 07:57:18.440,158.908
4,2 Jun 2023 09:27:44.461,2 Jun 2023 09:30:37.470,173.008
5,2 Jun 2023 11:01:56.260,2 Jun 2023 11:04:24.587,148.327
6,2 Jun 2023 12:34:48.699,2 Jun 2023 12:37:14.404,145.705
7,3 Jun 2023 07:48:54.430,3 Jun 2023 07:52:09.373,194.943
8,3 Jun 2023 09:22:47.768,3 Jun 2023 09:25:21.773,154.005
9,3 Jun 2023 10:56:35.031,3 Jun 2023 10:59:18.204,163.173
10,3 Jun 2023 12:29:37.170,3 Jun 2023 12:31:31.242,114.073
11,4 Jun 2023 07:43:33.895,4 Jun 2023 07:46:52.919,199.025
12,4 Jun 2023 09:17:56.307,4 Jun 2023 09:20:08.122,131.815
13,4 Jun 2023 10:51:08.547,4 Jun 2023 10:54:06.620,178.073
14,4 Jun 2023 12:24:49.550,4 Jun 2023 12:25:51.635,62.085
15,5 Jun 2023 07:38:17.624,5 Jun 2023 07:41:31.458,193.833
16,5 Jun 2023 09:12:48.656,5 Jun 2023 09:14:56.580,127.924
17,5 Jun 2023 10:45:47.548,5 Jun 2023 10:48:49.241,181.693
18,6 Jun 2023 06:01:28.301,6 Jun 2023 06:02:44.337,76.036
19,6 Jun 2023 07:33:11.028,6 Jun 2023 07:36:14.423,183.395
20,6 Jun 2023 09:07:34.417,6 Jun 2023 09:09:53.661,139.244
21,6 Jun 2023 10:40:26.833,6 Jun 2023 10:43:11.066,164.234
22,7 Jun 2023 05:54:39.027,7 Jun 2023 05:57:43.215,184.188
23,7 Jun 2023 07:28:15.659,7 Jun 2023 07:30:58.123,162.464
24,7 Jun 2023 09:02:15.280,7 Jun 2023 09:04:50.290,155.010
25,7 Jun 2023 10:35:10.029,7 Jun 2023 10:37:14.424,124.396
26,8 Jun 2023 05:49:13.346,8 Jun 2023 05:52:30.552,197.207
27,8 Jun 2023 07:23:16.463,8 Jun 2023 07:25:43.222,146.759
28,8 Jun 2023 08:56:50.040,8 Jun 2023 08:59:41.886,171.846

"Access","Start Time (UTCG)","Stop Time (UTCG)","Duration (sec)"
1,1 Jun 2023 13:16:14.464,1 Jun 2023 13:19:26.899,192.435
2,1 Jun 2023 14:50:49.552,1 Jun 2023 14:52:52.300,122.747
3,1 Jun 2023 16:23:45.152,1 Jun 2023 16:26:46.890,181.739
4,2 Jun 2023 11:39:24.753,2 Jun 2023 11:40:43.019,78.266
5,2 Jun 2023 13:11:09.434,2 Jun 2023 13:14:11.551,182.117
6,2 Jun 2023 14:45:35.797,2 Jun 2023 14:47:48.513,132.717
7,2 Jun 2023 16:18:25.356,2 Jun 2023 16:21:13.609,168.253
8,3 Jun 2023 11:32:37.098,3 Jun 2023 11:35:42.058,184.960
9,3 Jun 2023 13:06:16.367,3 Jun 2023 13:08:56.133,159.765
10,3 Jun 2023 14:40:16.162,3 Jun 2023 14:42:47.629,151.468
11,3 Jun 2023 16:13:08.489,3 Jun 2023 16:15:13.579,125.090
12,4 Jun 2023 11:27:12.751,4 Jun 2023 11:30:29.828,197.077
13,4 Jun 2023 13:01:19.239,4 Jun 2023 13:03:42.167,142.928
14,4 Jun 2023 14:34:52.999,4 Jun 2023 14:37:40.964,167.964
15,4 Jun 2023 16:08:02.586,4 Jun 2023 16:09:41.612,99.025
16,5 Jun 2023 11:21:54.616,5 Jun 2023 11:25:11.245,196.630
17,5 Jun 2023 12:56:24.843,5 Jun 2023 12:58:29.777,124.934
18,5 Jun 2023 14:29:28.333,5 Jun 2023 14:32:28.498,180.165
19,5 Jun 2023 16:03:41.910,5 Jun 2023 16:03:50.944,9.034
20,6 Jun 2023 09:45:41.003,6 Jun 2023 09:45:59.934,18.931
21,6 Jun 2023 11:16:42.864,6 Jun 2023 11:19:52.225,189.361
22,6 Jun 2023 12:51:16.631,6 Jun 2023 12:53:19.943,123.312
23,6 Jun 2023 14:24:09.278,6 Jun 2023 14:27:07.841,178.563
24,7 Jun 2023 09:39:00.190,7 Jun 2023 09:39:32.959,32.769
25,7 Jun 2023 09:39:38.817,7 Jun 2023 09:41:17.044,98.227
26,7 Jun 2023 11:11:42.935,7 Jun 2023 11:14:36.389,173.453
27,7 Jun 2023 12:45:59.294,7 Jun 2023 12:48:20.900,141.606
28,7 Jun 2023 14:18:49.073,7 Jun 2023 14:21:22.779,153.706
29,8 Jun 2023 09:32:55.785,8 Jun 2023 09:36:09.603,193.817

"Access","Start Time (UTCG)","Stop Time (UTCG)","Duration (sec)"
1,1 Jun 2023 12:29:42.112,1 Jun 2023 12:32:53.610,191.498
2,1 Jun 2023 14:03:30.178,1 Jun 2023 14:06:06.213,156.035
3,1 Jun 2023 15:37:24.552,1 Jun 2023 15:40:00.285,155.733
4,1 Jun 2023 17:10:19.481,1 Jun 2023 17:12:21.722,122.241
5,2 Jun 2023 12:24:20.448,2 Jun 2023 12:27:39.242,198.794
6,2 Jun 2023 13:58:41.490,2 Jun 2023 14:00:52.490,131.000
7,2 Jun 2023 15:31:59.372,2 Jun 2023 15:34:52.024,172.652
8,2 Jun 2023 17:05:20.188,2 Jun 2023 17:06:46.457,86.269
9,3 Jun 2023 12:19:03.955,3 Jun 2023 12:22:19.174,195.219
10,3 Jun 2023 13:53:37.479,3 Jun 2023 13:55:40.982,123.503
11,3 Jun 2023 15:26:36.551,3 Jun 2023 15:29:38.325,181.775
12,4 Jun 2023 10:42:32.926,4 Jun 2023 10:43:25.807,52.881
13,4 Jun 2023 12:13:55.841,4 Jun 2023 12:17:01.932,186.091
14,4 Jun 2023 13:48:26.544,4 Jun 2023 13:50:32.904,126.359
15,4 Jun 2023 15:21:17.176,4 Jun 2023 15:24:12.755,175.579
16,5 Jun 2023 10:35:36.597,5 Jun 2023 10:38:30.110,173.513
17,5 Jun 2023 12:08:58.887,5 Jun 2023 12:11:46.078,167.192
18,5 Jun 2023 13:43:07.766,5 Jun 2023 13:45:34.464,146.698
19,5 Jun 2023 15:15:58.387,5 Jun 2023 15:18:19.032,140.645
20,6 Jun 2023 10:30:03.381,6 Jun 2023 10:33:19.951,196.570
21,6 Jun 2023 12:04:03.040,6 Jun 2023 12:06:31.925,148.885
22,6 Jun 2023 13:37:47.615,6 Jun 2023 13:40:29.122,161.507
23,6 Jun 2023 15:10:48.389,6 Jun 2023 15:12:40.120,111.731
24,7 Jun 2023 10:24:45.351,7 Jun 2023 10:28:02.916,197.565
25,7 Jun 2023 11:59:11.877,7 Jun 2023 12:01:18.724,126.847
26,7 Jun 2023 13:32:20.513,7 Jun 2023 13:35:18.127,177.614
27,7 Jun 2023 15:06:05.132,7 Jun 2023 15:07:00.197,55.064

"Access","Start Time (UTCG)","Stop Time (UTCG)","Duration (sec)"
1,1 Jun 2023 16:13:29.586,1 Jun 2023 16:16:22.383,172.797
2,1 Jun 2023 17:46:50.994,1 Jun 2023 17:49:38.446,167.452
3,1 Jun 2023 19:21:00.266,1 Jun 2023 19:23:26.658,146.391
4,1 Jun 2023 20:53:50.781,1 Jun 2023 20:56:12.552,141.771
5,2 Jun 2023 16:07:55.836,2 Jun 2023 16:11:12.337,196.500
6,2 Jun 2023 17:41:55.229,2 Jun 2023 17:44:24.297,149.069
7,2 Jun 2023 19:15:40.101,2 Jun 2023 19:18:21.398,161.296
8,2 Jun 2023 20:48:40.623,2 Jun 2023 20:50:32.855,112.232
9,3 Jun 2023 16:02:37.725,3 Jun 2023 16:05:55.377,197.653
10,3 Jun 2023 17:37:04.197,3 Jun 2023 17:39:11.063,126.865
11,3 Jun 2023 19:10:13.065,3 Jun 2023 19:13:10.537,177.472
12,3 Jun 2023 20:43:56.582,3 Jun 2023 20:44:53.188,56.606
13,4 Jun 2023 15:57:23.064,4 Jun 2023 16:00:34.804,191.740
14,4 Jun 2023 17:31:58.321,4 Jun 2023 17:34:00.899,122.578
15,4 Jun 2023 19:04:52.502,4 Jun 2023 19:07:53.616,181.114
16,5 Jun 2023 14:20:27.616,5 Jun 2023 14:21:54.216,86.600
17,5 Jun 2023 15:52:19.664,5 Jun 2023 15:55:19.248,179.584
18,5 Jun 2023 17:26:43.206,5 Jun 2023 17:28:58.891,135.684
19,5 Jun 2023 18:59:32.606,5 Jun 2023 19:02:14.009,161.404
20,6 Jun 2023 14:13:42.047,6 Jun 2023 14:16:50.915,188.869
21,6 Jun 2023 15:47:26.235,6 Jun 2023 15:50:04.102,157.867
22,6 Jun 2023 17:21:23.295,6 Jun 2023 17:23:57.006,153.711
23,6 Jun 2023 18:54:16.812,6 Jun 2023 18:56:20.784,123.972
24,7 Jun 2023 14:08:19.338,7 Jun 2023 14:11:37.526,198.188
25,7 Jun 2023 15:42:31.666,7 Jun 2023 15:44:50.267,138.601
26,7 Jun 2023 17:15:59.003,7 Jun 2023 17:18:49.562,170.559
27,7 Jun 2023 18:49:13.822,7 Jun 2023 18:50:46.359,92.536

"Access","Start Time (UTCG)","Stop Time (UTCG)","Duration (sec)"
1,1 Jun 2023 16:59:47.045,1 Jun 2023 17:03:03.685,196.640
2,1 Jun 2023 18:34:17.152,1 Jun 2023 18:36:22.076,124.924
3,1 Jun 2023 20:07:20.830,1 Jun 2023 20:10:20.853,180.023
4,1 Jun 2023 21:41:31.112,1 Jun 2023 21:41:45.901,14.789
5,2 Jun 2023 15:23:34.701,2 Jun 2023 15:23:50.637,15.936
6,2 Jun 2023 16:54:35.141,2 Jun 2023 16:57:44.620,189.479
7,2 Jun 2023 18:29:09.102,2 Jun 2023 18:31:12.255,123.153
8,2 Jun 2023 20:02:01.701,2 Jun 2023 20:05:00.429,178.728
9,3 Jun 2023 15:16:53.423,3 Jun 2023 15:17:24.654,31.231
10,3 Jun 2023 15:17:31.422,3 Jun 2023 15:19:09.282,97.860
11,3 Jun 2023 16:49:35.081,3 Jun 2023 16:52:28.800,173.719
12,3 Jun 2023 18:23:51.827,3 Jun 2023 18:26:13.089,141.262
13,3 Jun 2023 19:56:41.540,3 Jun 2023 19:59:15.762,154.222
14,4 Jun 2023 15:10:48.352,4 Jun 2023 15:14:01.994,193.642
15,4 Jun 2023 16:44:40.353,4 Jun 2023 16:47:14.169,153.815
16,4 Jun 2023 18:18:31.666,4 Jun 2023 18:21:09.321,157.655
17,4 Jun 2023 19:51:28.333,4 Jun 2023 19:53:27.937,119.604
18,5 Jun 2023 15:05:27.775,5 Jun 2023 15:08:46.665,198.890
19,5 Jun 2023 16:39:51.093,5 Jun 2023 16:42:00.605,129.512
20,5 Jun 2023 18:13:05.746,5 Jun 2023 18:16:00.186,174.440
21,5 Jun 2023 19:46:35.666,5 Jun 2023 19:47:51.544,75.878
22,6 Jun 2023 15:00:12.021,6 Jun 2023 15:03:25.840,193.819
23,6 Jun 2023 16:34:46.656,6 Jun 2023 16:36:49.575,122.919
24,6 Jun 2023 18:07:43.725,6 Jun 2023 18:10:45.697,181.971
25,7 Jun 2023 13:23:29.804,7 Jun 2023 13:24:37.590,67.787
26,7 Jun 2023 14:55:05.543,7 Jun 2023 14:58:09.685,184.141
27,7 Jun 2023 16:29:34.249,7 Jun 2023 16:31:43.880,129.631
28,7 Jun 2023 18:02:24.116,7 Jun 2023 18:05:16.753,172.637

"Access","Start Time (UTCG)","Stop Time (UTCG)","Duration (sec)"
1,1 Jun 2023 20:43:20.749,1 Jun 2023 20:46:39.917,199.169
2,1 Jun 2023 22:17:35.865,1 Jun 2023 22:19:53.987,138.122
3,1 Jun 2023 23:50:56.550,1 Jun 2023 23:53:52.763,176.212
4,2 Jun 2023 01:24:29.307,2 Jun 2023 01:25:43.320,74.012
5,2 Jun 2023 20:38:03.719,2 Jun 2023 20:41:19.311,195.592
6,2 Jun 2023 22:12:34.191,2 Jun 2023 22:14:42.181,127.990
7,2 Jun 2023 23:45:34.713,2 Jun 2023 23:48:37.049,182.336
8,3 Jun 2023 19:01:25.544,3 Jun 2023 19:02:26.447,60.903
9,3 Jun 2023 20:32:55.235,3 Jun 2023 20:36:01.062,185.827
10,3 Jun 2023 22:07:21.311,3 Jun 2023 22:09:37.105,135.794
11,3 Jun 2023 23:40:14.227,3 Jun 2023 23:43:06.133,171.906
12,4 Jun 2023 18:54:31.158,4 Jun 2023 18:57:28.502,177.345
13,4 Jun 2023 20:27:57.392,4 Jun 2023 20:30:44.709,167.317
14,4 Jun 2023 22:02:02.704,4 Jun 2023 22:04:34.937,152.234
15,4 Jun 2023 23:34:56.150,4 Jun 2023 23:37:01.598,125.448
16,5 Jun 2023 18:49:00.184,5 Jun 2023 18:52:17.136,196.952
17,5 Jun 2023 20:22:59.660,5 Jun 2023 20:25:29.494,149.833
18,5 Jun 2023 21:56:38.861,5 Jun 2023 21:59:27.520,168.658
19,5 Jun 2023 23:29:48.044,5 Jun 2023 23:31:31.890,103.846
20,6 Jun 2023 18:43:41.847,6 Jun 2023 18:46:59.290,197.443
21,6 Jun 2023 20:18:06.393,6 Jun 2023 20:20:16.491,130.097
22,6 Jun 2023 21:51:14.249,6 Jun 2023 21:54:14.400,180.151
23,6 Jun 2023 23:25:15.025,6 Jun 2023 23:25:47.431,32.406
24,7 Jun 2023 18:38:26.491,7 Jun 2023 18:41:37.871,191.380
25,7 Jun 2023 20:12:57.390,7 Jun 2023 20:15:05.318,127.928
26,7 Jun 2023 21:45:54.461,7 Jun 2023 21:48:54.107,179.645

"Access","Start Time (UTCG)","Stop Time (UTCG)","Duration (sec)"
1,1 Jun 2023 19:58:22.826,1 Jun 2023 19:59:44.935,82.109
2,1 Jun 2023 21:30:10.606,1 Jun 2023 21:33:12.528,181.923
3,1 Jun 2023 23:04:32.529,1 Jun 2023 23:06:53.180,140.651
4,2 Jun 2023 00:37:24.735,2 Jun 2023 00:40:05.683,160.949
5,2 Jun 2023 19:51:35.191,2 Jun 2023 19:54:42.072,186.881
6,2 Jun 2023 21:25:16.190,2 Jun 2023 21:27:56.307,160.117
7,2 Jun 2023 22:59:13.174,2 Jun 2023 23:01:49.334,156.160
8,3 Jun 2023 00:32:08.622,3 Jun 2023 00:34:12.104,123.482
9,3 Jun 2023 19:46:10.974,3 Jun 2023 19:49:28.742,197.768
10,3 Jun 2023 21:20:16.779,3 Jun 2023 21:22:41.632,144.853
11,3 Jun 2023 22:53:47.439,3 Jun 2023 22:56:40.489,173.050
12,4 Jun 2023 00:27:05.876,4 Jun 2023 00:28:36.620,90.744
13,4 Jun 2023 19:40:52.357,4 Jun 2023 19:44:09.473,197.115
14,4 Jun 2023 21:15:20.484,4 Jun 2023 21:17:29.278,128.793
15,4 Jun 2023 22:48:24.311,4 Jun 2023 22:51:26.296,181.985
16,5 Jun 2023 18:04:32.674,5 Jun 2023 18:05:03.322,30.648
17,5 Jun 2023 19:35:40.534,5 Jun 2023 19:38:49.525,188.991
18,5 Jun 2023 21:10:09.633,5 Jun 2023 21:12:20.267,130.634
19,5 Jun 2023 22:43:04.336,5 Jun 2023 22:46:01.652,177.316
20,6 Jun 2023 17:57:36.641,6 Jun 2023 18:00:14.037,157.396
21,6 Jun 2023 19:30:39.974,6 Jun 2023 19:33:33.199,173.225
22,6 Jun 2023 21:04:52.144,6 Jun 2023 21:07:20.126,147.982
23,6 Jun 2023 22:37:44.474,6 Jun 2023 22:40:11.006,146.531
24,7 Jun 2023 17:51:50.329,7 Jun 2023 17:55:05.120,194.791
25,7 Jun 2023 19:25:43.398,7 Jun 2023 19:28:17.525,154.128
26,7 Jun 2023 20:59:31.217,7 Jun 2023 21:02:13.847,162.630
27,7 Jun 2023 22:32:32.786,7 Jun 2023 22:34:27.348,114.562

"Access","Start Time (UTCG)","Stop Time (UTCG)","Duration (sec)"
1,1 Jun 2023 23:42:40.362,1 Jun 2023 23:42:49.076,8.714
2,2 Jun 2023 01:13:36.871,2 Jun 2023 01:16:47.230,190.359
3,2 Jun 2023 02:48:03.776,2 Jun 2023 02:50:19.999,136.224
4,2 Jun 2023 04:21:01.001,2 Jun 2023 04:23:58.651,177.650
5,2 Jun 2023 23:35:54.359,2 Jun 2023 23:36:24.199,29.840
6,2 Jun 2023 23:36:32.249,2 Jun 2023 23:38:08.884,96.635
7,3 Jun 2023 01:08:33.477,3 Jun 2023 01:11:30.461,176.983
8,3 Jun 2023 02:42:46.485,3 Jun 2023 02:45:17.322,150.837
9,3 Jun 2023 04:15:40.718,3 Jun 2023 04:18:06.692,145.974
10,3 Jun 2023 23:29:47.072,3 Jun 2023 23:33:00.454,193.382
11,4 Jun 2023 01:03:36.421,4 Jun 2023 01:06:14.071,157.649
12,4 Jun 2023 02:37:23.214,4 Jun 2023 02:40:09.681,166.467
13,4 Jun 2023 04:10:28.544,4 Jun 2023 04:12:22.565,114.021
14,4 Jun 2023 23:24:24.695,4 Jun 2023 23:27:44.180,199.485
15,5 Jun 2023 00:58:36.938,5 Jun 2023 01:00:59.477,142.539
16,5 Jun 2023 02:31:57.918,5 Jun 2023 02:34:56.996,179.079
17,5 Jun 2023 04:05:39.985,5 Jun 2023 04:06:42.205,62.220
18,5 Jun 2023 23:19:07.057,5 Jun 2023 23:22:23.048,195.991
19,6 Jun 2023 00:53:34.935,6 Jun 2023 00:55:46.754,131.820
20,6 Jun 2023 02:26:36.742,6 Jun 2023 02:29:38.667,181.925
21,6 Jun 2023 21:42:23.276,6 Jun 2023 21:43:30.330,67.054
22,6 Jun 2023 23:13:58.129,6 Jun 2023 23:17:03.699,185.570
23,7 Jun 2023 00:48:20.491,7 Jun 2023 00:50:43.556,143.065
24,7 Jun 2023 02:21:15.206,7 Jun 2023 02:23:59.452,164.246
25,7 Jun 2023 21:35:29.807,7 Jun 2023 21:38:30.315,180.508
26,7 Jun 2023 23:08:59.270,7 Jun 2023 23:11:46.871,167.602
27,8 Jun 2023 00:43:01.587,8 Jun 2023 00:45:38.491,156.904
28,8 Jun 2023 02:15:57.846,8 Jun 2023 02:18:02.125,124.279

"Access","Start Time (UTCG)","Stop Time (UTCG)","Duration (sec)"
1,2 Jun 2023 00:26:58.178,2 Jun 2023 00:30:14.610,196.432
2,2 Jun 2023 02:00:53.766,2 Jun 2023 02:03:27.872,154.106
3,2 Jun 2023 03:34:33.782,2 Jun 2023 03:37:25.010,171.228
4,2 Jun 2023 05:07:45.717,2 Jun 2023 05:09:28.915,103.198
5,3 Jun 2023 00:21:38.137,3 Jun 2023 00:24:56.830,198.693
6,3 Jun 2023 01:55:59.568,3 Jun 2023 01:58:13.850,134.282
7,3 Jun 2023 03:29:09.746,3 Jun 2023 03:32:10.822,181.076
8,3 Jun 2023 05:03:12.072,3 Jun 2023 05:03:43.404,31.332
9,4 Jun 2023 00:16:21.498,4 Jun 2023 00:19:34.584,193.085
10,4 Jun 2023 01:50:49.587,4 Jun 2023 01:53:01.436,131.850
11,4 Jun 2023 03:23:49.581,4 Jun 2023 03:26:49.349,179.768
12,4 Jun 2023 22:39:24.815,4 Jun 2023 22:40:50.258,85.443
13,5 Jun 2023 00:11:15.320,5 Jun 2023 00:14:17.083,181.763
14,5 Jun 2023 01:45:33.620,5 Jun 2023 01:48:00.652,147.032
15,5 Jun 2023 03:18:27.802,5 Jun 2023 03:21:04.358,156.557
16,5 Jun 2023 22:32:37.033,5 Jun 2023 22:35:45.600,188.568
17,6 Jun 2023 00:06:19.488,6 Jun 2023 00:09:00.411,160.923
18,6 Jun 2023 01:40:13.472,6 Jun 2023 01:42:54.153,160.681
19,6 Jun 2023 03:13:12.862,6 Jun 2023 03:15:13.313,120.451
20,6 Jun 2023 22:27:12.664,6 Jun 2023 22:30:31.168,198.504
21,7 Jun 2023 00:01:17.828,7 Jun 2023 00:03:45.249,147.421
22,7 Jun 2023 01:34:46.367,7 Jun 2023 01:37:43.046,176.679
23,7 Jun 2023 03:08:15.946,7 Jun 2023 03:09:35.727,79.781
24,7 Jun 2023 22:21:53.627,7 Jun 2023 22:25:11.219,197.591
25,7 Jun 2023 23:56:19.854,7 Jun 2023 23:58:32.108,132.254
26,8 Jun 2023 01:29:24.119,8 Jun 2023 01:32:26.938,182.819

"Access","Start Time (UTCG)","Stop Time (UTCG)","Duration (sec)"
1,2 Jun 2023 04:10:40.514,2 Jun 2023 04:13:47.466,186.952
2,2 Jun 2023 05:44:20.424,2 Jun 2023 05:47:02.691,162.267
3,2 Jun 2023 07:18:16.605,2 Jun 2023 07:20:55.981,159.376
4,2 Jun 2023 08:51:14.694,2 Jun 2023 08:53:16.298,121.604
5,3 Jun 2023 04:05:15.534,3 Jun 2023 04:08:33.493,197.959
6,3 Jun 2023 05:39:18.854,3 Jun 2023 05:41:47.387,148.533
7,3 Jun 2023 07:12:49.106,3 Jun 2023 07:15:45.224,176.119
8,3 Jun 2023 08:46:15.044,3 Jun 2023 08:47:39.166,84.122
9,4 Jun 2023 03:59:56.065,4 Jun 2023 04:03:13.847,197.782
10,4 Jun 2023 05:34:21.625,4 Jun 2023 05:36:34.110,132.485
11,4 Jun 2023 07:07:26.614,4 Jun 2023 07:10:29.430,182.817
12,5 Jun 2023 02:23:34.950,5 Jun 2023 02:24:06.391,31.441
13,5 Jun 2023 03:54:43.206,5 Jun 2023 03:57:52.506,189.300
14,5 Jun 2023 05:29:09.151,5 Jun 2023 05:31:27.254,138.104
15,5 Jun 2023 07:02:05.501,5 Jun 2023 07:05:01.273,175.771
16,6 Jun 2023 02:16:36.364,6 Jun 2023 02:19:15.765,159.402
17,6 Jun 2023 03:49:41.082,6 Jun 2023 03:52:35.674,174.592
18,6 Jun 2023 05:23:51.366,6 Jun 2023 05:26:23.872,152.506
19,6 Jun 2023 06:56:45.921,6 Jun 2023 06:59:02.539,136.617
20,7 Jun 2023 02:10:51.099,7 Jun 2023 02:14:06.039,194.940
21,7 Jun 2023 03:44:43.221,7 Jun 2023 03:47:19.426,156.205
22,7 Jun 2023 05:18:27.062,7 Jun 2023 05:21:15.784,168.721
23,7 Jun 2023 06:51:35.139,7 Jun 2023 06:53:25.102,109.963
24,8 Jun 2023 02:05:29.729,8 Jun 2023 02:08:49.082,199.353
25,8 Jun 2023 03:39:45.019,8 Jun 2023 03:42:05.067,140.048
26,8 Jun 2023 05:13:02.355,8 Jun 2023 05:16:02.184,179.829
27,8 Jun 2023 06:46:53.025,8 Jun 2023 06:47:42.894,49.869

"Access","Start Time (UTCG)","Stop Time (UTCG)","Duration (sec)"
1,2 Jun 2023 04:57:09.263,2 Jun 2023 05:00:25.785,196.522
2,2 Jun 2023 06:31:36.829,2 Jun 2023 06:33:48.775,131.946
3,2 Jun 2023 08:04:39.195,2 Jun 2023 08:07:41.442,182.247
4,3 Jun 2023 03:20:29.759,3 Jun 2023 03:21:30.967,61.209
5,3 Jun 2023 04:51:59.636,3 Jun 2023 04:55:05.997,186.361
6,3 Jun 2023 06:26:22.751,3 Jun 2023 06:28:44.940,142.189
7,3 Jun 2023 07:59:17.699,3 Jun 2023 08:02:05.145,167.446
8,4 Jun 2023 03:13:34.265,4 Jun 2023 03:16:32.075,177.809
9,4 Jun 2023 04:47:00.026,4 Jun 2023 04:49:49.142,169.115
10,4 Jun 2023 06:21:04.028,4 Jun 2023 06:23:40.169,156.141
11,4 Jun 2023 07:53:59.881,4 Jun 2023 07:56:04.674,124.793
12,5 Jun 2023 03:08:02.934,5 Jun 2023 03:11:19.978,197.044
13,5 Jun 2023 04:42:00.780,5 Jun 2023 04:44:33.329,152.549
14,5 Jun 2023 06:15:37.891,5 Jun 2023 06:18:30.854,172.963
15,5 Jun 2023 07:48:53.256,5 Jun 2023 07:50:30.502,97.247
16,6 Jun 2023 03:02:43.743,6 Jun 2023 03:06:01.620,197.877
17,6 Jun 2023 04:37:06.086,6 Jun 2023 04:39:19.530,133.443
18,6 Jun 2023 06:10:14.341,6 Jun 2023 06:13:16.241,181.900
19,7 Jun 2023 02:57:27.416,7 Jun 2023 03:00:38.911,191.495
20,7 Jun 2023 04:31:55.124,7 Jun 2023 04:34:08.998,133.874
21,7 Jun 2023 06:04:53.876,7 Jun 2023 06:07:53.030,179.154
22,8 Jun 2023 01:20:27.035,8 Jun 2023 01:21:57.786,90.751
23,8 Jun 2023 02:52:22.374,8 Jun 2023 02:55:22.254,179.880
24,8 Jun 2023 04:26:38.554,8 Jun 2023 04:29:07.303,148.749
25,8 Jun 2023 05:59:32.679,8 Jun 2023 06:02:05.054,152.375

