STK/target_primary/access_sensors/RCO_2x4_50_300_0_6.0.csv

"Access","Start Time (UTCG)","Stop Time (UTCG)","Duration (sec)"
1,1 Aug 2023 10:30:38.039,1 Aug 2023 10:31:39.225,61.186
2,2 Aug 2023 04:19:49.308,2 Aug 2023 04:25:15.444,326.136
3,2 Aug 2023 05:54:17.098,2 Aug 2023 05:59:33.330,316.232
4,2 Aug 2023 07:28:57.299,2 Aug 2023 07:34:12.424,315.125
5,2 Aug 2023 09:03:10.799,2 Aug 2023 09:07:34.107,263.308
6,3 Aug 2023 02:55:13.837,3 Aug 2023 02:58:56.179,222.342
7,3 Aug 2023 04:28:01.004,3 Aug 2023 04:33:31.925,330.921
8,3 Aug 2023 06:02:48.005,3 Aug 2023 06:07:57.844,309.839
9,3 Aug 2023 07:37:12.274,3 Aug 2023 07:42:30.426,318.152
10,3 Aug 2023 09:11:45.204,3 Aug 2023 09:15:01.667,196.464
11,4 Aug 2023 03:02:20.577,4 Aug 2023 03:07:30.371,309.795
12,4 Aug 2023 04:36:24.395,4 Aug 2023 04:41:48.807,324.412
13,4 Aug 2023 06:11:13.725,4 Aug 2023 06:16:24.305,310.580
14,4 Aug 2023 07:45:26.749,4 Aug 2023 07:50:32.089,305.341
15,5 Aug 2023 01:39:25.668,5 Aug 2023 01:40:18.960,53.292
16,5 Aug 2023 03:10:22.254,5 Aug 2023 03:15:50.666,328.412
17,5 Aug 2023 04:44:55.064,5 Aug 2023 04:50:09.582,314.518
18,5 Aug 2023 06:19:32.309,5 Aug 2023 06:24:48.243,315.934
19,5 Aug 2023 07:53:47.637,5 Aug 2023 07:57:56.545,248.907
20,6 Aug 2023 01:45:23.396,6 Aug 2023 01:49:36.701,253.305
21,6 Aug 2023 03:18:36.356,6 Aug 2023 03:24:06.874,330.518
22,6 Aug 2023 04:53:25.420,6 Aug 2023 04:58:34.826,309.406
23,6 Aug 2023 06:27:46.761,6 Aug 2023 06:33:04.353,317.593
24,6 Aug 2023 08:02:28.057,6 Aug 2023 08:05:27.945,179.888
25,7 Aug 2023 01:52:50.929,7 Aug 2023 01:58:06.857,315.929
26,7 Aug 2023 03:27:01.966,7 Aug 2023 03:32:24.307,322.341
27,7 Aug 2023 05:01:49.658,7 Aug 2023 05:07:01.332,311.674
28,7 Aug 2023 06:36:01.888,7 Aug 2023 06:41:00.894,299.006
29,8 Aug 2023 00:29:34.251,8 Aug 2023 00:31:17.758,103.506
30,8 Aug 2023 02:00:56.148,8 Aug 2023 02:06:25.759,329.611
31,8 Aug 2023 03:35:33.027,8 Aug 2023 03:40:46.010,312.984
32,8 Aug 2023 05:10:07.163,8 Aug 2023 05:15:23.798,316.635
33,8 Aug 2023 06:44:25.145,8 Aug 2023 06:48:18.987,233.842

"Access","Start Time (UTCG)","Stop Time (UTCG)","Duration (sec)"
1,2 Aug 2023 03:33:21.758,2 Aug 2023 03:37:56.782,275.024
2,2 Aug 2023 05:06:53.003,2 Aug 2023 05:12:22.515,329.511
3,2 Aug 2023 06:41:43.384,2 Aug 2023 06:46:52.630,309.246
4,2 Aug 2023 08:16:01.889,2 Aug 2023 08:21:17.940,316.051
5,2 Aug 2023 09:50:55.890,2 Aug 2023 09:53:31.320,155.431
6,3 Aug 2023 03:41:02.740,3 Aug 2023 03:46:23.628,320.888
7,3 Aug 2023 05:15:20.567,3 Aug 2023 05:20:40.679,320.113
8,3 Aug 2023 06:50:06.018,3 Aug 2023 06:55:18.929,312.911
9,3 Aug 2023 08:24:17.997,3 Aug 2023 08:29:07.843,289.846
10,4 Aug 2023 02:17:28.193,4 Aug 2023 02:19:47.370,139.177
11,4 Aug 2023 03:49:11.542,4 Aug 2023 03:54:41.413,329.871
12,4 Aug 2023 05:23:51.771,4 Aug 2023 05:29:03.378,311.607
13,4 Aug 2023 06:58:22.520,4 Aug 2023 07:03:39.805,317.285
14,4 Aug 2023 08:32:44.168,4 Aug 2023 08:36:27.460,223.293
15,5 Aug 2023 02:23:45.313,5 Aug 2023 02:28:34.905,289.592
16,5 Aug 2023 03:57:29.456,5 Aug 2023 04:02:57.602,328.145
17,5 Aug 2023 05:32:20.272,5 Aug 2023 05:37:29.638,309.366
18,5 Aug 2023 07:06:36.487,5 Aug 2023 07:11:50.155,313.668
19,5 Aug 2023 08:41:50.063,5 Aug 2023 08:43:50.977,120.913
20,6 Aug 2023 02:31:35.208,6 Aug 2023 02:36:59.334,324.126
21,6 Aug 2023 04:05:58.348,6 Aug 2023 04:11:16.549,318.201
22,6 Aug 2023 05:40:41.440,6 Aug 2023 05:45:55.480,314.040
23,6 Aug 2023 07:14:53.800,6 Aug 2023 07:19:32.116,278.315
24,7 Aug 2023 01:07:42.848,7 Aug 2023 01:10:32.504,169.657
25,7 Aug 2023 02:39:45.692,7 Aug 2023 02:45:16.362,330.670
26,7 Aug 2023 04:14:29.558,7 Aug 2023 04:19:40.165,310.606
27,7 Aug 2023 05:48:57.167,7 Aug 2023 05:54:15.133,317.966
28,7 Aug 2023 07:23:23.423,7 Aug 2023 07:26:53.639,210.216
29,8 Aug 2023 01:14:11.758,8 Aug 2023 01:19:12.554,300.796
30,8 Aug 2023 02:48:06.333,8 Aug 2023 02:53:32.797,326.464
31,8 Aug 2023 04:22:56.791,8 Aug 2023 04:28:06.592,309.801
32,8 Aug 2023 05:57:11.210,8 Aug 2023 06:02:21.460,310.251
33,8 Aug 2023 07:32:54.497,8 Aug 2023 07:34:01.238,66.741

"Access","Start Time (UTCG)","Stop Time (UTCG)","Duration (sec)"
1,1 Aug 2023 10:13:45.562,1 Aug 2023 10:18:58.940,313.378
2,1 Aug 2023 11:47:53.480,1 Aug 2023 11:53:15.666,322.185
3,1 Aug 2023 13:22:43.097,1 Aug 2023 13:27:52.087,308.990
4,1 Aug 2023 14:56:54.619,1 Aug 2023 15:01:58.868,304.249
5,2 Aug 2023 08:50:38.598,2 Aug 2023 08:52:02.699,84.101
6,2 Aug 2023 10:21:50.107,2 Aug 2023 10:27:19.144,329.037
7,2 Aug 2023 11:56:25.867,2 Aug 2023 12:01:37.737,311.869
8,2 Aug 2023 13:31:02.051,2 Aug 2023 13:36:17.103,315.052
9,2 Aug 2023 15:05:16.555,2 Aug 2023 15:09:22.818,246.263
10,3 Aug 2023 08:56:44.516,3 Aug 2023 09:01:08.986,264.470
11,3 Aug 2023 10:30:06.399,3 Aug 2023 10:35:35.905,329.506
12,3 Aug 2023 12:04:57.398,3 Aug 2023 12:10:04.429,307.031
13,3 Aug 2023 13:39:17.032,3 Aug 2023 13:44:33.995,316.964
14,3 Aug 2023 15:13:59.001,3 Aug 2023 15:16:55.939,176.938
15,4 Aug 2023 09:04:19.736,4 Aug 2023 09:09:38.254,318.518
16,4 Aug 2023 10:38:34.356,4 Aug 2023 10:43:54.322,319.966
17,4 Aug 2023 12:13:22.040,4 Aug 2023 12:18:32.269,310.229
18,4 Aug 2023 13:47:32.861,4 Aug 2023 13:52:30.626,297.764
19,5 Aug 2023 07:40:56.952,5 Aug 2023 07:42:56.867,119.915
20,5 Aug 2023 09:12:27.600,5 Aug 2023 09:17:57.268,329.668
21,5 Aug 2023 10:47:06.991,5 Aug 2023 10:52:17.356,310.365
22,5 Aug 2023 12:21:39.927,5 Aug 2023 12:26:55.787,315.860
23,5 Aug 2023 13:55:57.223,5 Aug 2023 13:59:49.988,232.766
24,6 Aug 2023 07:47:09.003,6 Aug 2023 07:51:50.662,281.659
25,6 Aug 2023 09:20:45.736,6 Aug 2023 09:26:13.998,328.262
26,6 Aug 2023 10:55:37.629,6 Aug 2023 11:00:44.626,306.998
27,6 Aug 2023 12:29:54.610,6 Aug 2023 12:35:10.153,315.543
28,6 Aug 2023 14:04:48.828,6 Aug 2023 14:07:22.313,153.484
29,7 Aug 2023 07:54:54.720,7 Aug 2023 08:00:17.201,322.482
30,7 Aug 2023 09:29:15.256,7 Aug 2023 09:34:33.160,317.904
31,7 Aug 2023 11:04:00.724,7 Aug 2023 11:09:12.239,311.514
32,7 Aug 2023 12:38:11.398,7 Aug 2023 12:43:00.528,289.130
33,8 Aug 2023 06:31:14.937,8 Aug 2023 06:33:46.468,151.531
34,8 Aug 2023 08:03:05.398,8 Aug 2023 08:08:35.307,329.909
35,8 Aug 2023 09:37:48.043,8 Aug 2023 09:42:57.131,309.088

"Access","Start Time (UTCG)","Stop Time (UTCG)","Duration (sec)"
1,1 Aug 2023 11:00:38.583,1 Aug 2023 11:06:08.601,330.018
2,1 Aug 2023 12:35:21.681,1 Aug 2023 12:40:30.645,308.964
3,1 Aug 2023 14:09:50.954,1 Aug 2023 14:15:07.638,316.684
4,1 Aug 2023 15:44:12.247,1 Aug 2023 15:47:53.707,221.459
5,2 Aug 2023 09:35:09.407,2 Aug 2023 09:40:05.243,295.836
6,2 Aug 2023 11:08:59.060,2 Aug 2023 11:14:25.512,326.452
7,2 Aug 2023 12:43:50.926,2 Aug 2023 12:48:58.354,307.428
8,2 Aug 2023 14:18:05.530,2 Aug 2023 14:23:18.427,312.897
9,2 Aug 2023 15:53:21.785,2 Aug 2023 15:55:16.018,114.233
10,3 Aug 2023 09:43:03.938,3 Aug 2023 09:48:29.205,325.267
11,3 Aug 2023 11:17:29.921,3 Aug 2023 11:22:45.607,315.686
12,3 Aug 2023 12:52:12.509,3 Aug 2023 12:57:25.417,312.909
13,3 Aug 2023 14:26:23.699,3 Aug 2023 14:30:59.760,276.060
14,4 Aug 2023 08:18:52.153,4 Aug 2023 08:22:07.763,195.609
15,4 Aug 2023 09:51:16.070,4 Aug 2023 09:56:46.596,330.525
16,4 Aug 2023 11:26:02.586,4 Aug 2023 11:31:10.629,308.043
17,4 Aug 2023 13:00:28.641,4 Aug 2023 13:05:46.037,317.397
18,4 Aug 2023 14:34:54.721,4 Aug 2023 14:38:22.982,208.261
19,5 Aug 2023 08:25:40.190,5 Aug 2023 08:30:45.642,305.452
20,5 Aug 2023 09:59:39.298,5 Aug 2023 10:05:03.836,324.539
21,5 Aug 2023 11:34:30.439,5 Aug 2023 11:39:38.470,308.031
22,5 Aug 2023 13:08:43.333,5 Aug 2023 13:13:52.811,309.478
23,5 Aug 2023 14:44:32.714,5 Aug 2023 14:45:26.103,53.390
24,6 Aug 2023 08:33:40.416,6 Aug 2023 08:39:07.599,327.183
25,6 Aug 2023 10:08:11.046,6 Aug 2023 10:13:24.846,313.800
26,6 Aug 2023 11:42:50.726,6 Aug 2023 11:48:04.764,314.038
27,6 Aug 2023 13:17:03.076,6 Aug 2023 13:21:25.496,262.420
28,7 Aug 2023 07:08:55.354,7 Aug 2023 07:12:52.268,236.914
29,7 Aug 2023 08:41:54.230,7 Aug 2023 08:47:24.586,330.356
30,7 Aug 2023 10:16:43.318,7 Aug 2023 10:21:50.717,307.399
31,7 Aug 2023 11:51:06.255,7 Aug 2023 11:56:23.805,317.550
32,7 Aug 2023 13:25:38.635,7 Aug 2023 13:28:54.400,195.765
33,8 Aug 2023 07:16:12.793,8 Aug 2023 07:21:25.469,312.676
34,8 Aug 2023 08:50:19.869,8 Aug 2023 08:55:42.310,322.441

"Access","Start Time (UTCG)","Stop Time (UTCG)","Duration (sec)"
1,1 Aug 2023 16:15:43.305,1 Aug 2023 16:21:02.616,319.311
2,1 Aug 2023 17:49:58.893,1 Aug 2023 17:55:19.701,320.809
3,1 Aug 2023 19:24:45.167,1 Aug 2023 19:29:57.591,312.425
4,1 Aug 2023 20:58:57.124,1 Aug 2023 21:03:50.557,293.433
5,2 Aug 2023 14:52:15.055,2 Aug 2023 14:54:22.212,127.157
6,2 Aug 2023 16:23:50.886,2 Aug 2023 16:29:20.771,329.885
7,2 Aug 2023 17:58:30.090,2 Aug 2023 18:03:42.071,311.981
8,2 Aug 2023 19:33:02.025,2 Aug 2023 19:38:19.018,316.993
9,2 Aug 2023 21:07:22.197,2 Aug 2023 21:11:09.627,227.430
10,3 Aug 2023 14:58:28.572,3 Aug 2023 15:03:13.250,284.678
11,3 Aug 2023 16:32:08.258,3 Aug 2023 16:37:36.928,328.670
12,3 Aug 2023 18:06:59.037,3 Aug 2023 18:12:08.262,309.225
13,3 Aug 2023 19:41:16.040,3 Aug 2023 19:46:30.722,314.682
14,3 Aug 2023 21:16:20.680,3 Aug 2023 21:18:36.856,136.176
15,4 Aug 2023 15:06:15.438,4 Aug 2023 15:11:38.533,323.095
16,4 Aug 2023 16:40:36.734,4 Aug 2023 16:45:55.597,318.863
17,4 Aug 2023 18:15:20.774,4 Aug 2023 18:20:34.348,313.574
18,4 Aug 2023 19:49:32.877,4 Aug 2023 19:54:16.007,283.130
19,5 Aug 2023 13:42:31.182,5 Aug 2023 13:45:08.458,157.276
20,5 Aug 2023 15:14:25.456,5 Aug 2023 15:19:55.833,330.377
21,5 Aug 2023 16:49:08.021,5 Aug 2023 16:54:18.910,310.889
22,5 Aug 2023 18:23:36.796,5 Aug 2023 18:28:54.545,317.750
23,5 Aug 2023 19:58:01.107,5 Aug 2023 20:01:36.721,215.614
24,6 Aug 2023 13:48:54.162,6 Aug 2023 13:53:51.130,296.968
25,6 Aug 2023 15:22:45.083,6 Aug 2023 15:28:12.180,327.097
26,6 Aug 2023 16:57:35.802,6 Aug 2023 17:02:45.341,309.539
27,6 Aug 2023 18:31:50.804,6 Aug 2023 18:37:02.434,311.630
28,6 Aug 2023 20:07:18.385,6 Aug 2023 20:08:52.169,93.784
29,7 Aug 2023 13:56:48.705,7 Aug 2023 14:02:14.163,325.458
30,7 Aug 2023 15:31:14.695,7 Aug 2023 15:36:31.682,316.987
31,7 Aug 2023 17:05:56.157,7 Aug 2023 17:11:10.808,314.651
32,7 Aug 2023 18:40:09.039,7 Aug 2023 18:44:38.213,269.173

"Access","Start Time (UTCG)","Stop Time (UTCG)","Duration (sec)"
1,1 Aug 2023 15:30:10.045,1 Aug 2023 15:33:33.033,202.988
2,1 Aug 2023 17:02:40.358,1 Aug 2023 17:08:11.269,330.911
3,1 Aug 2023 18:37:26.417,1 Aug 2023 18:42:36.419,310.001
4,1 Aug 2023 20:11:51.822,1 Aug 2023 20:17:09.974,318.152
5,1 Aug 2023 21:46:22.114,1 Aug 2023 21:49:43.759,201.645
6,2 Aug 2023 15:37:02.071,2 Aug 2023 15:42:09.059,306.988
7,2 Aug 2023 17:11:02.876,2 Aug 2023 17:16:27.994,325.117
8,2 Aug 2023 18:45:52.711,2 Aug 2023 18:51:02.896,310.185
9,2 Aug 2023 20:20:06.130,2 Aug 2023 20:25:13.421,307.291
10,3 Aug 2023 15:45:02.294,3 Aug 2023 15:50:29.995,327.702
11,3 Aug 2023 17:19:33.371,3 Aug 2023 17:24:48.455,315.084
12,3 Aug 2023 18:54:11.754,3 Aug 2023 18:59:27.377,315.623
13,3 Aug 2023 20:28:26.253,3 Aug 2023 20:32:40.914,254.660
14,4 Aug 2023 14:20:10.549,4 Aug 2023 14:24:14.266,243.717
15,4 Aug 2023 15:53:15.579,4 Aug 2023 15:58:46.298,330.719
16,4 Aug 2023 17:28:04.009,4 Aug 2023 17:33:13.478,309.469
17,4 Aug 2023 19:02:26.405,4 Aug 2023 19:07:44.286,317.881
18,4 Aug 2023 20:37:04.172,4 Aug 2023 20:40:10.947,186.775
19,5 Aug 2023 14:27:31.943,5 Aug 2023 14:32:45.823,313.879
20,5 Aug 2023 16:01:40.445,5 Aug 2023 16:07:03.532,323.087
21,5 Aug 2023 17:36:28.842,5 Aug 2023 17:41:40.031,311.189
22,5 Aug 2023 19:10:41.271,5 Aug 2023 19:15:42.923,301.651
23,6 Aug 2023 13:04:21.498,6 Aug 2023 13:05:50.631,89.133
24,6 Aug 2023 14:35:35.947,6 Aug 2023 14:41:05.216,329.270
25,6 Aug 2023 16:10:11.443,6 Aug 2023 16:15:24.916,313.473
26,6 Aug 2023 17:44:46.759,6 Aug 2023 17:50:03.072,316.313
27,6 Aug 2023 19:19:03.591,6 Aug 2023 19:23:01.762,238.172
28,7 Aug 2023 13:10:27.024,7 Aug 2023 13:14:53.996,266.972
29,7 Aug 2023 14:43:51.397,7 Aug 2023 14:49:21.368,329.971
30,7 Aug 2023 16:18:41.375,7 Aug 2023 16:23:50.587,309.212
31,7 Aug 2023 17:53:01.000,7 Aug 2023 17:58:17.823,316.823
32,7 Aug 2023 19:27:48.956,7 Aug 2023 19:30:35.889,166.934

"Access","Start Time (UTCG)","Stop Time (UTCG)","Duration (sec)"
1,1 Aug 2023 22:17:45.334,1 Aug 2023 22:23:08.506,323.172
2,1 Aug 2023 23:52:06.486,1 Aug 2023 23:57:26.643,320.157
3,2 Aug 2023 01:26:49.538,2 Aug 2023 01:32:04.835,315.297
4,2 Aug 2023 03:01:03.134,2 Aug 2023 03:05:41.214,278.080
5,2 Aug 2023 20:53:58.968,2 Aug 2023 20:56:37.465,158.497
6,2 Aug 2023 22:25:54.408,2 Aug 2023 22:31:25.097,330.689
7,3 Aug 2023 00:00:36.237,3 Aug 2023 00:05:49.073,312.835
8,3 Aug 2023 01:35:04.639,3 Aug 2023 01:40:23.307,318.667
9,3 Aug 2023 03:09:32.095,3 Aug 2023 03:13:01.749,209.654
10,3 Aug 2023 21:00:21.338,3 Aug 2023 21:05:18.864,297.526
11,3 Aug 2023 22:34:12.995,3 Aug 2023 22:39:40.829,327.835
12,4 Aug 2023 00:09:02.533,4 Aug 2023 00:14:14.149,311.615
13,4 Aug 2023 01:43:18.166,4 Aug 2023 01:48:28.476,310.310
14,4 Aug 2023 03:19:02.992,4 Aug 2023 03:20:08.195,65.203
15,4 Aug 2023 21:08:15.501,4 Aug 2023 21:13:41.053,325.552
16,4 Aug 2023 22:42:41.265,4 Aug 2023 22:47:59.644,318.379
17,5 Aug 2023 00:17:21.784,5 Aug 2023 00:22:37.971,316.187
18,5 Aug 2023 01:51:36.431,5 Aug 2023 01:56:00.114,263.683
19,5 Aug 2023 19:43:54.633,5 Aug 2023 19:47:17.972,203.339
20,5 Aug 2023 21:16:25.784,5 Aug 2023 21:21:57.054,331.271
21,5 Aug 2023 22:51:10.818,5 Aug 2023 22:56:22.891,312.074
22,6 Aug 2023 00:25:36.182,6 Aug 2023 00:30:54.903,318.721
23,6 Aug 2023 02:00:09.909,6 Aug 2023 02:03:26.503,196.593
24,6 Aug 2023 19:50:46.222,6 Aug 2023 19:55:53.142,306.920
25,6 Aug 2023 21:24:47.058,6 Aug 2023 21:30:13.143,326.086
26,6 Aug 2023 22:59:35.823,6 Aug 2023 23:04:48.039,312.216
27,7 Aug 2023 00:33:50.099,7 Aug 2023 00:38:55.677,305.577
28,7 Aug 2023 19:58:45.582,7 Aug 2023 20:04:13.370,327.788
29,7 Aug 2023 21:33:16.121,7 Aug 2023 21:38:32.825,316.705
30,7 Aug 2023 23:07:53.840,7 Aug 2023 23:13:10.717,316.877
31,8 Aug 2023 00:42:10.296,8 Aug 2023 00:46:19.378,249.082

"Access","Start Time (UTCG)","Stop Time (UTCG)","Duration (sec)"
1,1 Aug 2023 21:31:38.679,1 Aug 2023 21:35:44.108,245.429
2,1 Aug 2023 23:04:45.624,1 Aug 2023 23:10:16.785,331.161
3,2 Aug 2023 00:39:33.041,2 Aug 2023 00:44:44.606,311.565
4,2 Aug 2023 02:13:55.464,2 Aug 2023 02:19:13.486,318.021
5,2 Aug 2023 03:48:37.867,2 Aug 2023 03:51:37.178,179.310
6,2 Aug 2023 21:39:00.584,2 Aug 2023 21:44:14.650,314.065
7,2 Aug 2023 23:13:09.295,2 Aug 2023 23:18:33.398,324.103
8,3 Aug 2023 00:47:56.583,3 Aug 2023 00:53:09.815,313.232
9,3 Aug 2023 02:22:10.043,3 Aug 2023 02:27:08.931,298.887
10,3 Aug 2023 20:15:47.652,3 Aug 2023 20:17:19.415,91.763
11,3 Aug 2023 21:47:03.831,3 Aug 2023 21:52:33.292,329.461
12,3 Aug 2023 23:21:38.847,3 Aug 2023 23:26:53.990,315.143
13,4 Aug 2023 00:56:13.509,4 Aug 2023 01:01:30.995,317.486
14,4 Aug 2023 02:30:32.664,4 Aug 2023 02:34:26.022,233.358
15,4 Aug 2023 20:21:52.323,4 Aug 2023 20:26:20.743,268.420
16,4 Aug 2023 21:55:18.301,4 Aug 2023 22:00:48.792,330.491
17,4 Aug 2023 23:30:07.199,4 Aug 2023 23:35:18.537,311.338
18,5 Aug 2023 01:04:27.020,5 Aug 2023 01:09:43.478,316.459
19,5 Aug 2023 02:39:21.369,5 Aug 2023 02:41:57.612,156.244
20,5 Aug 2023 20:29:28.659,5 Aug 2023 20:34:47.867,319.208
21,5 Aug 2023 22:03:43.955,5 Aug 2023 22:09:06.032,322.077
22,5 Aug 2023 23:38:29.289,5 Aug 2023 23:43:43.554,314.264
23,6 Aug 2023 01:12:42.508,6 Aug 2023 01:17:32.662,290.154
24,6 Aug 2023 19:05:58.816,6 Aug 2023 19:08:06.273,127.457
25,6 Aug 2023 20:37:35.260,6 Aug 2023 20:43:05.339,330.079
26,6 Aug 2023 22:12:13.667,6 Aug 2023 22:17:27.548,313.881
27,6 Aug 2023 23:46:45.277,6 Aug 2023 23:52:03.282,318.005
28,7 Aug 2023 01:21:07.876,7 Aug 2023 01:24:51.203,223.327
29,7 Aug 2023 19:12:11.361,7 Aug 2023 19:16:56.251,284.889
30,7 Aug 2023 20:45:51.507,7 Aug 2023 20:51:20.871,329.365
31,7 Aug 2023 22:20:41.095,7 Aug 2023 22:25:52.459,311.364
32,7 Aug 2023 23:54:58.647,8 Aug 2023 00:00:12.619,313.972
33,8 Aug 2023 01:30:12.481,8 Aug 2023 01:32:14.196,121.715

