STK/target_primary/access_sensors/RCO_2x5_50_260_0_1.6.csv

Access;Start Time (UTCG);Stop Time (UTCG);Duration (sec)
1;1 May 2023 10:16:00.192;1 May 2023 10:17:31.540;91.348
2;1 May 2023 11:47:56.371;1 May 2023 11:50:55.059;178.688
3;1 May 2023 13:22:14.570;1 May 2023 13:24:38.611;144.042
4;1 May 2023 14:55:06.740;1 May 2023 14:57:42.866;156.125
5;2 May 2023 10:09:14.737;2 May 2023 10:12:25.818;191.081
6;2 May 2023 11:43:01.259;2 May 2023 11:45:38.992;157.734
7;2 May 2023 13:16:54.895;2 May 2023 13:19:33.556;158.661
8;2 May 2023 14:49:52.410;2 May 2023 14:51:52.868;120.458
9;3 May 2023 10:03:52.092;3 May 2023 10:07:11.054;198.963
10;3 May 2023 11:38:03.920;3 May 2023 11:40:24.724;140.804
11;3 May 2023 13:11:28.134;3 May 2023 13:14:23.532;175.398
12;3 May 2023 14:44:56.353;3 May 2023 14:46:16.045;79.693
13;4 May 2023 09:58:34.589;4 May 2023 10:01:50.849;196.260
14;4 May 2023 11:33:04.396;4 May 2023 11:35:12.724;128.329
15;4 May 2023 13:06:05.926;4 May 2023 13:09:08.340;182.415
16;5 May 2023 08:22:05.099;5 May 2023 08:22:54.760;49.661
17;5 May 2023 09:53:25.139;5 May 2023 09:56:31.987;186.849
18;5 May 2023 11:27:52.108;5 May 2023 11:30:06.593;134.485
19;5 May 2023 13:00:45.534;5 May 2023 13:03:39.580;174.046
20;6 May 2023 08:15:05.704;6 May 2023 08:17:58.604;172.900
21;6 May 2023 09:48:26.243;6 May 2023 09:51:15.611;169.368
22;6 May 2023 11:22:33.804;6 May 2023 11:25:04.874;151.071
23;6 May 2023 12:55:26.892;6 May 2023 12:57:32.476;125.584
24;7 May 2023 08:09:31.352;7 May 2023 08:12:47.895;196.542
25;7 May 2023 09:43:28.905;7 May 2023 09:46:00.209;151.303
26;7 May 2023 11:17:10.624;7 May 2023 11:19:57.796;167.172
27;7 May 2023 12:50:17.583;7 May 2023 12:52:05.115;107.532
28;8 May 2023 08:04:12.334;8 May 2023 08:07:30.469;198.134
29;8 May 2023 09:38:36.281;8 May 2023 09:40:46.984;130.703
;;;
Access;Start Time (UTCG);Stop Time (UTCG);Duration (sec)
1;1 May 2023 11:01:03.015;1 May 2023 11:04:22.012;198.997
2;1 May 2023 12:35:25.510;1 May 2023 12:37:37.269;131.760
3;1 May 2023 14:08:37.610;1 May 2023 14:11:35.751;178.141
4;1 May 2023 15:42:19.052;1 May 2023 15:43:20.498;61.446
5;2 May 2023 10:55:46.776;2 May 2023 10:59:00.516;193.740
6;2 May 2023 12:30:17.820;2 May 2023 12:32:25.741;127.922
7;2 May 2023 14:03:16.650;2 May 2023 14:06:18.298;181.649
8;3 May 2023 09:18:57.082;3 May 2023 09:20:13.679;76.597
9;3 May 2023 10:50:40.262;3 May 2023 10:53:43.540;183.279
10;3 May 2023 12:25:03.526;3 May 2023 12:27:22.905;139.379
11;3 May 2023 13:57:55.930;3 May 2023 14:00:39.772;163.843
12;4 May 2023 09:12:07.965;4 May 2023 09:15:12.390;184.425
13;4 May 2023 10:45:45.019;4 May 2023 10:48:27.244;162.225
14;4 May 2023 12:19:44.371;4 May 2023 12:22:19.489;155.118
15;4 May 2023 13:52:39.180;4 May 2023 13:54:43.506;124.326
16;5 May 2023 09:06:42.472;5 May 2023 09:09:59.675;197.203
17;5 May 2023 10:40:45.740;5 May 2023 10:43:12.362;146.622
18;5 May 2023 12:14:19.080;5 May 2023 12:17:11.043;171.963
19;5 May 2023 13:47:34.526;5 May 2023 13:49:08.984;94.458
20;6 May 2023 09:01:23.535;6 May 2023 09:04:40.829;197.294
21;6 May 2023 10:35:50.506;6 May 2023 10:37:59.793;129.286
22;6 May 2023 12:08:55.555;6 May 2023 12:11:57.165;181.609
23;7 May 2023 07:25:10.326;7 May 2023 07:25:25.822;15.496
24;7 May 2023 08:56:10.493;7 May 2023 08:59:20.352;189.859
25;7 May 2023 10:30:40.197;7 May 2023 10:32:49.415;129.218
26;7 May 2023 12:03:35.760;7 May 2023 12:06:33.906;178.147
27;8 May 2023 07:18:27.547;8 May 2023 07:18:59.434;31.886
28;8 May 2023 07:19:06.041;8 May 2023 07:20:43.619;97.578
29;8 May 2023 08:51:08.813;8 May 2023 08:54:04.053;175.240
;;;
Access;Start Time (UTCG);Stop Time (UTCG);Duration (sec)
1;1 May 2023 14:44:49.080;1 May 2023 14:45:31.395;42.315
2;1 May 2023 16:16:03.872;1 May 2023 16:19:11.022;187.150
3;1 May 2023 17:50:36.188;1 May 2023 17:52:39.758;123.570
4;1 May 2023 19:23:27.146;1 May 2023 19:26:24.077;176.931
5;2 May 2023 14:37:51.164;2 May 2023 14:40:38.343;167.179
6;2 May 2023 16:11:05.908;2 May 2023 16:13:55.161;169.253
7;2 May 2023 17:45:17.731;2 May 2023 17:47:42.198;144.467
8;2 May 2023 19:18:07.691;2 May 2023 19:20:34.857;147.166
9;3 May 2023 14:32:13.195;3 May 2023 14:35:29.086;195.891
10;3 May 2023 16:06:10.583;3 May 2023 16:08:41.004;150.421
11;3 May 2023 17:39:57.507;3 May 2023 17:42:37.450;159.943
12;3 May 2023 19:12:56.492;3 May 2023 19:14:51.668;115.176
13;4 May 2023 14:26:54.448;4 May 2023 14:30:12.630;198.182
14;4 May 2023 16:01:20.333;4 May 2023 16:03:27.702;127.370
15;4 May 2023 17:34:30.878;4 May 2023 17:37:27.361;176.483
16;4 May 2023 19:08:08.655;4 May 2023 19:09:13.360;64.705
17;5 May 2023 14:21:39.571;5 May 2023 14:24:51.744;192.173
18;5 May 2023 15:56:15.248;5 May 2023 15:58:17.325;122.077
19;5 May 2023 17:29:09.840;5 May 2023 17:32:11.375;181.534
20;6 May 2023 12:44:47.334;6 May 2023 12:46:09.466;82.132
21;6 May 2023 14:16:35.344;6 May 2023 14:19:36.342;180.998
22;6 May 2023 15:51:00.923;6 May 2023 15:53:14.199;133.276
23;6 May 2023 17:23:50.079;6 May 2023 17:26:36.016;165.937
24;7 May 2023 12:38:00.761;7 May 2023 12:41:07.496;186.735
25;7 May 2023 14:11:42.249;7 May 2023 14:14:21.137;158.888
26;7 May 2023 15:45:41.084;7 May 2023 15:48:13.139;152.055
27;7 May 2023 17:18:33.628;7 May 2023 17:20:38.413;124.784
;;;
Access;Start Time (UTCG);Stop Time (UTCG);Duration (sec)
1;1 May 2023 15:29:21.786;1 May 2023 15:32:38.916;197.130
2;1 May 2023 17:03:26.168;1 May 2023 17:05:51.036;144.868
3;1 May 2023 18:37:04.016;1 May 2023 18:39:49.354;165.338
4;1 May 2023 20:10:09.700;1 May 2023 20:11:54.322;104.622
5;2 May 2023 15:24:04.239;2 May 2023 15:27:20.899;196.660
6;2 May 2023 16:58:33.258;2 May 2023 17:00:38.355;125.097
7;2 May 2023 18:31:38.332;2 May 2023 18:34:37.379;179.047
8;2 May 2023 20:05:37.231;2 May 2023 20:06:11.047;33.817
9;3 May 2023 15:18:51.203;3 May 2023 15:22:01.464;190.261
10;3 May 2023 16:53:26.187;3 May 2023 16:55:28.543;122.357
11;3 May 2023 18:26:18.736;3 May 2023 18:29:18.378;179.641
12;4 May 2023 13:41:18.289;4 May 2023 13:41:34.462;16.173
13;4 May 2023 13:41:49.803;4 May 2023 13:43:24.869;95.066
14;4 May 2023 15:13:50.188;4 May 2023 15:16:45.738;175.550
15;4 May 2023 16:48:09.436;4 May 2023 16:50:28.540;139.104
16;4 May 2023 18:20:58.851;4 May 2023 18:23:36.001;157.150
17;5 May 2023 13:35:06.231;5 May 2023 13:38:18.690;192.459
18;5 May 2023 15:08:56.059;5 May 2023 15:11:31.043;154.985
19;5 May 2023 16:42:49.265;5 May 2023 16:45:25.529;156.264
20;5 May 2023 18:15:44.626;5 May 2023 18:17:46.049;121.423
21;6 May 2023 13:29:45.075;6 May 2023 13:33:03.951;198.876
22;6 May 2023 15:04:07.310;6 May 2023 15:06:17.452;130.142
23;6 May 2023 16:37:23.916;6 May 2023 16:40:17.071;173.155
24;6 May 2023 18:10:47.208;6 May 2023 18:12:10.511;83.304
25;7 May 2023 13:24:28.991;7 May 2023 13:27:43.583;194.592
26;7 May 2023 14:59:03.436;7 May 2023 15:01:06.156;122.720
27;7 May 2023 16:32:01.361;7 May 2023 16:35:03.204;181.843
;;;
Access;Start Time (UTCG);Stop Time (UTCG);Duration (sec)
1;1 May 2023 20:44:13.508;1 May 2023 20:47:27.205;193.697
2;1 May 2023 22:18:46.986;1 May 2023 22:20:51.556;124.570
3;1 May 2023 23:51:44.543;1 May 2023 23:54:46.544;182.001
4;2 May 2023 19:07:28.153;2 May 2023 19:08:39.574;71.422
5;2 May 2023 20:39:07.128;2 May 2023 20:42:10.872;183.744
6;2 May 2023 22:13:33.850;2 May 2023 22:15:47.034;133.184
7;2 May 2023 23:46:24.564;2 May 2023 23:49:14.938;170.374
8;3 May 2023 19:00:38.172;3 May 2023 19:03:40.215;182.044
9;3 May 2023 20:34:12.337;3 May 2023 20:36:54.983;162.646
10;3 May 2023 22:08:14.653;3 May 2023 22:10:45.944;151.291
11;3 May 2023 23:41:07.145;3 May 2023 23:43:12.472;125.328
12;4 May 2023 18:55:11.306;4 May 2023 18:58:28.469;197.163
13;4 May 2023 20:29:14.827;4 May 2023 20:31:40.742;145.915
14;4 May 2023 22:02:51.520;4 May 2023 22:05:39.182;167.663
15;4 May 2023 23:36:00.119;4 May 2023 23:37:41.963;101.844
16;5 May 2023 18:49:53.371;5 May 2023 18:53:10.264;196.893
17;5 May 2023 20:24:21.286;5 May 2023 20:26:28.086;126.799
18;5 May 2023 21:57:26.679;5 May 2023 22:00:26.613;179.935
19;5 May 2023 23:31:30.701;5 May 2023 23:31:56.297;25.596
20;6 May 2023 18:44:40.039;6 May 2023 18:47:50.346;190.308
21;6 May 2023 20:19:13.023;6 May 2023 20:21:17.814;124.791
22;6 May 2023 21:52:07.264;6 May 2023 21:55:06.451;179.187
23;7 May 2023 17:07:05.318;7 May 2023 17:07:24.238;18.920
24;7 May 2023 17:07:38.082;7 May 2023 17:09:13.373;95.291
25;7 May 2023 18:39:38.543;7 May 2023 18:42:34.432;175.888
26;7 May 2023 20:13:56.392;7 May 2023 20:16:18.131;141.739
27;7 May 2023 21:46:46.888;7 May 2023 21:49:22.478;155.590
;;;
Access;Start Time (UTCG);Stop Time (UTCG);Duration (sec)
1;1 May 2023 19:57:42.693;1 May 2023 20:00:52.496;189.803
2;1 May 2023 21:31:27.932;1 May 2023 21:34:05.607;157.674
3;1 May 2023 23:05:23.687;1 May 2023 23:07:59.190;155.503
4;2 May 2023 00:38:18.497;2 May 2023 00:40:21.501;123.004
5;2 May 2023 19:52:20.101;2 May 2023 19:55:38.609;198.508
6;2 May 2023 21:26:32.690;2 May 2023 21:28:51.582;138.891
7;2 May 2023 22:59:58.487;2 May 2023 23:02:50.903;172.416
8;3 May 2023 00:33:17.336;3 May 2023 00:34:46.340;89.004
9;3 May 2023 19:47:02.835;3 May 2023 19:50:18.932;196.097
10;3 May 2023 21:21:34.374;3 May 2023 21:23:39.764;125.389
11;3 May 2023 22:54:35.426;3 May 2023 22:57:37.180;181.754
12;4 May 2023 18:10:38.254;4 May 2023 18:11:21.134;42.880
13;4 May 2023 19:41:53.387;4 May 2023 19:45:00.656;187.269
14;4 May 2023 21:16:23.763;4 May 2023 21:18:30.934;127.171
15;4 May 2023 22:49:15.921;4 May 2023 22:52:12.416;176.495
16;5 May 2023 18:03:39.632;5 May 2023 18:06:27.511;167.879
17;5 May 2023 19:36:54.868;5 May 2023 19:39:44.614;169.747
18;5 May 2023 21:11:05.584;5 May 2023 21:13:32.244;146.660
19;5 May 2023 22:43:56.634;5 May 2023 22:46:21.008;144.374
20;6 May 2023 17:58:01.930;6 May 2023 18:01:17.913;195.983
21;6 May 2023 19:31:58.892;6 May 2023 19:34:29.981;151.088
22;6 May 2023 21:05:45.512;6 May 2023 21:08:26.714;161.203
23;6 May 2023 22:38:45.810;6 May 2023 22:40:39.288;113.478
24;7 May 2023 17:52:42.923;7 May 2023 17:56:01.221;198.298
25;7 May 2023 19:27:07.910;7 May 2023 19:29:16.564;128.655
26;7 May 2023 21:00:18.310;7 May 2023 21:03:15.790;177.480
27;7 May 2023 22:33:59.672;7 May 2023 22:34:59.954;60.282
;;;
Access;Start Time (UTCG);Stop Time (UTCG);Duration (sec)
1;2 May 2023 01:12:30.500;2 May 2023 01:15:49.100;198.600
2;2 May 2023 02:46:52.894;2 May 2023 02:49:05.850;132.956
3;2 May 2023 04:20:02.744;2 May 2023 04:23:03.154;180.411
4;2 May 2023 05:54:01.508;2 May 2023 05:54:38.615;37.107
5;3 May 2023 01:07:14.154;3 May 2023 01:10:26.912;192.759
6;3 May 2023 02:41:43.186;3 May 2023 02:43:53.797;130.611
7;3 May 2023 04:14:42.609;3 May 2023 04:17:42.652;180.043
8;3 May 2023 23:30:18.071;3 May 2023 23:31:43.142;85.070
9;4 May 2023 01:02:08.314;4 May 2023 01:05:09.924;181.610
10;4 May 2023 02:36:27.501;4 May 2023 02:38:52.791;145.290
11;4 May 2023 04:09:21.110;4 May 2023 04:11:58.990;157.881
12;4 May 2023 23:23:30.517;4 May 2023 23:26:38.873;188.356
13;5 May 2023 00:57:12.909;5 May 2023 00:59:53.413;160.504
14;5 May 2023 02:31:08.051;5 May 2023 02:33:47.063;159.012
15;5 May 2023 04:04:05.826;5 May 2023 04:06:07.214;121.388
16;5 May 2023 23:18:06.321;5 May 2023 23:21:24.698;198.376
17;6 May 2023 00:52:12.075;6 May 2023 00:54:38.446;146.371
18;6 May 2023 02:25:40.859;6 May 2023 02:28:36.621;175.762
19;6 May 2023 03:59:06.966;6 May 2023 04:00:30.274;83.307
20;6 May 2023 23:12:47.513;6 May 2023 23:16:04.908;197.395
21;7 May 2023 00:47:14.461;7 May 2023 00:49:25.597;131.135
22;7 May 2023 02:20:18.424;7 May 2023 02:23:21.097;182.672
23;7 May 2023 21:36:24.091;7 May 2023 21:37:01.606;37.515
24;7 May 2023 23:07:35.769;7 May 2023 23:10:44.361;188.592
25;8 May 2023 00:42:02.147;8 May 2023 00:44:18.869;136.723
26;8 May 2023 02:14:57.582;8 May 2023 02:17:52.961;175.379
;;;
Access;Start Time (UTCG);Stop Time (UTCG);Duration (sec)
1;2 May 2023 00:26:47.498;2 May 2023 00:27:15.998;28.501
2;2 May 2023 00:27:24.758;2 May 2023 00:29:01.234;96.476
3;2 May 2023 01:59:25.953;2 May 2023 02:02:22.668;176.715
4;2 May 2023 03:33:39.712;2 May 2023 03:36:09.039;149.327
5;2 May 2023 05:06:33.275;2 May 2023 05:09:01.483;148.208
6;3 May 2023 00:20:39.875;3 May 2023 00:23:53.130;193.255
7;3 May 2023 01:54:29.340;3 May 2023 01:57:06.444;157.104
8;3 May 2023 03:28:17.596;3 May 2023 03:31:01.985;164.389
9;3 May 2023 05:01:20.791;3 May 2023 05:03:16.227;115.436
10;4 May 2023 00:15:17.694;4 May 2023 00:18:37.085;199.391
11;4 May 2023 01:49:31.152;4 May 2023 01:51:52.069;140.917
12;4 May 2023 03:22:51.647;4 May 2023 03:25:50.010;178.363
13;4 May 2023 04:56:30.911;4 May 2023 04:57:36.691;65.780
14;5 May 2023 00:10:00.316;5 May 2023 00:13:16.069;195.753
15;5 May 2023 01:44:29.052;5 May 2023 01:46:39.674;130.622
16;5 May 2023 03:17:30.339;5 May 2023 03:20:32.423;182.085
17;5 May 2023 22:33:17.538;5 May 2023 22:34:23.730;66.192
18;6 May 2023 00:04:51.674;6 May 2023 00:07:57.167;185.493
19;6 May 2023 01:39:15.009;6 May 2023 01:41:36.086;141.077
20;6 May 2023 03:12:09.123;6 May 2023 03:14:55.778;166.655
21;6 May 2023 22:26:24.108;6 May 2023 22:29:24.160;180.052
22;6 May 2023 23:59:53.312;7 May 2023 00:02:40.502;167.190
23;7 May 2023 01:33:56.192;7 May 2023 01:36:31.846;155.654
24;7 May 2023 03:06:51.612;7 May 2023 03:08:56.325;124.713
25;7 May 2023 22:20:54.723;7 May 2023 22:24:11.894;197.171
26;7 May 2023 23:54:54.199;7 May 2023 23:57:24.993;150.794
27;8 May 2023 01:28:30.417;8 May 2023 01:31:22.891;172.474
28;8 May 2023 03:01:45.477;8 May 2023 03:03:22.211;96.734
;;;
Access;Start Time (UTCG);Stop Time (UTCG);Duration (sec)
1;1 May 2023 10:26:49.044;1 May 2023 10:28:52.641;123.597
2;2 May 2023 05:40:51.324;2 May 2023 05:44:08.612;197.288
3;2 May 2023 07:14:51.136;2 May 2023 07:17:22.237;151.101
4;2 May 2023 08:48:25.186;2 May 2023 08:51:19.937;174.751
5;2 May 2023 10:21:45.114;2 May 2023 10:23:16.297;91.183
6;3 May 2023 05:35:31.766;3 May 2023 05:38:49.665;197.899
7;3 May 2023 07:09:55.337;3 May 2023 07:12:08.597;133.260
8;3 May 2023 08:43:02.156;3 May 2023 08:46:04.718;182.563
9;4 May 2023 05:30:16.731;4 May 2023 05:33:27.414;190.683
10;4 May 2023 07:04:43.588;4 May 2023 07:06:59.958;136.370
11;4 May 2023 08:37:41.265;4 May 2023 08:40:39.265;178.000
12;5 May 2023 03:52:37.386;5 May 2023 03:53:01.706;24.320
13;5 May 2023 03:53:12.972;5 May 2023 03:54:48.343;95.372
14;5 May 2023 05:25:12.789;5 May 2023 05:28:10.614;177.825
15;5 May 2023 06:59:26.407;5 May 2023 07:01:57.191;150.785
16;5 May 2023 08:32:20.787;5 May 2023 08:34:47.976;147.189
17;6 May 2023 03:46:27.482;6 May 2023 03:49:40.291;192.810
18;6 May 2023 05:20:15.813;6 May 2023 05:22:54.121;158.308
19;6 May 2023 06:54:03.148;6 May 2023 06:56:49.483;166.335
20;6 May 2023 08:27:08.279;6 May 2023 08:29:02.993;114.714
21;7 May 2023 03:41:04.695;7 May 2023 03:44:24.184;199.489
22;7 May 2023 05:15:15.598;7 May 2023 05:17:39.372;143.774
23;7 May 2023 06:48:37.827;7 May 2023 06:51:36.843;179.015
24;7 May 2023 08:22:18.785;7 May 2023 08:23:22.835;64.049
25;8 May 2023 03:35:46.799;8 May 2023 03:39:03.178;196.379
26;8 May 2023 05:10:14.268;8 May 2023 05:12:26.492;132.225
27;8 May 2023 06:43:16.537;8 May 2023 06:46:18.617;182.080
;;;
Access;Start Time (UTCG);Stop Time (UTCG);Duration (sec)
1;2 May 2023 04:56:17.828;2 May 2023 04:57:01.078;43.250
2;2 May 2023 06:27:33.072;2 May 2023 06:30:41.129;188.058
3;2 May 2023 08:01:57.587;2 May 2023 08:04:18.022;140.435
4;2 May 2023 09:34:53.347;2 May 2023 09:37:46.079;172.732
5;3 May 2023 04:49:16.360;3 May 2023 04:52:05.653;169.293
6;3 May 2023 06:22:31.869;3 May 2023 06:25:24.222;172.353
7;3 May 2023 07:56:39.327;3 May 2023 07:59:13.805;154.478
8;3 May 2023 09:29:34.543;3 May 2023 09:31:40.015;125.472
9;4 May 2023 04:43:38.581;4 May 2023 04:46:54.733;196.152
10;4 May 2023 06:17:33.256;4 May 2023 06:20:08.104;154.848
11;4 May 2023 07:51:13.947;4 May 2023 07:54:05.044;171.097
12;4 May 2023 09:24:25.485;4 May 2023 09:26:09.858;104.373
13;5 May 2023 04:38:18.152;5 May 2023 04:41:37.090;198.938
14;5 May 2023 06:12:36.557;5 May 2023 06:14:53.922;137.365
15;5 May 2023 07:45:49.855;5 May 2023 07:48:50.823;180.968
16;5 May 2023 09:19:50.436;5 May 2023 09:20:25.045;34.608
17;6 May 2023 04:33:01.296;6 May 2023 04:36:14.981;193.685
18;6 May 2023 06:07:29.152;6 May 2023 06:09:41.352;132.201
19;6 May 2023 07:40:29.657;6 May 2023 07:43:29.571;179.913
20;7 May 2023 02:56:05.807;7 May 2023 02:57:29.352;83.545
21;7 May 2023 04:27:54.621;7 May 2023 04:30:57.032;182.411
22;7 May 2023 06:02:13.296;7 May 2023 06:04:40.319;147.023
23;7 May 2023 07:35:07.722;7 May 2023 07:37:45.007;157.285
24;8 May 2023 02:49:17.443;8 May 2023 02:52:25.150;187.706
25;8 May 2023 04:22:58.563;8 May 2023 04:25:40.275;161.712
26;8 May 2023 05:56:53.138;8 May 2023 05:59:33.783;160.646
27;8 May 2023 07:29:52.470;8 May 2023 07:31:53.345;120.875
