STK/global/access_ground/RCO_2x4_50_250_0_TimeOrdered.csv

"Start Time (UTCG)","Stop Time (UTCG)","Duration (sec)"
1 Oct 2023 10:00:00.000,1 Oct 2023 10:02:32.512,152.512
1 Oct 2023 10:00:00.000,1 Oct 2023 10:04:31.962,271.962
1 Oct 2023 10:00:00.000,1 Oct 2023 10:07:13.753,433.753
1 Oct 2023 10:00:00.000,1 Oct 2023 10:01:30.727,90.727
1 Oct 2023 10:00:00.000,1 Oct 2023 10:01:52.884,112.884
1 Oct 2023 10:00:53.474,1 Oct 2023 10:05:13.959,260.485
1 Oct 2023 10:01:55.632,1 Oct 2023 10:05:46.524,230.892
1 Oct 2023 10:03:36.320,1 Oct 2023 10:11:47.980,491.659
1 Oct 2023 10:03:45.622,1 Oct 2023 10:09:37.420,351.798
1 Oct 2023 10:04:17.624,1 Oct 2023 10:11:22.708,425.083
1 Oct 2023 10:06:02.529,1 Oct 2023 10:14:11.889,489.360
1 Oct 2023 10:06:14.806,1 Oct 2023 10:14:02.390,467.584
1 Oct 2023 10:06:58.834,1 Oct 2023 10:15:08.146,489.311
1 Oct 2023 10:07:24.982,1 Oct 2023 10:12:49.860,324.878
1 Oct 2023 10:07:24.982,1 Oct 2023 10:12:49.860,324.878
1 Oct 2023 10:07:37.563,1 Oct 2023 10:12:15.193,277.631
1 Oct 2023 10:07:57.344,1 Oct 2023 10:14:47.152,409.808
1 Oct 2023 10:08:33.028,1 Oct 2023 10:13:06.605,273.577
1 Oct 2023 10:08:55.635,1 Oct 2023 10:16:43.060,467.425
1 Oct 2023 10:09:08.750,1 Oct 2023 10:17:12.301,483.552
1 Oct 2023 10:09:18.219,1 Oct 2023 10:16:53.888,455.670
1 Oct 2023 10:09:19.103,1 Oct 2023 10:16:56.154,457.050
1 Oct 2023 10:09:19.537,1 Oct 2023 10:16:56.950,457.413
1 Oct 2023 10:09:20.599,1 Oct 2023 10:17:02.531,461.932
1 Oct 2023 10:09:21.986,1 Oct 2023 10:17:28.311,486.324
1 Oct 2023 10:09:23.393,1 Oct 2023 10:16:59.910,456.517
1 Oct 2023 10:09:25.317,1 Oct 2023 10:17:05.969,460.652
1 Oct 2023 10:09:26.831,1 Oct 2023 10:17:35.032,488.201
1 Oct 2023 10:09:32.602,1 Oct 2023 10:17:34.079,481.477
1 Oct 2023 10:09:42.604,1 Oct 2023 10:17:21.483,458.879
1 Oct 2023 10:09:56.333,1 Oct 2023 10:17:33.434,457.101
1 Oct 2023 10:10:18.208,1 Oct 2023 10:18:00.918,462.710
1 Oct 2023 10:10:21.711,1 Oct 2023 10:17:10.456,408.745
1 Oct 2023 10:10:56.013,1 Oct 2023 10:17:28.102,392.088
1 Oct 2023 10:11:42.442,1 Oct 2023 10:18:34.169,411.727
1 Oct 2023 10:12:35.253,1 Oct 2023 10:19:25.497,410.244
1 Oct 2023 10:12:46.043,1 Oct 2023 10:20:43.434,477.391
1 Oct 2023 10:13:09.950,1 Oct 2023 10:20:26.637,436.688
1 Oct 2023 10:13:37.788,1 Oct 2023 10:21:09.407,451.619
1 Oct 2023 10:13:55.748,1 Oct 2023 10:16:14.387,138.640
1 Oct 2023 10:15:09.951,1 Oct 2023 10:22:05.664,415.714
1 Oct 2023 10:15:34.351,1 Oct 2023 10:20:50.806,316.455
1 Oct 2023 10:20:37.769,1 Oct 2023 10:27:35.733,417.964
1 Oct 2023 10:21:34.001,1 Oct 2023 10:29:54.521,500.520
1 Oct 2023 10:23:26.920,1 Oct 2023 10:27:55.897,268.977
1 Oct 2023 10:24:45.176,1 Oct 2023 10:27:53.541,188.365
1 Oct 2023 10:26:36.917,1 Oct 2023 10:33:33.949,417.032
1 Oct 2023 10:27:50.804,1 Oct 2023 10:36:06.586,495.782
1 Oct 2023 10:28:04.545,1 Oct 2023 10:36:11.202,486.657
1 Oct 2023 10:29:02.282,1 Oct 2023 10:36:31.495,449.213
1 Oct 2023 10:29:03.190,1 Oct 2023 10:37:15.080,491.890
1 Oct 2023 10:30:02.575,1 Oct 2023 10:38:01.066,478.491
1 Oct 2023 10:30:07.957,1 Oct 2023 10:38:18.011,490.055
1 Oct 2023 10:30:28.531,1 Oct 2023 10:36:16.412,347.881
1 Oct 2023 10:30:50.796,1 Oct 2023 10:38:51.215,480.420
1 Oct 2023 10:30:53.481,1 Oct 2023 10:36:06.310,312.829
1 Oct 2023 10:30:57.870,1 Oct 2023 10:39:12.569,494.699
1 Oct 2023 10:31:09.426,1 Oct 2023 10:36:04.853,295.427
1 Oct 2023 10:32:24.153,1 Oct 2023 10:38:02.851,338.698
1 Oct 2023 10:32:26.505,1 Oct 2023 10:38:30.511,364.006
1 Oct 2023 10:32:37.934,1 Oct 2023 10:40:44.059,486.125
1 Oct 2023 10:32:56.712,1 Oct 2023 10:38:11.859,315.147
1 Oct 2023 10:32:59.846,1 Oct 2023 10:38:23.089,323.243
1 Oct 2023 10:32:59.975,1 Oct 2023 10:38:21.864,321.889
1 Oct 2023 10:33:00.167,1 Oct 2023 10:38:26.731,326.564
1 Oct 2023 10:33:03.425,1 Oct 2023 10:38:07.880,304.455
1 Oct 2023 10:33:05.029,1 Oct 2023 10:38:18.429,313.400
1 Oct 2023 10:33:28.657,1 Oct 2023 10:37:43.950,255.293
1 Oct 2023 10:33:46.537,1 Oct 2023 10:42:02.496,495.960
1 Oct 2023 10:33:55.058,1 Oct 2023 10:37:19.582,204.524
1 Oct 2023 10:37:14.901,1 Oct 2023 10:45:08.779,473.878
1 Oct 2023 10:37:32.355,1 Oct 2023 10:41:05.416,213.062
1 Oct 2023 10:37:47.039,1 Oct 2023 10:45:23.003,455.964
1 Oct 2023 10:38:51.178,1 Oct 2023 10:43:53.207,302.029
1 Oct 2023 10:40:14.761,1 Oct 2023 10:48:36.054,501.293
1 Oct 2023 10:42:52.050,1 Oct 2023 10:49:00.645,368.595
1 Oct 2023 10:43:08.126,1 Oct 2023 10:50:33.550,445.424
1 Oct 2023 10:43:44.175,1 Oct 2023 10:45:36.541,112.366
1 Oct 2023 10:45:39.642,1 Oct 2023 10:53:55.313,495.671
1 Oct 2023 10:48:08.924,1 Oct 2023 10:52:25.183,256.259
1 Oct 2023 10:50:53.969,1 Oct 2023 10:57:48.679,414.710
1 Oct 2023 10:52:27.299,1 Oct 2023 11:00:45.374,498.076
1 Oct 2023 10:52:39.274,1 Oct 2023 11:00:43.028,483.754
1 Oct 2023 10:54:11.641,1 Oct 2023 10:59:34.378,322.737
1 Oct 2023 10:54:11.748,1 Oct 2023 11:02:11.285,479.537
1 Oct 2023 10:54:17.878,1 Oct 2023 11:00:38.460,380.581
1 Oct 2023 10:55:51.847,1 Oct 2023 11:03:27.673,455.826
1 Oct 2023 10:55:59.852,1 Oct 2023 11:03:54.378,474.527
1 Oct 2023 10:56:05.721,1 Oct 2023 11:04:05.272,479.551
1 Oct 2023 10:56:10.235,1 Oct 2023 11:03:37.771,447.536
1 Oct 2023 10:56:19.472,1 Oct 2023 11:03:39.485,440.013
1 Oct 2023 10:56:31.197,1 Oct 2023 11:04:41.969,490.772
1 Oct 2023 10:57:05.611,1 Oct 2023 11:01:19.676,254.066
1 Oct 2023 10:57:42.243,1 Oct 2023 11:05:01.711,439.469
1 Oct 2023 10:57:44.186,1 Oct 2023 11:01:25.738,221.552
1 Oct 2023 10:57:52.193,1 Oct 2023 11:01:25.922,213.729
1 Oct 2023 10:57:53.270,1 Oct 2023 11:01:09.275,196.004
1 Oct 2023 10:57:53.652,1 Oct 2023 11:01:07.586,193.935
1 Oct 2023 10:57:56.030,1 Oct 2023 11:01:01.806,185.776
1 Oct 2023 10:57:59.726,1 Oct 2023 11:01:09.693,189.967
1 Oct 2023 10:58:15.307,1 Oct 2023 11:01:36.206,200.899
1 Oct 2023 10:58:34.832,1 Oct 2023 11:01:42.829,187.997
1 Oct 2023 10:58:36.232,1 Oct 2023 11:06:46.619,490.387
1 Oct 2023 10:58:45.126,1 Oct 2023 11:02:23.759,218.633
1 Oct 2023 10:59:03.102,1 Oct 2023 11:07:21.196,498.095
1 Oct 2023 10:59:03.195,1 Oct 2023 11:05:21.026,377.831
1 Oct 2023 11:00:36.604,1 Oct 2023 11:08:23.065,466.461
1 Oct 2023 11:00:39.676,1 Oct 2023 11:06:55.358,375.683
1 Oct 2023 11:01:32.569,1 Oct 2023 11:09:26.900,474.331
1 Oct 2023 11:02:49.112,1 Oct 2023 11:04:58.829,129.717
1 Oct 2023 11:08:10.399,1 Oct 2023 11:16:29.373,498.974
1 Oct 2023 11:08:31.370,1 Oct 2023 11:13:44.175,312.805
1 Oct 2023 11:08:57.762,1 Oct 2023 11:16:37.396,459.633
1 Oct 2023 11:09:44.094,1 Oct 2023 11:16:36.746,412.652
1 Oct 2023 11:10:24.927,1 Oct 2023 11:13:58.017,213.090
1 Oct 2023 11:14:43.751,1 Oct 2023 11:22:03.435,439.684
1 Oct 2023 11:15:17.731,1 Oct 2023 11:22:34.673,436.942
1 Oct 2023 11:16:04.773,1 Oct 2023 11:23:23.740,438.967
1 Oct 2023 11:16:28.267,1 Oct 2023 11:19:02.751,154.485
1 Oct 2023 11:16:41.876,1 Oct 2023 11:24:20.845,458.970
1 Oct 2023 11:17:15.879,1 Oct 2023 11:23:55.438,399.559
1 Oct 2023 11:17:49.638,1 Oct 2023 11:25:14.909,445.272
1 Oct 2023 11:18:14.349,1 Oct 2023 11:20:10.455,116.106
1 Oct 2023 11:18:34.315,1 Oct 2023 11:24:33.552,359.237
1 Oct 2023 11:19:17.649,1 Oct 2023 11:27:03.640,465.991
1 Oct 2023 11:20:46.698,1 Oct 2023 11:28:22.290,455.592
1 Oct 2023 11:21:35.131,1 Oct 2023 11:25:06.040,210.908
1 Oct 2023 11:23:46.747,1 Oct 2023 11:31:40.140,473.393
1 Oct 2023 11:23:52.036,1 Oct 2023 11:32:06.669,494.633
1 Oct 2023 11:25:17.596,1 Oct 2023 11:29:57.042,279.446
1 Oct 2023 11:26:51.883,1 Oct 2023 11:35:05.870,493.988
1 Oct 2023 11:27:23.170,1 Oct 2023 11:31:06.302,223.132
1 Oct 2023 11:28:17.315,1 Oct 2023 11:33:02.019,284.704
1 Oct 2023 11:29:33.124,1 Oct 2023 11:34:58.895,325.771
1 Oct 2023 11:30:14.705,1 Oct 2023 11:35:54.146,339.441
1 Oct 2023 11:30:19.719,1 Oct 2023 11:35:46.399,326.679
1 Oct 2023 11:32:32.976,1 Oct 2023 11:39:52.173,439.197
1 Oct 2023 11:34:45.796,1 Oct 2023 11:40:09.467,323.671
1 Oct 2023 11:34:58.307,1 Oct 2023 11:40:07.735,309.428
1 Oct 2023 11:38:58.119,1 Oct 2023 11:47:17.594,499.475
1 Oct 2023 11:40:11.131,1 Oct 2023 11:45:44.767,333.636
1 Oct 2023 11:40:13.572,1 Oct 2023 11:42:17.902,124.329
1 Oct 2023 11:40:13.624,1 Oct 2023 11:45:57.065,343.441
1 Oct 2023 11:40:40.482,1 Oct 2023 11:48:54.879,494.397
1 Oct 2023 11:42:24.277,1 Oct 2023 11:50:44.670,500.393
1 Oct 2023 11:42:31.825,1 Oct 2023 11:50:03.908,452.083
1 Oct 2023 11:43:23.589,1 Oct 2023 11:50:58.715,455.126
1 Oct 2023 11:43:40.930,1 Oct 2023 11:51:55.702,494.772
1 Oct 2023 11:44:30.568,1 Oct 2023 11:52:36.048,485.480
1 Oct 2023 11:44:40.688,1 Oct 2023 11:47:30.586,169.897
1 Oct 2023 11:44:49.650,1 Oct 2023 11:49:55.575,305.925
1 Oct 2023 11:45:19.784,1 Oct 2023 11:53:00.352,460.568
1 Oct 2023 11:45:29.491,1 Oct 2023 11:51:04.684,335.193
1 Oct 2023 11:45:31.765,1 Oct 2023 11:47:08.323,96.558
1 Oct 2023 11:45:34.551,1 Oct 2023 11:53:56.968,502.417
1 Oct 2023 11:46:49.721,1 Oct 2023 11:55:06.990,497.269
1 Oct 2023 11:48:00.730,1 Oct 2023 11:56:18.615,497.886
1 Oct 2023 11:48:06.610,1 Oct 2023 11:53:40.983,334.372
1 Oct 2023 11:54:20.056,1 Oct 2023 11:59:36.230,316.175
1 Oct 2023 11:54:50.821,1 Oct 2023 12:02:43.871,473.050
1 Oct 2023 11:55:17.062,1 Oct 2023 12:03:15.992,478.930
1 Oct 2023 11:55:32.702,1 Oct 2023 12:03:43.135,490.433
1 Oct 2023 11:56:08.375,1 Oct 2023 12:02:25.112,376.737
1 Oct 2023 11:56:44.101,1 Oct 2023 11:59:54.491,190.390
1 Oct 2023 12:00:51.838,1 Oct 2023 12:06:47.944,356.106
1 Oct 2023 12:02:44.662,1 Oct 2023 12:06:30.452,225.790
1 Oct 2023 12:02:51.007,1 Oct 2023 12:09:00.061,369.054
1 Oct 2023 12:03:27.592,1 Oct 2023 12:08:54.679,327.087
1 Oct 2023 12:04:54.762,1 Oct 2023 12:08:11.879,197.117
1 Oct 2023 12:05:29.286,1 Oct 2023 12:08:36.137,186.851
1 Oct 2023 12:05:53.717,1 Oct 2023 12:13:33.881,460.164
1 Oct 2023 12:06:21.339,1 Oct 2023 12:09:18.221,176.882
1 Oct 2023 12:07:23.496,1 Oct 2023 12:11:40.519,257.023
1 Oct 2023 12:08:33.641,1 Oct 2023 12:14:23.197,349.556
1 Oct 2023 12:10:11.579,1 Oct 2023 12:18:16.885,485.307
1 Oct 2023 12:10:21.767,1 Oct 2023 12:18:43.136,501.369
1 Oct 2023 12:11:38.988,1 Oct 2023 12:15:31.700,232.712
1 Oct 2023 12:11:50.337,1 Oct 2023 12:19:35.282,464.945
1 Oct 2023 12:13:36.976,1 Oct 2023 12:21:09.897,452.922
1 Oct 2023 12:13:50.534,1 Oct 2023 12:19:36.821,346.287
1 Oct 2023 12:14:40.117,1 Oct 2023 12:22:41.673,481.557
1 Oct 2023 12:17:23.628,1 Oct 2023 12:22:59.687,336.059
1 Oct 2023 12:19:09.244,1 Oct 2023 12:25:08.163,358.918
1 Oct 2023 12:19:09.244,1 Oct 2023 12:25:08.163,358.918
1 Oct 2023 12:20:02.079,1 Oct 2023 12:28:01.851,479.772
1 Oct 2023 12:20:34.125,1 Oct 2023 12:24:19.431,225.306
1 Oct 2023 12:21:05.452,1 Oct 2023 12:27:54.815,409.363
1 Oct 2023 12:21:30.936,1 Oct 2023 12:23:12.624,101.689
1 Oct 2023 12:23:21.529,1 Oct 2023 12:30:25.800,424.270
1 Oct 2023 12:23:48.691,1 Oct 2023 12:25:42.890,114.199
1 Oct 2023 12:24:21.220,1 Oct 2023 12:31:11.029,409.809
1 Oct 2023 12:25:30.888,1 Oct 2023 12:33:46.593,495.705
1 Oct 2023 12:26:26.379,1 Oct 2023 12:31:38.751,312.373
1 Oct 2023 12:27:38.236,1 Oct 2023 12:34:45.216,426.980
1 Oct 2023 12:29:02.179,1 Oct 2023 12:37:21.050,498.870
1 Oct 2023 12:29:12.980,1 Oct 2023 12:35:53.562,400.583
1 Oct 2023 12:30:10.094,1 Oct 2023 12:38:00.592,470.498
1 Oct 2023 12:30:39.798,1 Oct 2023 12:38:29.286,469.489
1 Oct 2023 12:30:42.245,1 Oct 2023 12:38:11.443,449.197
1 Oct 2023 12:31:02.418,1 Oct 2023 12:39:09.798,487.381
1 Oct 2023 12:31:41.355,1 Oct 2023 12:36:17.949,276.594
1 Oct 2023 12:32:11.622,1 Oct 2023 12:40:34.019,502.397
1 Oct 2023 12:33:29.854,1 Oct 2023 12:37:29.440,239.586
1 Oct 2023 12:33:46.317,1 Oct 2023 12:41:32.116,465.798
1 Oct 2023 12:34:46.932,1 Oct 2023 12:42:28.209,461.277
1 Oct 2023 12:35:11.148,1 Oct 2023 12:40:53.045,341.897
1 Oct 2023 12:36:46.217,1 Oct 2023 12:42:54.658,368.441
1 Oct 2023 12:39:42.404,1 Oct 2023 12:47:36.777,474.373
1 Oct 2023 12:40:07.532,1 Oct 2023 12:45:16.188,308.656
1 Oct 2023 12:41:48.686,1 Oct 2023 12:48:21.887,393.201
1 Oct 2023 12:42:13.598,1 Oct 2023 12:50:02.660,469.062
1 Oct 2023 12:42:36.433,1 Oct 2023 12:49:19.409,402.976
1 Oct 2023 12:42:36.433,1 Oct 2023 12:49:19.409,402.976
1 Oct 2023 12:42:48.315,1 Oct 2023 12:49:34.275,405.960
1 Oct 2023 12:43:13.910,1 Oct 2023 12:48:29.517,315.607
1 Oct 2023 12:44:15.502,1 Oct 2023 12:49:18.616,303.114
1 Oct 2023 12:44:33.174,1 Oct 2023 12:46:39.922,126.748
1 Oct 2023 12:46:26.263,1 Oct 2023 12:53:37.933,431.670
1 Oct 2023 12:47:59.075,1 Oct 2023 12:49:34.035,94.960
1 Oct 2023 12:48:13.206,1 Oct 2023 12:49:22.344,69.138
1 Oct 2023 12:48:18.500,1 Oct 2023 12:49:18.099,59.598
1 Oct 2023 12:48:19.598,1 Oct 2023 12:49:24.534,64.936
1 Oct 2023 12:48:34.536,1 Oct 2023 12:56:21.658,467.122
1 Oct 2023 12:49:56.336,1 Oct 2023 12:52:31.586,155.249
1 Oct 2023 12:50:24.803,1 Oct 2023 12:55:40.786,315.983
1 Oct 2023 12:52:10.643,1 Oct 2023 13:00:15.560,484.917
1 Oct 2023 12:56:07.503,1 Oct 2023 13:03:34.628,447.126
1 Oct 2023 12:57:04.108,1 Oct 2023 13:05:20.506,496.398
1 Oct 2023 12:57:16.785,1 Oct 2023 12:59:55.460,158.674
1 Oct 2023 12:57:43.464,1 Oct 2023 13:04:12.301,388.837
1 Oct 2023 12:58:14.276,1 Oct 2023 13:06:10.235,475.959
1 Oct 2023 12:59:46.143,1 Oct 2023 13:05:54.803,368.660
1 Oct 2023 13:00:49.896,1 Oct 2023 13:06:26.314,336.418
1 Oct 2023 13:01:19.852,1 Oct 2023 13:09:04.907,465.055
1 Oct 2023 13:03:16.085,1 Oct 2023 13:08:32.948,316.863
1 Oct 2023 13:04:01.883,1 Oct 2023 13:10:31.171,389.288
1 Oct 2023 13:04:51.428,1 Oct 2023 13:12:52.131,480.703
1 Oct 2023 13:04:51.428,1 Oct 2023 13:12:52.131,480.703
1 Oct 2023 13:05:56.842,1 Oct 2023 13:10:50.623,293.781
1 Oct 2023 13:06:32.956,1 Oct 2023 13:12:34.346,361.389
1 Oct 2023 13:06:34.085,1 Oct 2023 13:12:20.893,346.809
1 Oct 2023 13:06:43.119,1 Oct 2023 13:14:20.531,457.413
1 Oct 2023 13:06:47.115,1 Oct 2023 13:11:57.367,310.252
1 Oct 2023 13:06:55.159,1 Oct 2023 13:12:10.040,314.882
1 Oct 2023 13:07:23.832,1 Oct 2023 13:15:18.616,474.784
1 Oct 2023 13:07:25.636,1 Oct 2023 13:14:54.160,448.524
1 Oct 2023 13:07:50.694,1 Oct 2023 13:14:57.912,427.217
1 Oct 2023 13:07:59.915,1 Oct 2023 13:14:51.609,411.694
1 Oct 2023 13:08:13.880,1 Oct 2023 13:14:42.605,388.725
1 Oct 2023 13:08:16.817,1 Oct 2023 13:14:38.640,381.823
1 Oct 2023 13:08:22.085,1 Oct 2023 13:14:47.324,385.239
1 Oct 2023 13:08:24.844,1 Oct 2023 13:14:44.351,379.507
1 Oct 2023 13:08:25.848,1 Oct 2023 13:14:44.615,378.766
1 Oct 2023 13:08:28.838,1 Oct 2023 13:14:45.958,377.120
1 Oct 2023 13:08:37.145,1 Oct 2023 13:14:15.770,338.625
1 Oct 2023 13:09:21.649,1 Oct 2023 13:17:31.851,490.201
1 Oct 2023 13:10:13.676,1 Oct 2023 13:18:23.930,490.254
1 Oct 2023 13:12:05.259,1 Oct 2023 13:20:06.824,481.565
1 Oct 2023 13:13:01.773,1 Oct 2023 13:17:07.826,246.053
1 Oct 2023 13:15:48.319,1 Oct 2023 13:24:00.653,492.334
1 Oct 2023 13:16:19.706,1 Oct 2023 13:21:03.330,283.625
1 Oct 2023 13:16:23.147,1 Oct 2023 13:18:27.316,124.169
1 Oct 2023 13:16:36.745,1 Oct 2023 13:24:35.882,479.138
1 Oct 2023 13:16:54.337,1 Oct 2023 13:25:12.294,497.957
1 Oct 2023 13:18:21.942,1 Oct 2023 13:25:22.366,420.424
1 Oct 2023 13:18:47.562,1 Oct 2023 13:23:52.482,304.920
1 Oct 2023 13:18:48.816,1 Oct 2023 13:27:11.299,502.484
1 Oct 2023 13:21:14.942,1 Oct 2023 13:27:50.184,395.243
1 Oct 2023 13:21:50.663,1 Oct 2023 13:28:23.035,392.372
1 Oct 2023 13:22:15.792,1 Oct 2023 13:30:23.724,487.931
1 Oct 2023 13:22:22.489,1 Oct 2023 13:27:26.128,303.639
1 Oct 2023 13:25:07.839,1 Oct 2023 13:33:07.030,479.191
1 Oct 2023 13:26:13.161,1 Oct 2023 13:34:07.273,474.111
1 Oct 2023 13:26:46.550,1 Oct 2023 13:34:01.457,434.908
1 Oct 2023 13:27:57.015,1 Oct 2023 13:32:51.840,294.825
1 Oct 2023 13:28:17.155,1 Oct 2023 13:36:28.956,491.801
1 Oct 2023 13:28:17.155,1 Oct 2023 13:36:28.956,491.801
1 Oct 2023 13:28:38.098,1 Oct 2023 13:36:53.485,495.387
1 Oct 2023 13:29:26.514,1 Oct 2023 13:36:28.916,422.403
1 Oct 2023 13:30:03.763,1 Oct 2023 13:32:22.463,138.700
1 Oct 2023 13:30:26.742,1 Oct 2023 13:36:19.523,352.781
1 Oct 2023 13:31:05.860,1 Oct 2023 13:34:40.395,214.535
1 Oct 2023 13:31:54.982,1 Oct 2023 13:38:40.668,405.687
1 Oct 2023 13:32:04.963,1 Oct 2023 13:39:08.493,423.530
1 Oct 2023 13:32:07.532,1 Oct 2023 13:39:08.673,421.141
1 Oct 2023 13:32:08.435,1 Oct 2023 13:39:08.898,420.463
1 Oct 2023 13:32:11.609,1 Oct 2023 13:39:12.872,421.263
1 Oct 2023 13:32:15.208,1 Oct 2023 13:39:07.366,412.157
1 Oct 2023 13:32:18.768,1 Oct 2023 13:39:12.470,413.701
1 Oct 2023 13:32:27.693,1 Oct 2023 13:40:13.439,465.747
1 Oct 2023 13:32:35.547,1 Oct 2023 13:39:29.377,413.830
1 Oct 2023 13:32:48.383,1 Oct 2023 13:39:43.003,414.620
1 Oct 2023 13:33:19.847,1 Oct 2023 13:39:59.857,400.011
1 Oct 2023 13:33:52.419,1 Oct 2023 13:41:26.047,453.628
1 Oct 2023 13:34:47.327,1 Oct 2023 13:43:05.389,498.062
1 Oct 2023 13:36:38.643,1 Oct 2023 13:43:16.248,397.605
1 Oct 2023 13:36:56.810,1 Oct 2023 13:42:27.683,330.873
1 Oct 2023 13:37:35.728,1 Oct 2023 13:42:50.377,314.648
1 Oct 2023 13:39:49.123,1 Oct 2023 13:45:56.881,367.758
1 Oct 2023 13:42:09.228,1 Oct 2023 13:50:25.901,496.673
1 Oct 2023 13:43:49.458,1 Oct 2023 13:52:02.383,492.924
1 Oct 2023 13:45:56.135,1 Oct 2023 13:51:59.745,363.610
1 Oct 2023 13:46:17.752,1 Oct 2023 13:51:19.360,301.608
1 Oct 2023 13:47:45.760,1 Oct 2023 13:48:09.189,23.429
1 Oct 2023 13:48:47.868,1 Oct 2023 13:56:34.940,467.072
1 Oct 2023 13:49:36.503,1 Oct 2023 13:54:14.076,277.573
1 Oct 2023 13:50:27.227,1 Oct 2023 13:57:58.802,451.575
1 Oct 2023 13:50:50.626,1 Oct 2023 13:58:29.274,458.648
1 Oct 2023 13:51:25.924,1 Oct 2023 13:59:19.376,473.452
1 Oct 2023 13:51:25.924,1 Oct 2023 13:59:19.376,473.452
1 Oct 2023 13:51:48.320,1 Oct 2023 13:59:47.813,479.493
1 Oct 2023 13:51:51.061,1 Oct 2023 13:59:56.416,485.356
1 Oct 2023 13:51:51.196,1 Oct 2023 13:58:47.971,416.775
1 Oct 2023 13:51:56.384,1 Oct 2023 14:00:03.707,487.323
1 Oct 2023 13:52:53.439,1 Oct 2023 14:00:07.437,433.997
1 Oct 2023 13:53:34.681,1 Oct 2023 14:01:41.656,486.974
1 Oct 2023 13:53:45.848,1 Oct 2023 14:01:56.957,491.109
1 Oct 2023 13:53:46.355,1 Oct 2023 14:01:57.978,491.623
1 Oct 2023 13:53:48.172,1 Oct 2023 14:01:57.834,489.662
1 Oct 2023 13:53:48.564,1 Oct 2023 14:01:58.927,490.363
1 Oct 2023 13:53:48.841,1 Oct 2023 14:01:52.128,483.287
1 Oct 2023 13:53:51.155,1 Oct 2023 14:02:08.310,497.154
1 Oct 2023 13:53:54.992,1 Oct 2023 14:02:05.023,490.031
1 Oct 2023 13:53:55.007,1 Oct 2023 14:02:04.402,489.395
1 Oct 2023 13:53:55.653,1 Oct 2023 14:02:04.959,489.306
1 Oct 2023 13:53:57.836,1 Oct 2023 14:02:06.939,489.103
1 Oct 2023 13:54:19.759,1 Oct 2023 14:00:36.167,376.408
1 Oct 2023 13:54:19.853,1 Oct 2023 14:00:07.316,347.462
1 Oct 2023 13:54:44.028,1 Oct 2023 13:57:01.153,137.124
1 Oct 2023 13:55:30.879,1 Oct 2023 13:58:45.682,194.803
1 Oct 2023 13:56:38.099,1 Oct 2023 14:03:10.973,392.874
1 Oct 2023 13:57:20.163,1 Oct 2023 14:00:09.211,169.048
1 Oct 2023 13:57:25.488,1 Oct 2023 14:04:09.344,403.856
1 Oct 2023 13:57:47.863,1 Oct 2023 14:03:28.211,340.348
1 Oct 2023 13:58:45.328,1 Oct 2023 14:06:09.263,443.935
1 Oct 2023 14:00:33.923,1 Oct 2023 14:06:44.272,370.349
1 Oct 2023 14:02:34.066,1 Oct 2023 14:10:45.393,491.327
1 Oct 2023 14:03:45.608,1 Oct 2023 14:05:34.789,109.181
1 Oct 2023 14:03:48.361,1 Oct 2023 14:11:39.841,471.480
1 Oct 2023 14:04:23.102,1 Oct 2023 14:09:37.088,313.986
1 Oct 2023 14:05:24.642,1 Oct 2023 14:13:43.690,499.047
1 Oct 2023 14:06:25.793,1 Oct 2023 14:11:18.410,292.618
1 Oct 2023 14:08:17.054,1 Oct 2023 14:15:49.756,452.703
1 Oct 2023 14:09:01.825,1 Oct 2023 14:14:11.862,310.037
1 Oct 2023 14:09:14.536,1 Oct 2023 14:16:25.267,430.731
1 Oct 2023 14:11:45.654,1 Oct 2023 14:19:30.291,464.637
1 Oct 2023 14:12:49.280,1 Oct 2023 14:20:42.901,473.622
1 Oct 2023 14:12:51.573,1 Oct 2023 14:20:59.855,488.282
1 Oct 2023 14:14:12.506,1 Oct 2023 14:18:57.090,284.584
1 Oct 2023 14:15:15.423,1 Oct 2023 14:22:40.823,445.400
1 Oct 2023 14:15:15.423,1 Oct 2023 14:22:40.823,445.400
1 Oct 2023 14:15:20.395,1 Oct 2023 14:23:12.886,472.491
1 Oct 2023 14:15:34.077,1 Oct 2023 14:22:48.358,434.281
1 Oct 2023 14:16:00.880,1 Oct 2023 14:22:08.159,367.279
1 Oct 2023 14:16:07.582,1 Oct 2023 14:24:06.134,478.552
1 Oct 2023 14:17:14.598,1 Oct 2023 14:22:51.069,336.471
1 Oct 2023 14:17:50.034,1 Oct 2023 14:26:00.898,490.863
1 Oct 2023 14:18:06.858,1 Oct 2023 14:26:18.852,491.994
1 Oct 2023 14:18:08.392,1 Oct 2023 14:26:20.309,491.917
1 Oct 2023 14:18:08.995,1 Oct 2023 14:26:20.888,491.894
1 Oct 2023 14:18:12.283,1 Oct 2023 14:26:23.710,491.428
1 Oct 2023 14:18:12.440,1 Oct 2023 14:26:24.334,491.894
1 Oct 2023 14:18:16.382,1 Oct 2023 14:26:27.898,491.516
1 Oct 2023 14:18:32.869,1 Oct 2023 14:26:44.320,491.451
1 Oct 2023 14:18:43.632,1 Oct 2023 14:26:42.791,479.159
1 Oct 2023 14:18:43.837,1 Oct 2023 14:21:51.041,187.204
1 Oct 2023 14:18:45.780,1 Oct 2023 14:26:57.200,491.420
1 Oct 2023 14:18:48.801,1 Oct 2023 14:25:34.307,405.506
1 Oct 2023 14:18:58.441,1 Oct 2023 14:25:55.110,416.669
1 Oct 2023 14:19:00.067,1 Oct 2023 14:26:05.829,425.762
1 Oct 2023 14:19:10.641,1 Oct 2023 14:27:21.016,490.375
1 Oct 2023 14:20:05.795,1 Oct 2023 14:28:10.610,484.815
1 Oct 2023 14:20:37.277,1 Oct 2023 14:25:29.538,292.261
1 Oct 2023 14:21:40.056,1 Oct 2023 14:29:33.198,473.141
1 Oct 2023 14:22:13.426,1 Oct 2023 14:29:36.217,442.790
1 Oct 2023 14:22:24.529,1 Oct 2023 14:30:34.401,489.872
1 Oct 2023 14:22:31.946,1 Oct 2023 14:26:58.640,266.694
1 Oct 2023 14:24:17.481,1 Oct 2023 14:30:23.632,366.151
1 Oct 2023 14:29:00.535,1 Oct 2023 14:36:52.146,471.611
1 Oct 2023 14:30:31.599,1 Oct 2023 14:38:47.670,496.072
1 Oct 2023 14:32:19.547,1 Oct 2023 14:37:48.277,328.730
1 Oct 2023 14:35:11.557,1 Oct 2023 14:43:18.274,486.717
1 Oct 2023 14:36:51.996,1 Oct 2023 14:45:04.705,492.710
1 Oct 2023 14:36:58.418,1 Oct 2023 14:45:16.205,497.787
1 Oct 2023 14:37:48.560,1 Oct 2023 14:45:59.548,490.988
1 Oct 2023 14:38:26.750,1 Oct 2023 14:46:10.664,463.914
1 Oct 2023 14:38:29.875,1 Oct 2023 14:45:57.972,448.097
1 Oct 2023 14:38:39.430,1 Oct 2023 14:46:11.034,451.604
1 Oct 2023 14:38:49.293,1 Oct 2023 14:46:14.655,445.362
1 Oct 2023 14:39:08.427,1 Oct 2023 14:47:20.270,491.843
1 Oct 2023 14:39:19.495,1 Oct 2023 14:44:11.197,291.702
1 Oct 2023 14:39:19.495,1 Oct 2023 14:44:11.197,291.702
1 Oct 2023 14:39:47.644,1 Oct 2023 14:47:56.393,488.749
1 Oct 2023 14:39:54.969,1 Oct 2023 14:46:16.097,381.127
1 Oct 2023 14:40:09.799,1 Oct 2023 14:47:56.711,466.913
1 Oct 2023 14:40:29.471,1 Oct 2023 14:48:15.260,465.789
1 Oct 2023 14:40:40.365,1 Oct 2023 14:48:11.688,451.322
1 Oct 2023 14:40:42.965,1 Oct 2023 14:48:10.185,447.219
1 Oct 2023 14:40:46.063,1 Oct 2023 14:48:09.219,443.156
1 Oct 2023 14:40:48.505,1 Oct 2023 14:48:17.931,449.426
1 Oct 2023 14:40:48.833,1 Oct 2023 14:48:18.745,449.913
1 Oct 2023 14:40:50.272,1 Oct 2023 14:48:21.348,451.076
1 Oct 2023 14:40:50.692,1 Oct 2023 14:48:16.876,446.185
1 Oct 2023 14:40:54.501,1 Oct 2023 14:47:59.943,425.442
1 Oct 2023 14:41:02.860,1 Oct 2023 14:47:51.901,409.041
1 Oct 2023 14:41:08.816,1 Oct 2023 14:47:22.121,373.306
1 Oct 2023 14:42:04.917,1 Oct 2023 14:49:09.971,425.054
1 Oct 2023 14:42:59.158,1 Oct 2023 14:50:56.048,476.890
1 Oct 2023 14:45:43.171,1 Oct 2023 14:51:38.232,355.061
1 Oct 2023 14:46:12.301,1 Oct 2023 14:54:19.099,486.799
1 Oct 2023 14:47:33.298,1 Oct 2023 14:54:01.542,388.244
1 Oct 2023 14:49:14.974,1 Oct 2023 14:57:32.116,497.143
1 Oct 2023 14:51:09.201,1 Oct 2023 14:58:03.907,414.706
1 Oct 2023 14:52:01.917,1 Oct 2023 15:00:02.745,480.827
1 Oct 2023 14:54:42.498,1 Oct 2023 15:02:55.408,492.909
1 Oct 2023 14:55:53.448,1 Oct 2023 14:56:15.811,22.362
1 Oct 2023 14:56:41.865,1 Oct 2023 15:00:54.793,252.927
1 Oct 2023 14:59:15.614,1 Oct 2023 15:07:17.296,481.682
1 Oct 2023 15:00:07.760,1 Oct 2023 15:04:29.505,261.745
1 Oct 2023 15:00:18.751,1 Oct 2023 15:06:28.977,370.226
1 Oct 2023 15:01:36.009,1 Oct 2023 15:09:48.490,492.480
1 Oct 2023 15:01:43.824,1 Oct 2023 15:09:47.595,483.771
1 Oct 2023 15:02:39.532,1 Oct 2023 15:10:36.462,476.930
1 Oct 2023 15:03:23.920,1 Oct 2023 15:10:38.825,434.905
1 Oct 2023 15:03:50.150,1 Oct 2023 15:07:44.307,234.158
1 Oct 2023 15:03:50.150,1 Oct 2023 15:07:44.307,234.158
1 Oct 2023 15:03:53.433,1 Oct 2023 15:08:42.739,289.306
1 Oct 2023 15:04:13.276,1 Oct 2023 15:06:39.523,146.247
1 Oct 2023 15:04:40.889,1 Oct 2023 15:12:51.537,490.649
1 Oct 2023 15:04:43.706,1 Oct 2023 15:12:02.424,438.717
1 Oct 2023 15:04:55.256,1 Oct 2023 15:13:06.067,490.812
1 Oct 2023 15:05:01.079,1 Oct 2023 15:13:11.551,490.472
1 Oct 2023 15:05:07.364,1 Oct 2023 15:13:07.655,480.291
1 Oct 2023 15:05:09.259,1 Oct 2023 15:12:09.855,420.596
1 Oct 2023 15:05:09.843,1 Oct 2023 15:12:12.491,422.648
1 Oct 2023 15:05:10.200,1 Oct 2023 15:12:13.385,423.185
1 Oct 2023 15:05:10.226,1 Oct 2023 15:12:20.219,429.993
1 Oct 2023 15:05:14.300,1 Oct 2023 15:12:16.088,421.788
1 Oct 2023 15:05:15.293,1 Oct 2023 15:12:23.284,427.992
1 Oct 2023 15:05:33.170,1 Oct 2023 15:12:38.265,425.095
1 Oct 2023 15:05:36.470,1 Oct 2023 15:12:54.378,437.908
1 Oct 2023 15:05:47.461,1 Oct 2023 15:12:49.693,422.233
1 Oct 2023 15:06:05.329,1 Oct 2023 15:13:21.503,436.175
1 Oct 2023 15:06:08.181,1 Oct 2023 15:13:18.738,430.557
1 Oct 2023 15:07:46.459,1 Oct 2023 15:13:45.302,358.843
1 Oct 2023 15:07:54.835,1 Oct 2023 15:15:19.685,444.850
1 Oct 2023 15:08:13.131,1 Oct 2023 15:16:19.845,486.714
1 Oct 2023 15:08:13.488,1 Oct 2023 15:12:54.766,281.278
1 Oct 2023 15:08:59.982,1 Oct 2023 15:15:57.201,417.220
1 Oct 2023 15:09:32.226,1 Oct 2023 15:16:24.380,412.154
1 Oct 2023 15:10:34.027,1 Oct 2023 15:16:49.258,375.232
1 Oct 2023 15:10:43.229,1 Oct 2023 15:17:57.400,434.172
1 Oct 2023 15:16:30.280,1 Oct 2023 15:23:06.072,395.793
1 Oct 2023 15:17:09.164,1 Oct 2023 15:25:30.406,501.242
1 Oct 2023 15:19:05.015,1 Oct 2023 15:23:07.665,242.650
1 Oct 2023 15:19:11.366,1 Oct 2023 15:24:31.287,319.921
1 Oct 2023 15:21:01.562,1 Oct 2023 15:23:28.615,147.053
1 Oct 2023 15:22:36.741,1 Oct 2023 15:28:41.027,364.287
1 Oct 2023 15:23:27.141,1 Oct 2023 15:31:36.119,488.979
1 Oct 2023 15:23:48.995,1 Oct 2023 15:31:44.466,475.471
1 Oct 2023 15:24:36.908,1 Oct 2023 15:32:46.765,489.856
1 Oct 2023 15:24:56.836,1 Oct 2023 15:31:46.348,409.513
1 Oct 2023 15:25:33.036,1 Oct 2023 15:33:41.931,488.895
1 Oct 2023 15:25:46.315,1 Oct 2023 15:33:44.077,477.762
1 Oct 2023 15:26:32.554,1 Oct 2023 15:34:44.930,492.376
1 Oct 2023 15:26:35.401,1 Oct 2023 15:34:15.972,460.571
1 Oct 2023 15:26:50.686,1 Oct 2023 15:31:08.029,257.343
1 Oct 2023 15:27:29.187,1 Oct 2023 15:30:45.290,196.102
1 Oct 2023 15:27:54.037,1 Oct 2023 15:30:35.433,161.395
1 Oct 2023 15:28:08.910,1 Oct 2023 15:36:21.562,492.652
1 Oct 2023 15:28:31.618,1 Oct 2023 15:32:50.942,259.323
1 Oct 2023 15:28:40.685,1 Oct 2023 15:33:32.479,291.794
1 Oct 2023 15:29:22.515,1 Oct 2023 15:37:34.287,491.772
1 Oct 2023 15:29:25.100,1 Oct 2023 15:33:19.364,234.264
1 Oct 2023 15:29:26.010,1 Oct 2023 15:33:14.533,228.523
1 Oct 2023 15:29:26.174,1 Oct 2023 15:33:00.039,213.865
1 Oct 2023 15:29:26.643,1 Oct 2023 15:33:12.823,226.180
1 Oct 2023 15:29:34.819,1 Oct 2023 15:33:06.499,211.681
1 Oct 2023 15:29:37.195,1 Oct 2023 15:32:52.049,194.853
1 Oct 2023 15:30:38.187,1 Oct 2023 15:31:53.383,75.196
1 Oct 2023 15:33:00.450,1 Oct 2023 15:40:27.274,446.824
1 Oct 2023 15:33:09.115,1 Oct 2023 15:41:00.480,471.365
1 Oct 2023 15:33:48.046,1 Oct 2023 15:40:01.303,373.257
1 Oct 2023 15:34:30.652,1 Oct 2023 15:34:59.520,28.868
1 Oct 2023 15:35:51.741,1 Oct 2023 15:44:13.073,501.331
1 Oct 2023 15:38:30.787,1 Oct 2023 15:41:36.013,185.226
1 Oct 2023 15:38:41.503,1 Oct 2023 15:44:35.814,354.310
1 Oct 2023 15:38:48.634,1 Oct 2023 15:45:56.401,427.767
1 Oct 2023 15:41:17.965,1 Oct 2023 15:49:27.100,489.135
1 Oct 2023 15:43:45.220,1 Oct 2023 15:48:17.685,272.465
1 Oct 2023 15:46:56.360,1 Oct 2023 15:53:02.328,365.968
1 Oct 2023 15:48:02.904,1 Oct 2023 15:56:21.653,498.749
1 Oct 2023 15:48:22.372,1 Oct 2023 15:56:08.389,466.017
1 Oct 2023 15:49:38.455,1 Oct 2023 15:55:05.419,326.963
1 Oct 2023 15:49:41.748,1 Oct 2023 15:57:52.058,490.310
1 Oct 2023 15:50:25.259,1 Oct 2023 15:55:35.705,310.445
1 Oct 2023 15:51:32.722,1 Oct 2023 15:59:42.362,489.640
1 Oct 2023 15:51:35.778,1 Oct 2023 15:59:25.669,469.891
1 Oct 2023 15:51:44.016,1 Oct 2023 15:58:43.536,419.520
1 Oct 2023 15:52:04.233,1 Oct 2023 16:00:16.983,492.750
1 Oct 2023 15:52:04.589,1 Oct 2023 15:58:51.374,406.785
1 Oct 2023 15:52:15.696,1 Oct 2023 15:58:51.116,395.420
1 Oct 2023 15:53:00.465,1 Oct 2023 16:00:46.805,466.339
1 Oct 2023 15:54:07.650,1 Oct 2023 16:02:21.367,493.717
1 Oct 2023 15:54:11.616,1 Oct 2023 16:01:12.929,421.313
1 Oct 2023 15:54:35.573,1 Oct 2023 16:02:56.166,500.593
1 Oct 2023 15:56:00.932,1 Oct 2023 16:04:03.165,482.233
1 Oct 2023 15:56:31.933,1 Oct 2023 16:02:28.658,356.726
1 Oct 2023 15:57:06.557,1 Oct 2023 16:05:11.761,485.204
1 Oct 2023 16:03:45.510,1 Oct 2023 16:12:01.132,495.622
1 Oct 2023 16:04:18.564,1 Oct 2023 16:12:20.034,481.470
1 Oct 2023 16:04:29.144,1 Oct 2023 16:09:15.530,286.385
1 Oct 2023 16:04:54.926,1 Oct 2023 16:12:28.506,453.580
1 Oct 2023 16:05:44.860,1 Oct 2023 16:10:07.446,262.586
1 Oct 2023 16:10:29.967,1 Oct 2023 16:17:16.473,406.507
1 Oct 2023 16:11:09.683,1 Oct 2023 16:18:06.719,417.036
1 Oct 2023 16:11:11.212,1 Oct 2023 16:15:15.349,244.137
1 Oct 2023 16:12:01.081,1 Oct 2023 16:18:39.988,398.907
1 Oct 2023 16:12:34.963,1 Oct 2023 16:19:39.163,424.200
1 Oct 2023 16:13:12.101,1 Oct 2023 16:18:57.335,345.234
1 Oct 2023 16:13:38.918,1 Oct 2023 16:20:26.362,407.444
1 Oct 2023 16:14:47.302,1 Oct 2023 16:19:38.567,291.264
1 Oct 2023 16:15:04.027,1 Oct 2023 16:22:19.874,435.847
1 Oct 2023 16:16:12.779,1 Oct 2023 16:21:35.087,322.307
1 Oct 2023 16:16:35.917,1 Oct 2023 16:23:48.633,432.716
1 Oct 2023 16:19:14.414,1 Oct 2023 16:27:22.023,487.609
1 Oct 2023 16:19:22.460,1 Oct 2023 16:27:41.096,498.637
1 Oct 2023 16:21:59.940,1 Oct 2023 16:27:36.161,336.222
1 Oct 2023 16:22:24.091,1 Oct 2023 16:23:53.059,88.969
1 Oct 2023 16:22:29.538,1 Oct 2023 16:30:37.704,488.165
1 Oct 2023 16:23:31.220,1 Oct 2023 16:28:37.242,306.022
1 Oct 2023 16:24:29.459,1 Oct 2023 16:31:06.040,396.582
1 Oct 2023 16:26:03.813,1 Oct 2023 16:31:29.049,325.236
1 Oct 2023 16:26:07.362,1 Oct 2023 16:30:59.606,292.244
1 Oct 2023 16:28:20.645,1 Oct 2023 16:35:08.302,407.656
1 Oct 2023 16:29:53.443,1 Oct 2023 16:36:19.258,385.814
1 Oct 2023 16:30:15.322,1 Oct 2023 16:36:05.012,349.691
1 Oct 2023 16:34:01.766,1 Oct 2023 16:37:39.568,217.802
1 Oct 2023 16:34:34.478,1 Oct 2023 16:42:53.359,498.881
1 Oct 2023 16:35:30.051,1 Oct 2023 16:37:58.188,148.137
1 Oct 2023 16:35:42.249,1 Oct 2023 16:41:11.742,329.494
1 Oct 2023 16:36:16.832,1 Oct 2023 16:44:22.226,485.394
1 Oct 2023 16:36:33.068,1 Oct 2023 16:40:42.454,249.386
1 Oct 2023 16:37:58.307,1 Oct 2023 16:46:19.643,501.336
1 Oct 2023 16:38:09.597,1 Oct 2023 16:45:30.938,441.341
1 Oct 2023 16:39:15.901,1 Oct 2023 16:46:21.778,425.877
1 Oct 2023 16:39:17.454,1 Oct 2023 16:47:29.085,491.631
1 Oct 2023 16:39:51.927,1 Oct 2023 16:46:07.935,376.008
1 Oct 2023 16:39:59.766,1 Oct 2023 16:48:13.578,493.812
1 Oct 2023 16:40:32.692,1 Oct 2023 16:46:59.561,386.868
1 Oct 2023 16:41:07.031,1 Oct 2023 16:48:13.617,426.586
1 Oct 2023 16:41:09.564,1 Oct 2023 16:49:32.010,502.446
1 Oct 2023 16:42:26.897,1 Oct 2023 16:50:41.105,494.209
1 Oct 2023 16:43:38.265,1 Oct 2023 16:51:53.520,495.255
1 Oct 2023 16:43:54.661,1 Oct 2023 16:49:20.972,326.312
1 Oct 2023 16:49:27.735,1 Oct 2023 16:55:48.264,380.529
1 Oct 2023 16:50:28.461,1 Oct 2023 16:58:07.900,459.439
1 Oct 2023 16:51:01.795,1 Oct 2023 16:58:37.308,455.512
1 Oct 2023 16:51:08.852,1 Oct 2023 16:59:12.039,483.187
1 Oct 2023 16:51:34.394,1 Oct 2023 16:58:20.935,406.541
1 Oct 2023 16:52:38.501,1 Oct 2023 16:55:33.194,174.693
1 Oct 2023 16:54:04.872,1 Oct 2023 16:56:10.090,125.218
1 Oct 2023 16:54:04.872,1 Oct 2023 16:56:10.090,125.218
1 Oct 2023 16:56:07.076,1 Oct 2023 17:02:32.582,385.506
1 Oct 2023 16:58:26.371,1 Oct 2023 17:04:50.874,384.503
1 Oct 2023 16:58:46.223,1 Oct 2023 17:04:34.013,347.790
1 Oct 2023 17:01:18.182,1 Oct 2023 17:09:18.704,480.522
1 Oct 2023 17:04:35.938,1 Oct 2023 17:09:44.500,308.562
1 Oct 2023 17:05:56.703,1 Oct 2023 17:13:47.620,470.917
1 Oct 2023 17:05:56.764,1 Oct 2023 17:14:17.314,500.550
1 Oct 2023 17:06:25.410,1 Oct 2023 17:11:46.834,321.424
1 Oct 2023 17:07:13.660,1 Oct 2023 17:15:17.642,483.982
1 Oct 2023 17:09:12.045,1 Oct 2023 17:15:06.428,354.383
1 Oct 2023 17:09:18.627,1 Oct 2023 17:16:32.446,433.819
1 Oct 2023 17:10:08.297,1 Oct 2023 17:18:19.167,490.870
1 Oct 2023 17:12:59.708,1 Oct 2023 17:18:49.255,349.548
1 Oct 2023 17:14:26.629,1 Oct 2023 17:21:11.908,405.279
1 Oct 2023 17:14:26.629,1 Oct 2023 17:21:11.908,405.279
1 Oct 2023 17:15:30.635,1 Oct 2023 17:23:40.091,489.456
1 Oct 2023 17:16:33.719,1 Oct 2023 17:23:45.582,431.863
1 Oct 2023 17:16:33.758,1 Oct 2023 17:19:39.843,186.085
1 Oct 2023 17:17:55.273,1 Oct 2023 17:22:39.271,283.999
1 Oct 2023 17:18:42.067,1 Oct 2023 17:26:19.659,457.592
1 Oct 2023 17:18:46.768,1 Oct 2023 17:22:18.228,211.460
1 Oct 2023 17:19:22.017,1 Oct 2023 17:21:46.650,144.633
1 Oct 2023 17:19:38.867,1 Oct 2023 17:27:07.390,448.523
1 Oct 2023 17:21:07.577,1 Oct 2023 17:29:20.653,493.076
1 Oct 2023 17:22:02.031,1 Oct 2023 17:27:00.328,298.297
1 Oct 2023 17:23:29.191,1 Oct 2023 17:29:51.761,382.570
1 Oct 2023 17:24:39.853,1 Oct 2023 17:32:56.222,496.369
1 Oct 2023 17:24:55.218,1 Oct 2023 17:31:12.673,377.455
1 Oct 2023 17:25:35.622,1 Oct 2023 17:33:42.202,486.580
1 Oct 2023 17:26:04.850,1 Oct 2023 17:34:08.676,483.826
1 Oct 2023 17:26:34.194,1 Oct 2023 17:33:37.291,423.096
1 Oct 2023 17:26:44.922,1 Oct 2023 17:34:41.284,476.362
1 Oct 2023 17:27:47.148,1 Oct 2023 17:36:09.423,502.274
1 Oct 2023 17:28:14.211,1 Oct 2023 17:31:09.733,175.522
1 Oct 2023 17:29:32.634,1 Oct 2023 17:37:04.131,451.497
1 Oct 2023 17:30:32.931,1 Oct 2023 17:37:48.633,435.702
1 Oct 2023 17:30:51.348,1 Oct 2023 17:36:40.241,348.893
1 Oct 2023 17:31:50.033,1 Oct 2023 17:38:55.424,425.391
1 Oct 2023 17:34:59.326,1 Oct 2023 17:41:25.903,386.577
1 Oct 2023 17:35:12.297,1 Oct 2023 17:43:20.072,487.775
1 Oct 2023 17:37:18.468,1 Oct 2023 17:41:26.807,248.338
1 Oct 2023 17:37:35.324,1 Oct 2023 17:43:31.152,355.827
1 Oct 2023 17:37:43.682,1 Oct 2023 17:45:46.439,482.757
1 Oct 2023 17:37:45.227,1 Oct 2023 17:45:10.851,445.624
1 Oct 2023 17:37:45.227,1 Oct 2023 17:45:10.851,445.624
1 Oct 2023 17:38:54.451,1 Oct 2023 17:44:38.691,344.240
1 Oct 2023 17:39:21.464,1 Oct 2023 17:45:11.536,350.072
1 Oct 2023 17:39:51.639,1 Oct 2023 17:43:03.708,192.069
1 Oct 2023 17:40:05.528,1 Oct 2023 17:42:41.253,155.724
1 Oct 2023 17:41:51.087,1 Oct 2023 17:49:16.645,445.557
1 Oct 2023 17:42:21.105,1 Oct 2023 17:46:34.203,253.099
1 Oct 2023 17:42:25.624,1 Oct 2023 17:45:48.952,203.327
1 Oct 2023 17:42:25.984,1 Oct 2023 17:46:31.870,245.886
1 Oct 2023 17:42:27.581,1 Oct 2023 17:46:31.356,243.775
1 Oct 2023 17:42:30.504,1 Oct 2023 17:46:35.853,245.349
1 Oct 2023 17:42:42.800,1 Oct 2023 17:46:20.606,217.806
1 Oct 2023 17:42:45.430,1 Oct 2023 17:46:27.027,221.597
1 Oct 2023 17:43:04.583,1 Oct 2023 17:46:42.460,217.876
1 Oct 2023 17:43:18.518,1 Oct 2023 17:46:55.769,217.250
1 Oct 2023 17:43:57.110,1 Oct 2023 17:52:00.366,483.257
1 Oct 2023 17:44:12.910,1 Oct 2023 17:46:49.683,156.773
1 Oct 2023 17:44:19.640,1 Oct 2023 17:49:16.502,296.862
1 Oct 2023 17:46:16.639,1 Oct 2023 17:51:21.045,304.407
1 Oct 2023 17:47:55.581,1 Oct 2023 17:55:44.811,469.231
1 Oct 2023 17:48:19.429,1 Oct 2023 17:49:29.855,70.426
1 Oct 2023 17:48:22.031,1 Oct 2023 17:49:43.948,81.916
1 Oct 2023 17:51:29.846,1 Oct 2023 17:59:19.364,469.518
1 Oct 2023 17:52:40.735,1 Oct 2023 18:00:55.834,495.100
1 Oct 2023 17:53:48.612,1 Oct 2023 17:59:30.998,342.386
1 Oct 2023 17:53:57.956,1 Oct 2023 17:54:44.928,46.972
1 Oct 2023 17:54:01.099,1 Oct 2023 18:01:31.235,450.136
1 Oct 2023 17:55:12.134,1 Oct 2023 18:01:20.751,368.617
1 Oct 2023 17:56:46.795,1 Oct 2023 18:01:27.964,281.170
1 Oct 2023 17:57:10.765,1 Oct 2023 18:04:24.579,433.814
1 Oct 2023 17:58:30.181,1 Oct 2023 18:04:42.333,372.152
1 Oct 2023 17:59:33.079,1 Oct 2023 18:06:21.597,408.518
1 Oct 2023 18:00:23.212,1 Oct 2023 18:08:33.757,490.545
1 Oct 2023 18:00:23.212,1 Oct 2023 18:08:33.757,490.545
1 Oct 2023 18:00:50.049,1 Oct 2023 18:06:54.767,364.718
1 Oct 2023 18:01:35.164,1 Oct 2023 18:08:24.057,408.893
1 Oct 2023 18:01:36.579,1 Oct 2023 18:08:35.033,418.454
1 Oct 2023 18:01:41.617,1 Oct 2023 18:08:06.855,385.238
1 Oct 2023 18:02:16.015,1 Oct 2023 18:08:12.296,356.281
1 Oct 2023 18:02:33.507,1 Oct 2023 18:05:55.893,202.386
1 Oct 2023 18:02:36.000,1 Oct 2023 18:09:37.611,421.611
1 Oct 2023 18:02:45.225,1 Oct 2023 18:10:39.587,474.362
1 Oct 2023 18:02:53.893,1 Oct 2023 18:11:00.544,486.652
1 Oct 2023 18:03:05.970,1 Oct 2023 18:10:46.906,460.936
1 Oct 2023 18:03:12.316,1 Oct 2023 18:10:43.060,450.745
1 Oct 2023 18:03:22.222,1 Oct 2023 18:10:37.567,435.344
1 Oct 2023 18:03:23.963,1 Oct 2023 18:10:34.664,430.701
1 Oct 2023 18:03:29.832,1 Oct 2023 18:10:42.739,432.907
1 Oct 2023 18:03:31.600,1 Oct 2023 18:10:40.639,429.040
1 Oct 2023 18:03:32.478,1 Oct 2023 18:10:41.007,428.530
1 Oct 2023 18:03:35.187,1 Oct 2023 18:10:42.576,427.389
1 Oct 2023 18:03:36.819,1 Oct 2023 18:10:18.531,401.712
1 Oct 2023 18:04:31.063,1 Oct 2023 18:07:12.868,161.805
1 Oct 2023 18:05:00.786,1 Oct 2023 18:13:02.696,481.910
1 Oct 2023 18:05:51.651,1 Oct 2023 18:13:56.143,484.492
1 Oct 2023 18:07:42.950,1 Oct 2023 18:15:37.101,474.151
1 Oct 2023 18:08:46.640,1 Oct 2023 18:12:18.288,211.648
1 Oct 2023 18:11:26.807,1 Oct 2023 18:19:37.194,490.386
1 Oct 2023 18:12:18.229,1 Oct 2023 18:16:01.937,223.707
1 Oct 2023 18:12:19.799,1 Oct 2023 18:19:55.162,455.363
1 Oct 2023 18:12:31.156,1 Oct 2023 18:20:46.648,495.491
1 Oct 2023 18:14:15.623,1 Oct 2023 18:20:50.409,394.786
1 Oct 2023 18:14:23.868,1 Oct 2023 18:22:46.153,502.285
1 Oct 2023 18:15:01.012,1 Oct 2023 18:19:05.604,244.592
1 Oct 2023 18:17:06.901,1 Oct 2023 18:23:22.960,376.059
1 Oct 2023 18:17:25.224,1 Oct 2023 18:24:12.260,407.037
1 Oct 2023 18:17:47.510,1 Oct 2023 18:25:56.123,488.613
1 Oct 2023 18:18:42.923,1 Oct 2023 18:22:06.766,203.843
1 Oct 2023 18:20:34.221,1 Oct 2023 18:28:44.162,489.941
1 Oct 2023 18:22:00.467,1 Oct 2023 18:29:29.274,448.807
1 Oct 2023 18:22:08.011,1 Oct 2023 18:29:53.267,465.255
1 Oct 2023 18:22:46.323,1 Oct 2023 18:29:00.910,374.587
1 Oct 2023 18:23:50.141,1 Oct 2023 18:32:01.193,491.051
1 Oct 2023 18:23:50.141,1 Oct 2023 18:32:01.193,491.051
1 Oct 2023 18:24:14.371,1 Oct 2023 18:32:23.614,489.243
1 Oct 2023 18:24:48.402,1 Oct 2023 18:32:10.481,442.079
1 Oct 2023 18:25:41.169,1 Oct 2023 18:32:23.100,401.931
1 Oct 2023 18:26:30.084,1 Oct 2023 18:30:46.865,256.780
1 Oct 2023 18:27:13.214,1 Oct 2023 18:34:36.475,443.260
1 Oct 2023 18:27:25.255,1 Oct 2023 18:35:01.221,455.966
1 Oct 2023 18:27:27.472,1 Oct 2023 18:35:01.832,454.359
1 Oct 2023 18:27:28.273,1 Oct 2023 18:35:02.178,453.905
1 Oct 2023 18:27:30.022,1 Oct 2023 18:28:11.315,41.293
1 Oct 2023 18:27:31.497,1 Oct 2023 18:35:06.012,454.515
1 Oct 2023 18:27:33.866,1 Oct 2023 18:35:02.107,448.241
1 Oct 2023 18:27:37.559,1 Oct 2023 18:35:06.950,449.391
1 Oct 2023 18:27:54.060,1 Oct 2023 18:35:23.852,449.792
1 Oct 2023 18:27:57.569,1 Oct 2023 18:35:49.793,472.224
1 Oct 2023 18:28:06.783,1 Oct 2023 18:35:37.353,450.570
1 Oct 2023 18:28:35.754,1 Oct 2023 18:35:56.794,441.039
1 Oct 2023 18:29:15.502,1 Oct 2023 18:37:12.422,476.920
1 Oct 2023 18:29:30.253,1 Oct 2023 18:33:24.715,234.462
1 Oct 2023 18:29:38.503,1 Oct 2023 18:33:03.007,204.504
1 Oct 2023 18:29:42.162,1 Oct 2023 18:32:27.151,164.989
1 Oct 2023 18:30:22.601,1 Oct 2023 18:38:38.193,495.592
1 Oct 2023 18:31:51.103,1 Oct 2023 18:39:13.444,442.340
1 Oct 2023 18:32:02.122,1 Oct 2023 18:38:15.073,372.951
1 Oct 2023 18:33:19.136,1 Oct 2023 18:38:38.961,319.825
1 Oct 2023 18:36:02.632,1 Oct 2023 18:41:04.909,302.277
1 Oct 2023 18:37:46.228,1 Oct 2023 18:46:02.325,496.096
1 Oct 2023 18:39:25.573,1 Oct 2023 18:47:39.010,493.437
1 Oct 2023 18:41:25.801,1 Oct 2023 18:47:21.601,355.800
1 Oct 2023 18:43:04.352,1 Oct 2023 18:45:45.989,161.637
1 Oct 2023 18:44:17.441,1 Oct 2023 18:52:20.609,483.167
1 Oct 2023 18:45:57.374,1 Oct 2023 18:53:44.315,466.941
1 Oct 2023 18:46:12.144,1 Oct 2023 18:54:10.786,478.642
1 Oct 2023 18:46:30.961,1 Oct 2023 18:48:38.051,127.090
1 Oct 2023 18:47:11.458,1 Oct 2023 18:54:43.306,451.847
1 Oct 2023 18:47:12.130,1 Oct 2023 18:54:40.969,448.839
1 Oct 2023 18:47:12.130,1 Oct 2023 18:54:40.969,448.839
1 Oct 2023 18:47:16.323,1 Oct 2023 18:55:26.154,489.831
1 Oct 2023 18:47:21.717,1 Oct 2023 18:55:32.577,490.859
1 Oct 2023 18:47:28.230,1 Oct 2023 18:55:38.901,490.671
1 Oct 2023 18:48:19.414,1 Oct 2023 18:55:56.682,457.268
1 Oct 2023 18:48:58.445,1 Oct 2023 18:53:47.516,289.071
1 Oct 2023 18:49:16.586,1 Oct 2023 18:57:09.382,472.796
1 Oct 2023 18:49:18.004,1 Oct 2023 18:57:29.500,491.496
1 Oct 2023 18:49:21.033,1 Oct 2023 18:57:32.452,491.419
1 Oct 2023 18:49:22.115,1 Oct 2023 18:57:33.040,490.925
1 Oct 2023 18:49:22.500,1 Oct 2023 18:57:30.150,487.649
1 Oct 2023 18:49:24.069,1 Oct 2023 18:57:27.575,483.507
1 Oct 2023 18:49:25.960,1 Oct 2023 18:57:38.444,492.484
1 Oct 2023 18:49:26.144,1 Oct 2023 18:56:31.884,425.741
1 Oct 2023 18:49:27.579,1 Oct 2023 18:57:39.250,491.672
1 Oct 2023 18:49:28.128,1 Oct 2023 18:57:39.458,491.330
1 Oct 2023 18:49:28.147,1 Oct 2023 18:57:39.866,491.719
1 Oct 2023 18:49:30.154,1 Oct 2023 18:57:41.981,491.828
1 Oct 2023 18:49:36.374,1 Oct 2023 18:56:09.540,393.166
1 Oct 2023 18:52:03.642,1 Oct 2023 18:56:46.493,282.851
1 Oct 2023 18:52:46.866,1 Oct 2023 18:58:10.526,323.660
1 Oct 2023 18:52:49.980,1 Oct 2023 18:59:25.190,395.210
1 Oct 2023 18:53:32.079,1 Oct 2023 18:59:12.017,339.938
1 Oct 2023 18:54:26.184,1 Oct 2023 19:01:32.533,426.349
1 Oct 2023 18:55:42.833,1 Oct 2023 19:02:45.861,423.028
1 Oct 2023 18:58:09.183,1 Oct 2023 19:02:03.375,234.192
1 Oct 2023 18:58:11.466,1 Oct 2023 19:06:23.121,491.655
1 Oct 2023 18:59:33.114,1 Oct 2023 19:07:12.926,459.812
1 Oct 2023 19:00:59.421,1 Oct 2023 19:09:16.047,496.626
1 Oct 2023 19:01:00.128,1 Oct 2023 19:04:00.146,180.018
1 Oct 2023 19:02:30.009,1 Oct 2023 19:06:43.192,253.183
1 Oct 2023 19:03:49.610,1 Oct 2023 19:11:35.288,465.678
1 Oct 2023 19:04:53.590,1 Oct 2023 19:09:49.488,295.899
1 Oct 2023 19:05:14.340,1 Oct 2023 19:11:32.337,377.997
1 Oct 2023 19:07:35.711,1 Oct 2023 19:14:48.594,432.883
1 Oct 2023 19:08:13.253,1 Oct 2023 19:16:21.658,488.405
1 Oct 2023 19:08:32.937,1 Oct 2023 19:16:29.052,476.115
1 Oct 2023 19:10:49.825,1 Oct 2023 19:18:50.819,480.993
1 Oct 2023 19:11:06.160,1 Oct 2023 19:13:11.341,125.181
1 Oct 2023 19:11:09.911,1 Oct 2023 19:17:58.820,408.908
1 Oct 2023 19:11:09.911,1 Oct 2023 19:17:58.820,408.908
1 Oct 2023 19:11:15.479,1 Oct 2023 19:18:10.019,414.540
1 Oct 2023 19:11:23.968,1 Oct 2023 19:17:58.353,394.385
1 Oct 2023 19:11:36.802,1 Oct 2023 19:19:46.700,489.898
1 Oct 2023 19:12:39.861,1 Oct 2023 19:18:50.817,370.956
1 Oct 2023 19:13:23.608,1 Oct 2023 19:21:34.395,490.787
1 Oct 2023 19:13:42.257,1 Oct 2023 19:21:49.821,487.564
1 Oct 2023 19:13:43.571,1 Oct 2023 19:21:51.568,487.998
1 Oct 2023 19:13:44.118,1 Oct 2023 19:21:52.226,488.108
1 Oct 2023 19:13:46.656,1 Oct 2023 19:21:56.046,489.391
1 Oct 2023 19:13:47.686,1 Oct 2023 19:21:55.506,487.820
1 Oct 2023 19:13:48.189,1 Oct 2023 19:17:41.127,232.938
1 Oct 2023 19:13:50.941,1 Oct 2023 19:21:59.973,489.031
1 Oct 2023 19:14:04.709,1 Oct 2023 19:21:30.327,445.618
1 Oct 2023 19:14:07.614,1 Oct 2023 19:22:16.095,488.480
1 Oct 2023 19:14:15.800,1 Oct 2023 19:21:49.104,453.304
1 Oct 2023 19:14:16.228,1 Oct 2023 19:22:17.870,481.642
1 Oct 2023 19:14:18.748,1 Oct 2023 19:21:58.114,459.366
1 Oct 2023 19:14:20.744,1 Oct 2023 19:22:28.664,487.920
1 Oct 2023 19:14:44.492,1 Oct 2023 19:22:53.835,489.343
1 Oct 2023 19:15:34.795,1 Oct 2023 19:21:24.210,349.415
1 Oct 2023 19:15:50.461,1 Oct 2023 19:23:39.232,468.771
1 Oct 2023 19:16:49.088,1 Oct 2023 19:21:02.386,253.298
1 Oct 2023 19:17:24.111,1 Oct 2023 19:25:04.067,459.956
1 Oct 2023 19:17:34.224,1 Oct 2023 19:25:13.524,459.300
1 Oct 2023 19:17:36.770,1 Oct 2023 19:23:15.660,338.890
1 Oct 2023 19:17:59.674,1 Oct 2023 19:26:05.411,485.737
1 Oct 2023 19:19:54.393,1 Oct 2023 19:26:15.614,381.221
1 Oct 2023 19:22:25.783,1 Oct 2023 19:23:35.625,69.842
1 Oct 2023 19:24:48.302,1 Oct 2023 19:32:24.707,456.405
1 Oct 2023 19:26:06.356,1 Oct 2023 19:34:24.305,497.950
1 Oct 2023 19:27:54.065,1 Oct 2023 19:33:03.681,309.616
1 Oct 2023 19:30:53.556,1 Oct 2023 19:38:45.235,471.679
1 Oct 2023 19:32:24.123,1 Oct 2023 19:40:41.470,497.347
1 Oct 2023 19:32:33.945,1 Oct 2023 19:40:50.111,496.166
1 Oct 2023 19:33:26.369,1 Oct 2023 19:41:32.100,485.731
1 Oct 2023 19:33:49.261,1 Oct 2023 19:41:42.844,473.583
1 Oct 2023 19:34:17.560,1 Oct 2023 19:41:31.269,433.709
1 Oct 2023 19:34:33.680,1 Oct 2023 19:41:28.907,415.227
1 Oct 2023 19:34:40.065,1 Oct 2023 19:42:56.214,496.150
1 Oct 2023 19:34:45.165,1 Oct 2023 19:41:31.298,406.133
1 Oct 2023 19:35:07.296,1 Oct 2023 19:42:17.341,430.044
1 Oct 2023 19:35:19.159,1 Oct 2023 19:43:32.079,492.920
1 Oct 2023 19:35:36.621,1 Oct 2023 19:43:40.195,483.574
1 Oct 2023 19:36:01.706,1 Oct 2023 19:38:33.185,151.478
1 Oct 2023 19:36:01.706,1 Oct 2023 19:38:33.185,151.478
1 Oct 2023 19:36:19.428,1 Oct 2023 19:43:38.237,438.809
1 Oct 2023 19:36:26.009,1 Oct 2023 19:43:24.546,418.537
1 Oct 2023 19:36:37.740,1 Oct 2023 19:43:29.586,411.847
1 Oct 2023 19:36:41.814,1 Oct 2023 19:43:27.882,406.068
1 Oct 2023 19:36:42.691,1 Oct 2023 19:43:37.893,415.202
1 Oct 2023 19:36:42.896,1 Oct 2023 19:43:38.812,415.915
1 Oct 2023 19:36:44.041,1 Oct 2023 19:43:41.679,417.638
1 Oct 2023 19:36:45.668,1 Oct 2023 19:43:36.244,410.577
1 Oct 2023 19:36:54.411,1 Oct 2023 19:43:15.306,380.895
1 Oct 2023 19:37:06.558,1 Oct 2023 19:43:04.151,357.594
1 Oct 2023 19:37:21.398,1 Oct 2023 19:42:26.469,305.070
1 Oct 2023 19:37:24.708,1 Oct 2023 19:45:01.771,457.063
1 Oct 2023 19:38:25.586,1 Oct 2023 19:46:34.918,489.332
1 Oct 2023 19:41:34.009,1 Oct 2023 19:46:46.989,312.980
1 Oct 2023 19:41:42.690,1 Oct 2023 19:49:53.550,490.860
1 Oct 2023 19:42:47.919,1 Oct 2023 19:49:44.990,417.071
1 Oct 2023 19:44:50.801,1 Oct 2023 19:53:09.406,498.605
1 Oct 2023 19:46:58.023,1 Oct 2023 19:53:38.688,400.665
1 Oct 2023 19:47:37.855,1 Oct 2023 19:55:29.794,471.939
1 Oct 2023 19:50:16.095,1 Oct 2023 19:58:33.189,497.093
1 Oct 2023 19:52:24.795,1 Oct 2023 19:56:43.041,258.246
1 Oct 2023 19:54:59.651,1 Oct 2023 20:02:42.454,462.803
1 Oct 2023 19:56:34.898,1 Oct 2023 20:01:23.560,288.662
1 Oct 2023 19:57:09.533,1 Oct 2023 20:05:25.213,495.679
1 Oct 2023 19:57:14.225,1 Oct 2023 20:05:25.922,491.697
1 Oct 2023 19:57:21.990,1 Oct 2023 19:58:31.579,69.589
1 Oct 2023 19:58:23.199,1 Oct 2023 20:05:56.507,453.308
1 Oct 2023 19:58:51.955,1 Oct 2023 20:06:28.815,456.860
1 Oct 2023 19:59:12.066,1 Oct 2023 20:04:20.612,308.546
1 Oct 2023 20:00:15.726,1 Oct 2023 20:08:23.082,487.356
1 Oct 2023 20:00:31.382,1 Oct 2023 20:08:36.037,484.655
1 Oct 2023 20:00:37.856,1 Oct 2023 20:07:10.765,392.909
1 Oct 2023 20:00:38.307,1 Oct 2023 20:08:40.201,481.894
1 Oct 2023 20:00:41.375,1 Oct 2023 20:08:41.325,479.950
1 Oct 2023 20:00:55.404,1 Oct 2023 20:08:33.512,458.108
1 Oct 2023 20:01:06.750,1 Oct 2023 20:07:26.159,379.409
1 Oct 2023 20:01:07.882,1 Oct 2023 20:07:13.360,365.478
1 Oct 2023 20:01:08.013,1 Oct 2023 20:07:16.525,368.511
1 Oct 2023 20:01:08.256,1 Oct 2023 20:07:17.556,369.299
1 Oct 2023 20:01:12.352,1 Oct 2023 20:07:28.680,376.328
1 Oct 2023 20:01:12.744,1 Oct 2023 20:07:19.874,367.130
1 Oct 2023 20:01:14.980,1 Oct 2023 20:01:41.538,26.559
1 Oct 2023 20:01:14.980,1 Oct 2023 20:01:41.538,26.559
1 Oct 2023 20:01:24.771,1 Oct 2023 20:09:09.916,465.145
1 Oct 2023 20:01:31.181,1 Oct 2023 20:07:42.818,371.637
1 Oct 2023 20:01:46.375,1 Oct 2023 20:07:53.435,367.060
1 Oct 2023 20:02:05.467,1 Oct 2023 20:08:24.623,379.156
1 Oct 2023 20:03:07.133,1 Oct 2023 20:09:04.826,357.693
1 Oct 2023 20:03:19.071,1 Oct 2023 20:11:08.893,469.822
1 Oct 2023 20:03:41.662,1 Oct 2023 20:11:54.160,492.498
1 Oct 2023 20:04:04.117,1 Oct 2023 20:08:47.501,283.384
1 Oct 2023 20:04:49.008,1 Oct 2023 20:11:29.168,400.160
1 Oct 2023 20:04:57.455,1 Oct 2023 20:08:59.296,241.840
1 Oct 2023 20:05:36.695,1 Oct 2023 20:11:25.676,348.981
1 Oct 2023 20:05:45.061,1 Oct 2023 20:12:42.053,416.991
1 Oct 2023 20:06:17.657,1 Oct 2023 20:13:46.559,448.902
1 Oct 2023 20:12:26.427,1 Oct 2023 20:18:37.061,370.634
1 Oct 2023 20:12:43.131,1 Oct 2023 20:21:04.598,501.466
1 Oct 2023 20:14:07.904,1 Oct 2023 20:20:40.235,392.331
1 Oct 2023 20:14:52.372,1 Oct 2023 20:18:07.547,195.176
1 Oct 2023 20:15:18.414,1 Oct 2023 20:20:16.257,297.843
1 Oct 2023 20:15:54.064,1 Oct 2023 20:17:01.583,67.518
1 Oct 2023 20:18:48.329,1 Oct 2023 20:23:34.045,285.716
1 Oct 2023 20:19:04.931,1 Oct 2023 20:27:00.501,475.570
1 Oct 2023 20:19:34.654,1 Oct 2023 20:27:15.015,460.361
1 Oct 2023 20:20:17.293,1 Oct 2023 20:28:16.284,478.991
1 Oct 2023 20:21:00.587,1 Oct 2023 20:26:50.372,349.784
1 Oct 2023 20:21:08.715,1 Oct 2023 20:29:16.859,488.144
1 Oct 2023 20:21:27.656,1 Oct 2023 20:29:03.611,455.955
1 Oct 2023 20:22:09.561,1 Oct 2023 20:30:11.221,481.660
1 Oct 2023 20:22:26.319,1 Oct 2023 20:29:39.391,433.072
1 Oct 2023 20:23:42.429,1 Oct 2023 20:31:52.693,490.264
1 Oct 2023 20:24:00.550,1 Oct 2023 20:25:17.597,77.047
1 Oct 2023 20:25:03.094,1 Oct 2023 20:33:06.170,483.076
1 Oct 2023 20:25:14.474,1 Oct 2023 20:28:20.463,185.989
1 Oct 2023 20:25:26.687,1 Oct 2023 20:26:48.775,82.088
1 Oct 2023 20:26:52.018,1 Oct 2023 20:27:15.751,23.732
1 Oct 2023 20:28:35.833,1 Oct 2023 20:36:37.425,481.593
1 Oct 2023 20:28:53.803,1 Oct 2023 20:35:36.006,402.203
1 Oct 2023 20:28:56.147,1 Oct 2023 20:35:59.450,423.303
1 Oct 2023 20:31:26.870,1 Oct 2023 20:39:47.270,500.400
1 Oct 2023 20:33:36.934,1 Oct 2023 20:37:19.752,222.818
1 Oct 2023 20:34:28.952,1 Oct 2023 20:40:15.796,346.844
1 Oct 2023 20:34:29.291,1 Oct 2023 20:41:13.661,404.370
1 Oct 2023 20:36:36.653,1 Oct 2023 20:37:13.399,36.746
1 Oct 2023 20:36:56.187,1 Oct 2023 20:44:53.413,477.226
1 Oct 2023 20:39:17.680,1 Oct 2023 20:44:14.802,297.121
1 Oct 2023 20:43:07.325,1 Oct 2023 20:48:09.196,301.870
1 Oct 2023 20:43:38.328,1 Oct 2023 20:51:57.996,499.668
1 Oct 2023 20:44:09.444,1 Oct 2023 20:51:24.631,435.188
1 Oct 2023 20:45:03.196,1 Oct 2023 20:50:38.232,335.037
1 Oct 2023 20:45:14.292,1 Oct 2023 20:53:30.465,496.173
1 Oct 2023 20:46:58.207,1 Oct 2023 20:50:02.435,184.228
1 Oct 2023 20:47:01.534,1 Oct 2023 20:55:17.164,495.630
1 Oct 2023 20:47:10.843,1 Oct 2023 20:54:56.832,465.990
1 Oct 2023 20:47:43.840,1 Oct 2023 20:55:50.498,486.658
1 Oct 2023 20:47:44.764,1 Oct 2023 20:53:46.431,361.667
1 Oct 2023 20:48:08.820,1 Oct 2023 20:53:50.791,341.971
1 Oct 2023 20:48:23.052,1 Oct 2023 20:53:47.330,324.278
1 Oct 2023 20:48:26.272,1 Oct 2023 20:56:29.699,483.427
1 Oct 2023 20:49:29.215,1 Oct 2023 20:57:01.262,452.047
1 Oct 2023 20:49:43.922,1 Oct 2023 20:57:52.044,488.122
1 Oct 2023 20:50:08.258,1 Oct 2023 20:58:29.976,501.718
1 Oct 2023 20:51:01.359,1 Oct 2023 20:52:32.930,91.570
1 Oct 2023 20:51:30.903,1 Oct 2023 20:59:43.007,492.104
1 Oct 2023 20:51:47.697,1 Oct 2023 20:54:22.651,154.954
1 Oct 2023 20:52:20.402,1 Oct 2023 20:58:05.373,344.971
1 Oct 2023 20:52:41.566,1 Oct 2023 21:00:53.896,492.330
1 Oct 2023 20:59:20.463,1 Oct 2023 21:07:29.748,489.285
1 Oct 2023 20:59:47.527,1 Oct 2023 21:07:57.461,489.934
1 Oct 2023 21:00:15.613,1 Oct 2023 21:08:13.164,477.551
1 Oct 2023 21:00:29.980,1 Oct 2023 21:04:47.507,257.527
1 Oct 2023 21:01:02.124,1 Oct 2023 21:06:15.280,313.156
1 Oct 2023 21:01:06.304,1 Oct 2023 21:01:51.797,45.493
1 Oct 2023 21:06:07.748,1 Oct 2023 21:11:11.293,303.545
1 Oct 2023 21:06:22.964,1 Oct 2023 21:12:19.467,356.503
1 Oct 2023 21:07:02.238,1 Oct 2023 21:13:36.765,394.527
1 Oct 2023 21:08:05.587,1 Oct 2023 21:13:53.280,347.693
1 Oct 2023 21:08:37.133,1 Oct 2023 21:14:47.661,370.527
1 Oct 2023 21:09:23.698,1 Oct 2023 21:13:41.055,257.357
1 Oct 2023 21:09:37.149,1 Oct 2023 21:15:26.010,348.861
1 Oct 2023 21:09:42.902,1 Oct 2023 21:12:08.175,145.273
1 Oct 2023 21:10:57.963,1 Oct 2023 21:17:25.878,387.915
1 Oct 2023 21:11:12.068,1 Oct 2023 21:17:43.525,391.458
1 Oct 2023 21:11:15.829,1 Oct 2023 21:14:33.535,197.706
1 Oct 2023 21:12:28.313,1 Oct 2023 21:19:16.478,408.165
1 Oct 2023 21:14:46.770,1 Oct 2023 21:23:00.389,493.620
1 Oct 2023 21:14:55.772,1 Oct 2023 21:23:16.376,500.604
1 Oct 2023 21:16:57.247,1 Oct 2023 21:23:41.879,404.632
1 Oct 2023 21:18:06.044,1 Oct 2023 21:26:05.519,479.475
1 Oct 2023 21:18:51.451,1 Oct 2023 21:24:09.597,318.146
1 Oct 2023 21:19:37.000,1 Oct 2023 21:26:59.567,442.568
1 Oct 2023 21:21:44.489,1 Oct 2023 21:27:16.790,332.301
1 Oct 2023 21:22:08.591,1 Oct 2023 21:25:50.673,222.082
1 Oct 2023 21:24:12.261,1 Oct 2023 21:30:14.732,362.470
1 Oct 2023 21:24:47.337,1 Oct 2023 21:28:27.266,219.929
1 Oct 2023 21:24:47.337,1 Oct 2023 21:28:27.266,219.929
1 Oct 2023 21:25:04.718,1 Oct 2023 21:32:18.516,433.798
1 Oct 2023 21:25:43.924,1 Oct 2023 21:32:01.477,377.553
1 Oct 2023 21:28:46.675,1 Oct 2023 21:34:10.742,324.067
1 Oct 2023 21:29:55.644,1 Oct 2023 21:34:47.894,292.250
1 Oct 2023 21:30:10.465,1 Oct 2023 21:38:29.027,498.562
1 Oct 2023 21:31:11.138,1 Oct 2023 21:36:40.351,329.213
1 Oct 2023 21:31:57.446,1 Oct 2023 21:39:46.165,468.719
1 Oct 2023 21:33:32.717,1 Oct 2023 21:41:53.618,500.902
1 Oct 2023 21:33:46.519,1 Oct 2023 21:40:57.479,430.960
1 Oct 2023 21:34:59.642,1 Oct 2023 21:43:02.014,482.371
1 Oct 2023 21:35:04.631,1 Oct 2023 21:42:09.158,424.527
1 Oct 2023 21:35:15.590,1 Oct 2023 21:41:42.493,386.903
1 Oct 2023 21:35:34.528,1 Oct 2023 21:43:50.876,496.348
1 Oct 2023 21:35:45.885,1 Oct 2023 21:42:50.257,424.373
1 Oct 2023 21:36:43.878,1 Oct 2023 21:45:06.277,502.399
1 Oct 2023 21:37:03.431,1 Oct 2023 21:43:19.627,376.196
1 Oct 2023 21:38:08.403,1 Oct 2023 21:46:15.957,487.554
1 Oct 2023 21:39:16.972,1 Oct 2023 21:47:25.314,488.342
1 Oct 2023 21:39:36.580,1 Oct 2023 21:45:05.567,328.986
1 Oct 2023 21:42:44.827,1 Oct 2023 21:46:04.304,199.477
1 Oct 2023 21:44:44.756,1 Oct 2023 21:51:49.662,424.906
1 Oct 2023 21:46:07.855,1 Oct 2023 21:53:26.702,438.848
1 Oct 2023 21:46:52.462,1 Oct 2023 21:54:37.446,464.984
1 Oct 2023 21:46:55.045,1 Oct 2023 21:53:54.311,419.266
1 Oct 2023 21:46:58.575,1 Oct 2023 21:54:13.903,435.328
1 Oct 2023 21:48:15.666,1 Oct 2023 21:52:59.215,283.549
1 Oct 2023 21:48:15.666,1 Oct 2023 21:52:59.215,283.549
1 Oct 2023 21:48:34.011,1 Oct 2023 21:51:13.713,159.702
1 Oct 2023 21:49:58.063,1 Oct 2023 21:53:18.169,200.106
1 Oct 2023 21:51:23.339,1 Oct 2023 21:58:13.178,409.839
1 Oct 2023 21:53:36.836,1 Oct 2023 22:00:39.459,422.623
1 Oct 2023 21:54:40.550,1 Oct 2023 22:00:07.190,326.640
1 Oct 2023 21:56:48.230,1 Oct 2023 22:04:58.860,490.630
1 Oct 2023 22:00:39.974,1 Oct 2023 22:05:08.302,268.328
1 Oct 2023 22:01:26.323,1 Oct 2023 22:07:49.283,382.960
1 Oct 2023 22:01:33.388,1 Oct 2023 22:09:53.062,499.674
1 Oct 2023 22:01:46.968,1 Oct 2023 22:09:14.445,447.477
1 Oct 2023 22:02:42.432,1 Oct 2023 22:10:52.666,490.234
1 Oct 2023 22:04:38.105,1 Oct 2023 22:10:34.586,356.481
1 Oct 2023 22:05:00.866,1 Oct 2023 22:11:48.849,407.983
1 Oct 2023 22:05:41.625,1 Oct 2023 22:13:50.654,489.029
1 Oct 2023 22:08:33.480,1 Oct 2023 22:14:41.781,368.301
1 Oct 2023 22:09:17.292,1 Oct 2023 22:11:25.044,127.752
1 Oct 2023 22:09:46.223,1 Oct 2023 22:17:07.730,441.507
1 Oct 2023 22:09:46.223,1 Oct 2023 22:17:07.730,441.507
1 Oct 2023 22:11:07.005,1 Oct 2023 22:19:14.691,487.686
1 Oct 2023 22:11:46.153,1 Oct 2023 22:15:56.938,250.785
1 Oct 2023 22:12:02.743,1 Oct 2023 22:19:35.353,452.610
1 Oct 2023 22:12:48.045,1 Oct 2023 22:18:54.203,366.157
1 Oct 2023 22:12:52.808,1 Oct 2023 22:15:35.648,162.840
1 Oct 2023 22:13:13.519,1 Oct 2023 22:15:02.484,108.965
1 Oct 2023 22:13:24.384,1 Oct 2023 22:18:47.629,323.246
1 Oct 2023 22:13:42.165,1 Oct 2023 22:18:33.210,291.045
1 Oct 2023 22:14:05.731,1 Oct 2023 22:22:05.197,479.466
1 Oct 2023 22:14:10.358,1 Oct 2023 22:18:10.573,240.215
1 Oct 2023 22:14:18.191,1 Oct 2023 22:18:01.835,223.644
1 Oct 2023 22:14:20.915,1 Oct 2023 22:18:13.196,232.281
1 Oct 2023 22:14:27.860,1 Oct 2023 22:18:06.155,218.296
1 Oct 2023 22:14:29.418,1 Oct 2023 22:18:05.898,216.480
1 Oct 2023 22:14:33.645,1 Oct 2023 22:18:06.103,212.458
1 Oct 2023 22:15:00.356,1 Oct 2023 22:22:54.840,474.485
1 Oct 2023 22:15:30.066,1 Oct 2023 22:16:48.162,78.096
1 Oct 2023 22:16:43.794,1 Oct 2023 22:24:54.369,490.574
1 Oct 2023 22:17:35.374,1 Oct 2023 22:22:23.304,287.930
1 Oct 2023 22:19:30.955,1 Oct 2023 22:24:49.140,318.185
1 Oct 2023 22:20:16.673,1 Oct 2023 22:28:31.180,494.507
1 Oct 2023 22:20:37.139,1 Oct 2023 22:26:30.401,353.262
1 Oct 2023 22:21:06.874,1 Oct 2023 22:29:18.779,491.904
1 Oct 2023 22:21:35.262,1 Oct 2023 22:29:48.164,492.902
1 Oct 2023 22:22:32.013,1 Oct 2023 22:29:02.291,390.278
1 Oct 2023 22:22:32.102,1 Oct 2023 22:30:13.167,461.065
1 Oct 2023 22:23:21.486,1 Oct 2023 22:31:43.889,502.403
1 Oct 2023 22:25:22.567,1 Oct 2023 22:32:37.190,434.622
1 Oct 2023 22:26:21.712,1 Oct 2023 22:33:04.039,402.327
1 Oct 2023 22:26:25.776,1 Oct 2023 22:32:30.430,364.654
1 Oct 2023 22:27:05.381,1 Oct 2023 22:34:46.283,460.902
1 Oct 2023 22:30:07.059,1 Oct 2023 22:37:22.021,434.962
1 Oct 2023 22:30:46.408,1 Oct 2023 22:38:57.875,491.466
1 Oct 2023 22:32:11.517,1 Oct 2023 22:37:52.132,340.615
1 Oct 2023 22:33:03.949,1 Oct 2023 22:40:55.825,471.876
1 Oct 2023 22:33:03.949,1 Oct 2023 22:40:55.825,471.876
1 Oct 2023 22:33:13.476,1 Oct 2023 22:41:25.951,492.475
1 Oct 2023 22:33:29.857,1 Oct 2023 22:38:29.125,299.268
1 Oct 2023 22:34:30.970,1 Oct 2023 22:40:58.056,387.087
1 Oct 2023 22:35:17.020,1 Oct 2023 22:39:31.787,254.767
1 Oct 2023 22:35:41.133,1 Oct 2023 22:38:41.527,180.394
1 Oct 2023 22:35:55.782,1 Oct 2023 22:39:40.325,224.543
1 Oct 2023 22:37:11.103,1 Oct 2023 22:42:20.962,309.860
1 Oct 2023 22:37:15.522,1 Oct 2023 22:44:52.661,457.139
1 Oct 2023 22:37:15.588,1 Oct 2023 22:42:55.970,340.382
1 Oct 2023 22:37:19.088,1 Oct 2023 22:42:55.102,336.014
1 Oct 2023 22:37:20.267,1 Oct 2023 22:42:55.023,334.756
1 Oct 2023 22:37:23.340,1 Oct 2023 22:42:59.254,335.913
1 Oct 2023 22:37:30.265,1 Oct 2023 22:42:49.824,319.559
1 Oct 2023 22:37:33.488,1 Oct 2023 22:42:55.492,322.003
1 Oct 2023 22:37:51.150,1 Oct 2023 22:43:12.030,320.879
1 Oct 2023 22:38:04.396,1 Oct 2023 22:43:25.700,321.304
1 Oct 2023 22:38:43.262,1 Oct 2023 22:43:35.135,291.873
1 Oct 2023 22:39:14.698,1 Oct 2023 22:45:30.617,375.919
1 Oct 2023 22:39:25.241,1 Oct 2023 22:47:37.760,492.519
1 Oct 2023 22:42:05.287,1 Oct 2023 22:47:02.148,296.861
1 Oct 2023 22:42:13.284,1 Oct 2023 22:46:46.730,273.446
1 Oct 2023 22:42:40.228,1 Oct 2023 22:46:16.722,216.494
1 Oct 2023 22:43:46.619,1 Oct 2023 22:51:08.924,442.305
1 Oct 2023 22:46:56.238,1 Oct 2023 22:55:01.672,485.434
1 Oct 2023 22:48:18.091,1 Oct 2023 22:56:32.945,494.854
1 Oct 2023 22:49:55.468,1 Oct 2023 22:56:44.491,409.023
1 Oct 2023 22:50:04.990,1 Oct 2023 22:54:39.896,274.907
1 Oct 2023 22:50:42.115,1 Oct 2023 22:56:45.447,363.331
1 Oct 2023 22:52:56.803,1 Oct 2023 22:56:10.622,193.818
1 Oct 2023 22:53:08.907,1 Oct 2023 22:59:37.692,388.786
1 Oct 2023 22:53:47.197,1 Oct 2023 23:00:43.077,415.880
1 Oct 2023 22:55:03.808,1 Oct 2023 23:02:12.521,428.713
1 Oct 2023 22:55:54.595,1 Oct 2023 23:02:46.189,411.594
1 Oct 2023 22:55:56.344,1 Oct 2023 23:04:08.574,492.230
1 Oct 2023 22:55:56.344,1 Oct 2023 23:04:08.574,492.230
1 Oct 2023 22:56:49.715,1 Oct 2023 23:04:18.383,448.668
1 Oct 2023 22:56:52.117,1 Oct 2023 23:04:04.999,432.882
1 Oct 2023 22:56:52.809,1 Oct 2023 23:04:27.753,454.944
1 Oct 2023 22:57:17.407,1 Oct 2023 23:02:29.879,312.472
1 Oct 2023 22:57:38.669,1 Oct 2023 23:04:11.958,393.289
1 Oct 2023 22:58:13.426,1 Oct 2023 23:06:21.275,487.849
1 Oct 2023 22:58:25.930,1 Oct 2023 23:06:40.474,494.544
1 Oct 2023 22:58:30.546,1 Oct 2023 23:06:31.563,481.018
1 Oct 2023 22:58:34.603,1 Oct 2023 23:06:29.623,475.020
1 Oct 2023 22:58:39.139,1 Oct 2023 23:04:48.857,369.718
1 Oct 2023 22:58:41.419,1 Oct 2023 23:06:26.734,465.315
1 Oct 2023 22:58:42.284,1 Oct 2023 23:06:24.579,462.295
1 Oct 2023 22:58:48.560,1 Oct 2023 23:06:32.255,463.695
1 Oct 2023 22:58:49.608,1 Oct 2023 23:06:30.771,461.163
1 Oct 2023 22:58:50.003,1 Oct 2023 23:06:12.908,442.906
