STK/conflict_rostov/access_sensors/resolution/RCO_2x4_50_500_3.5.csv

"Access","Start Time (UTCG)","Stop Time (UTCG)","Duration (sec)"
1,1 Aug 2023 10:31:15.461,1 Aug 2023 10:33:44.809,149.348
2,2 Aug 2023 03:33:24.321,2 Aug 2023 03:38:54.313,329.992
3,2 Aug 2023 05:11:26.039,2 Aug 2023 05:17:46.986,380.948
4,2 Aug 2023 06:50:43.576,2 Aug 2023 06:56:47.427,363.852
5,2 Aug 2023 08:29:29.767,2 Aug 2023 08:35:32.126,362.358
6,2 Aug 2023 10:09:20.999,2 Aug 2023 10:11:41.232,140.233
7,3 Aug 2023 03:11:22.659,3 Aug 2023 03:16:55.329,332.670
8,3 Aug 2023 04:49:26.732,3 Aug 2023 04:55:47.458,380.726
9,3 Aug 2023 06:28:44.336,3 Aug 2023 06:34:48.215,363.879
10,3 Aug 2023 08:07:30.170,3 Aug 2023 08:13:31.800,361.630
11,3 Aug 2023 09:47:26.337,3 Aug 2023 09:49:37.322,130.985
12,4 Aug 2023 02:49:21.097,4 Aug 2023 02:54:56.335,335.238
13,4 Aug 2023 04:27:27.442,4 Aug 2023 04:33:47.938,380.496
14,4 Aug 2023 06:06:45.088,4 Aug 2023 06:12:49.001,363.912
15,4 Aug 2023 07:45:30.582,4 Aug 2023 07:51:31.435,360.853
16,4 Aug 2023 09:25:31.341,4 Aug 2023 09:27:33.000,121.659
17,5 Aug 2023 02:27:19.629,5 Aug 2023 02:32:57.334,337.705
18,5 Aug 2023 04:05:28.166,5 Aug 2023 04:11:48.421,380.255
19,5 Aug 2023 05:44:45.834,5 Aug 2023 05:50:49.783,363.948
20,5 Aug 2023 07:23:30.997,5 Aug 2023 07:29:31.095,360.098
21,5 Aug 2023 09:03:37.087,5 Aug 2023 09:05:28.164,111.076
22,6 Aug 2023 02:05:18.247,6 Aug 2023 02:10:58.310,340.064
23,6 Aug 2023 03:43:28.906,6 Aug 2023 03:49:48.907,380.001
24,6 Aug 2023 05:22:46.570,6 Aug 2023 05:28:50.575,364.005
25,6 Aug 2023 07:01:31.417,6 Aug 2023 07:07:30.718,359.301
26,6 Aug 2023 08:41:43.955,6 Aug 2023 08:43:22.639,98.685
27,7 Aug 2023 01:43:16.948,7 Aug 2023 01:48:59.259,342.312
28,7 Aug 2023 03:21:29.659,7 Aug 2023 03:27:49.398,379.739
29,7 Aug 2023 05:00:47.295,7 Aug 2023 05:06:51.395,364.100
30,7 Aug 2023 06:39:31.845,7 Aug 2023 06:45:30.303,358.458
31,7 Aug 2023 08:19:52.865,7 Aug 2023 08:21:16.126,83.261
32,8 Aug 2023 01:21:15.728,8 Aug 2023 01:27:00.186,344.458
33,8 Aug 2023 02:59:30.423,8 Aug 2023 03:05:49.895,379.472
34,8 Aug 2023 04:38:48.012,8 Aug 2023 04:44:52.223,364.211
35,8 Aug 2023 06:17:32.278,8 Aug 2023 06:23:29.843,357.565
36,8 Aug 2023 07:58:04.504,8 Aug 2023 07:59:07.966,63.462

"Access","Start Time (UTCG)","Stop Time (UTCG)","Duration (sec)"
1,2 Aug 2023 02:47:05.527,2 Aug 2023 02:48:16.977,71.450
2,2 Aug 2023 04:22:07.638,2 Aug 2023 04:28:25.584,377.946
3,2 Aug 2023 06:01:04.544,2 Aug 2023 06:07:13.359,368.815
4,2 Aug 2023 07:40:10.688,2 Aug 2023 07:46:19.271,368.583
5,2 Aug 2023 09:18:56.773,2 Aug 2023 09:23:44.479,287.707
6,3 Aug 2023 02:24:58.847,3 Aug 2023 02:26:23.823,84.976
7,3 Aug 2023 04:00:07.657,3 Aug 2023 04:06:26.065,378.409
8,3 Aug 2023 05:39:05.506,3 Aug 2023 05:45:14.059,368.553
9,3 Aug 2023 07:18:11.128,3 Aug 2023 07:24:19.820,368.692
10,3 Aug 2023 08:56:57.696,3 Aug 2023 09:01:42.095,284.399
11,4 Aug 2023 02:02:53.251,4 Aug 2023 02:04:29.524,96.273
12,4 Aug 2023 03:38:07.713,4 Aug 2023 03:44:26.536,378.823
13,4 Aug 2023 05:17:06.472,4 Aug 2023 05:23:14.761,368.289
14,4 Aug 2023 06:56:11.563,4 Aug 2023 07:02:20.356,368.792
15,4 Aug 2023 08:34:58.645,4 Aug 2023 08:39:39.546,280.901
16,5 Aug 2023 01:40:48.387,5 Aug 2023 01:42:34.478,106.091
17,5 Aug 2023 03:16:07.800,5 Aug 2023 03:22:27.005,379.205
18,5 Aug 2023 04:55:07.436,5 Aug 2023 05:01:15.472,368.036
19,5 Aug 2023 06:34:11.991,5 Aug 2023 06:40:20.871,368.880
20,5 Aug 2023 08:12:59.623,5 Aug 2023 08:17:37.083,277.460
21,6 Aug 2023 01:18:44.058,6 Aug 2023 01:20:38.893,114.835
22,6 Aug 2023 02:54:07.922,6 Aug 2023 03:00:27.470,379.548
23,6 Aug 2023 04:33:08.398,6 Aug 2023 04:39:16.187,367.789
24,6 Aug 2023 06:12:12.416,6 Aug 2023 06:18:21.368,368.952
25,6 Aug 2023 07:51:00.628,6 Aug 2023 07:55:36.293,275.665
26,7 Aug 2023 00:56:40.149,7 Aug 2023 00:58:42.893,122.744
27,7 Aug 2023 02:32:08.076,7 Aug 2023 02:38:27.932,379.856
28,7 Aug 2023 04:11:09.361,7 Aug 2023 04:17:16.905,367.544
29,7 Aug 2023 05:50:12.833,7 Aug 2023 05:56:21.848,369.015
30,7 Aug 2023 07:29:01.625,7 Aug 2023 07:33:35.443,273.819
31,8 Aug 2023 00:34:36.578,8 Aug 2023 00:36:46.558,129.979
32,8 Aug 2023 02:10:08.257,8 Aug 2023 02:16:28.387,380.130
33,8 Aug 2023 03:49:10.323,8 Aug 2023 03:55:17.631,367.309
34,8 Aug 2023 05:28:13.247,8 Aug 2023 05:34:22.308,369.062
35,8 Aug 2023 07:07:02.649,8 Aug 2023 07:11:34.530,271.881

"Access","Start Time (UTCG)","Stop Time (UTCG)","Duration (sec)"
1,1 Aug 2023 10:14:05.169,1 Aug 2023 10:20:11.060,365.891
2,1 Aug 2023 11:52:42.505,1 Aug 2023 11:58:56.319,373.814
3,1 Aug 2023 13:31:58.116,1 Aug 2023 13:38:02.594,364.478
4,1 Aug 2023 15:10:38.947,1 Aug 2023 15:16:20.543,341.596
5,2 Aug 2023 09:52:05.846,2 Aug 2023 09:58:12.683,366.837
6,2 Aug 2023 11:30:44.421,2 Aug 2023 11:36:57.872,373.450
7,2 Aug 2023 13:09:59.682,2 Aug 2023 13:16:04.334,364.652
8,2 Aug 2023 14:48:40.470,2 Aug 2023 14:54:20.370,339.900
9,3 Aug 2023 09:30:06.526,3 Aug 2023 09:36:14.295,367.769
10,3 Aug 2023 11:08:46.343,3 Aug 2023 11:14:59.431,373.087
11,3 Aug 2023 12:48:01.241,3 Aug 2023 12:54:06.068,364.828
12,3 Aug 2023 14:26:42.002,3 Aug 2023 14:32:20.130,338.128
13,4 Aug 2023 09:08:07.212,4 Aug 2023 09:14:15.896,368.683
14,4 Aug 2023 10:46:48.274,4 Aug 2023 10:53:00.995,372.721
15,4 Aug 2023 12:26:02.792,4 Aug 2023 12:32:07.792,365.000
16,4 Aug 2023 14:04:43.548,4 Aug 2023 14:10:19.819,336.271
17,5 Aug 2023 08:46:07.942,5 Aug 2023 08:52:17.482,369.540
18,5 Aug 2023 10:24:50.208,5 Aug 2023 10:31:02.566,372.358
19,5 Aug 2023 12:04:04.333,5 Aug 2023 12:10:09.507,365.173
20,5 Aug 2023 13:42:45.106,5 Aug 2023 13:48:19.430,334.325
21,6 Aug 2023 08:24:08.688,6 Aug 2023 08:30:19.058,370.369
22,6 Aug 2023 10:02:52.149,6 Aug 2023 10:09:04.142,371.993
23,6 Aug 2023 11:42:05.867,6 Aug 2023 11:48:11.211,365.344
24,6 Aug 2023 13:20:46.675,6 Aug 2023 13:26:18.964,332.289
25,7 Aug 2023 08:02:09.473,7 Aug 2023 08:08:20.626,371.152
26,7 Aug 2023 09:40:54.098,7 Aug 2023 09:47:05.727,371.629
27,7 Aug 2023 11:20:07.392,7 Aug 2023 11:26:12.908,365.515
28,7 Aug 2023 12:58:48.259,7 Aug 2023 13:04:18.413,330.153
29,8 Aug 2023 07:40:10.301,8 Aug 2023 07:46:22.181,371.881
30,8 Aug 2023 09:18:56.053,8 Aug 2023 09:25:07.316,371.263

"Access","Start Time (UTCG)","Stop Time (UTCG)","Duration (sec)"
1,1 Aug 2023 11:03:12.257,1 Aug 2023 11:09:34.027,381.771
2,1 Aug 2023 12:42:24.188,1 Aug 2023 12:48:27.107,362.919
3,1 Aug 2023 14:21:19.379,1 Aug 2023 14:27:28.575,369.196
4,1 Aug 2023 16:00:18.746,1 Aug 2023 16:04:20.736,241.990
5,2 Aug 2023 09:04:27.249,2 Aug 2023 09:08:27.007,239.758
6,2 Aug 2023 10:41:13.562,2 Aug 2023 10:47:35.441,381.879
7,2 Aug 2023 12:20:26.087,2 Aug 2023 12:26:28.879,362.792
8,2 Aug 2023 13:59:20.726,2 Aug 2023 14:05:29.876,369.150
9,2 Aug 2023 15:38:21.295,2 Aug 2023 15:42:20.683,239.388
10,3 Aug 2023 08:42:20.456,3 Aug 2023 08:46:29.757,249.301
11,3 Aug 2023 10:19:14.889,3 Aug 2023 10:25:36.850,381.960
12,3 Aug 2023 11:58:27.979,3 Aug 2023 12:04:30.655,362.675
13,3 Aug 2023 13:37:22.075,3 Aug 2023 13:43:31.153,369.078
14,3 Aug 2023 15:16:23.899,3 Aug 2023 15:20:20.561,236.661
15,4 Aug 2023 08:20:15.162,4 Aug 2023 08:24:32.444,257.283
16,4 Aug 2023 09:57:16.240,4 Aug 2023 10:03:38.261,382.021
17,4 Aug 2023 11:36:29.866,4 Aug 2023 11:42:32.435,362.569
18,4 Aug 2023 13:15:23.420,4 Aug 2023 13:21:32.409,368.989
19,4 Aug 2023 14:54:26.567,4 Aug 2023 14:58:20.366,233.799
20,5 Aug 2023 07:58:10.777,5 Aug 2023 08:02:35.069,264.292
21,5 Aug 2023 09:35:17.614,5 Aug 2023 09:41:39.675,382.061
22,5 Aug 2023 11:14:31.745,5 Aug 2023 11:20:34.214,362.469
23,5 Aug 2023 12:53:24.767,5 Aug 2023 12:59:33.637,368.870
24,5 Aug 2023 14:32:29.297,5 Aug 2023 14:36:20.099,230.802
25,6 Aug 2023 07:36:06.841,6 Aug 2023 07:40:37.634,270.792
26,6 Aug 2023 09:13:19.011,6 Aug 2023 09:19:41.088,382.077
27,6 Aug 2023 10:52:33.620,6 Aug 2023 10:58:35.999,362.379
28,6 Aug 2023 12:31:26.111,6 Aug 2023 12:37:34.839,368.728
29,6 Aug 2023 14:10:32.102,6 Aug 2023 14:14:19.754,227.652
30,7 Aug 2023 07:14:03.450,7 Aug 2023 07:18:40.148,276.698
31,7 Aug 2023 08:51:20.429,7 Aug 2023 08:57:42.504,382.075
32,7 Aug 2023 10:30:35.489,7 Aug 2023 10:36:37.783,362.295
33,7 Aug 2023 12:09:27.456,7 Aug 2023 12:15:36.019,368.563
34,7 Aug 2023 13:48:34.979,7 Aug 2023 13:52:19.350,224.371
35,8 Aug 2023 06:52:00.480,8 Aug 2023 06:56:42.607,282.128
36,8 Aug 2023 08:29:21.865,8 Aug 2023 08:35:43.919,382.054

"Access","Start Time (UTCG)","Stop Time (UTCG)","Duration (sec)"
1,1 Aug 2023 14:58:00.693,1 Aug 2023 14:59:14.656,73.963
2,1 Aug 2023 16:33:04.028,1 Aug 2023 16:39:22.054,378.026
3,1 Aug 2023 18:12:01.116,1 Aug 2023 18:18:09.836,368.720
4,1 Aug 2023 19:51:07.192,1 Aug 2023 19:57:15.756,368.565
5,1 Aug 2023 21:29:53.290,1 Aug 2023 21:34:40.625,287.334
6,2 Aug 2023 14:35:54.274,2 Aug 2023 14:37:21.290,87.015
7,2 Aug 2023 16:11:04.088,2 Aug 2023 16:17:22.565,378.478
8,2 Aug 2023 17:50:02.108,2 Aug 2023 17:56:10.568,368.460
9,2 Aug 2023 19:29:07.659,2 Aug 2023 19:35:16.335,368.676
10,2 Aug 2023 21:07:54.245,2 Aug 2023 21:12:38.252,284.007
11,3 Aug 2023 14:13:48.858,3 Aug 2023 14:15:26.870,98.013
12,3 Aug 2023 15:49:04.177,3 Aug 2023 15:55:23.069,378.892
13,3 Aug 2023 17:28:03.103,3 Aug 2023 17:34:11.305,368.201
14,3 Aug 2023 19:07:08.122,3 Aug 2023 19:13:16.896,368.774
15,3 Aug 2023 20:45:55.229,3 Aug 2023 20:50:35.716,280.487
16,4 Aug 2023 13:51:44.126,4 Aug 2023 13:53:31.750,107.624
17,4 Aug 2023 15:27:04.304,4 Aug 2023 15:33:23.565,379.262
18,4 Aug 2023 17:06:04.099,4 Aug 2023 17:12:12.047,367.948
19,4 Aug 2023 18:45:08.583,4 Aug 2023 18:51:17.441,368.858
20,4 Aug 2023 20:23:56.240,4 Aug 2023 20:28:33.509,277.269
21,5 Aug 2023 13:29:39.908,5 Aug 2023 13:31:36.116,116.207
22,5 Aug 2023 15:05:04.459,5 Aug 2023 15:11:24.061,379.602
23,5 Aug 2023 16:44:05.092,5 Aug 2023 16:50:12.794,367.702
24,5 Aug 2023 18:23:09.035,5 Aug 2023 18:29:17.969,368.934
25,5 Aug 2023 20:01:57.278,5 Aug 2023 20:06:32.743,275.465
26,6 Aug 2023 13:07:36.095,6 Aug 2023 13:09:40.082,123.988
27,6 Aug 2023 14:43:04.650,6 Aug 2023 14:49:24.551,379.901
28,6 Aug 2023 16:22:06.086,6 Aug 2023 16:28:13.543,367.457
29,6 Aug 2023 18:01:09.482,6 Aug 2023 18:07:18.478,368.995
30,6 Aug 2023 19:39:58.306,6 Aug 2023 19:44:31.916,273.610
31,7 Aug 2023 12:45:32.609,7 Aug 2023 12:47:43.727,131.118
32,7 Aug 2023 14:21:04.871,7 Aug 2023 14:27:25.035,380.164
33,7 Aug 2023 16:00:07.081,7 Aug 2023 16:06:14.301,367.220
34,7 Aug 2023 17:39:09.927,7 Aug 2023 17:45:18.969,369.042
35,7 Aug 2023 19:17:59.367,7 Aug 2023 19:22:31.029,271.662

"Access","Start Time (UTCG)","Stop Time (UTCG)","Duration (sec)"
1,1 Aug 2023 15:44:20.428,1 Aug 2023 15:49:50.890,330.462
2,1 Aug 2023 17:22:22.549,1 Aug 2023 17:28:43.436,380.888
3,1 Aug 2023 19:01:40.130,1 Aug 2023 19:07:43.928,363.799
4,1 Aug 2023 20:40:26.242,1 Aug 2023 20:46:28.509,362.268
5,1 Aug 2023 22:20:18.110,1 Aug 2023 22:22:37.196,139.086
6,2 Aug 2023 15:22:18.818,2 Aug 2023 15:27:51.938,333.119
7,2 Aug 2023 17:00:23.275,2 Aug 2023 17:06:43.944,380.670
8,2 Aug 2023 18:39:40.922,2 Aug 2023 18:45:44.748,363.826
9,2 Aug 2023 20:18:26.677,2 Aug 2023 20:24:28.213,361.535
10,2 Aug 2023 21:58:23.332,2 Aug 2023 22:00:33.273,129.941
11,3 Aug 2023 15:00:17.308,3 Aug 2023 15:05:52.968,335.660
12,3 Aug 2023 16:38:24.019,3 Aug 2023 16:44:44.455,380.435
13,3 Aug 2023 18:17:41.702,3 Aug 2023 18:23:45.565,363.863
14,3 Aug 2023 19:56:27.119,3 Aug 2023 20:02:27.876,360.757
15,3 Aug 2023 21:36:28.438,3 Aug 2023 21:38:28.931,120.494
16,4 Aug 2023 14:38:15.885,4 Aug 2023 14:43:53.996,338.111
17,4 Aug 2023 16:16:24.777,4 Aug 2023 16:22:44.968,380.190
18,4 Aug 2023 17:55:42.476,4 Aug 2023 18:01:46.378,363.902
19,4 Aug 2023 19:34:27.565,4 Aug 2023 19:40:27.570,360.004
20,4 Aug 2023 21:14:34.319,4 Aug 2023 21:16:24.057,109.738
21,5 Aug 2023 14:16:14.549,5 Aug 2023 14:21:54.997,340.447
22,5 Aug 2023 15:54:25.548,5 Aug 2023 16:00:45.488,379.940
23,5 Aug 2023 17:33:43.241,5 Aug 2023 17:39:47.201,363.961
24,5 Aug 2023 19:12:28.018,5 Aug 2023 19:18:27.218,359.201
25,5 Aug 2023 20:52:41.386,5 Aug 2023 20:54:18.472,97.086
26,6 Aug 2023 13:54:13.297,6 Aug 2023 13:59:55.974,342.678
27,6 Aug 2023 15:32:26.335,6 Aug 2023 15:38:46.008,379.673
28,6 Aug 2023 17:11:43.995,6 Aug 2023 17:17:48.055,364.061
29,6 Aug 2023 18:50:28.475,6 Aug 2023 18:56:26.828,358.353
30,6 Aug 2023 20:30:50.682,6 Aug 2023 20:32:11.847,81.165
31,7 Aug 2023 13:32:12.120,7 Aug 2023 13:37:56.927,344.808
32,7 Aug 2023 15:10:27.134,7 Aug 2023 15:16:46.535,379.401
33,7 Aug 2023 16:49:44.741,7 Aug 2023 16:55:48.917,364.177
34,7 Aug 2023 18:28:28.941,7 Aug 2023 18:34:26.396,357.455
35,7 Aug 2023 20:09:02.191,7 Aug 2023 20:10:03.456,61.265

"Access","Start Time (UTCG)","Stop Time (UTCG)","Duration (sec)"
1,1 Aug 2023 21:15:38.585,1 Aug 2023 21:19:20.901,222.316
2,1 Aug 2023 22:52:12.167,1 Aug 2023 22:58:34.294,382.126
3,2 Aug 2023 00:31:21.648,2 Aug 2023 00:37:28.256,366.608
4,2 Aug 2023 02:10:17.346,2 Aug 2023 02:16:27.425,370.079
5,2 Aug 2023 03:49:21.538,2 Aug 2023 03:53:16.853,235.316
6,2 Aug 2023 20:53:32.047,2 Aug 2023 20:57:21.965,229.918
7,2 Aug 2023 22:30:11.480,2 Aug 2023 22:36:33.782,382.303
8,3 Aug 2023 00:09:21.597,3 Aug 2023 00:15:28.080,366.483
9,3 Aug 2023 01:48:16.771,3 Aug 2023 01:54:26.701,369.930
10,3 Aug 2023 03:27:22.360,3 Aug 2023 03:31:14.618,232.258
11,3 Aug 2023 20:31:22.629,3 Aug 2023 20:35:22.945,240.316
12,3 Aug 2023 22:08:10.816,3 Aug 2023 22:14:33.269,382.453
13,3 Aug 2023 23:47:21.539,3 Aug 2023 23:53:27.906,366.367
14,4 Aug 2023 01:26:16.196,4 Aug 2023 01:32:25.952,369.757
15,4 Aug 2023 03:05:23.256,4 Aug 2023 03:09:12.301,229.045
16,4 Aug 2023 20:09:13.761,4 Aug 2023 20:13:23.839,250.077
17,4 Aug 2023 21:46:10.181,4 Aug 2023 21:52:32.756,382.574
18,4 Aug 2023 23:25:21.477,4 Aug 2023 23:31:27.733,366.256
19,5 Aug 2023 01:04:15.620,5 Aug 2023 01:10:25.176,369.556
20,5 Aug 2023 02:43:24.230,5 Aug 2023 02:47:09.896,225.666
21,5 Aug 2023 19:47:06.406,5 Aug 2023 19:51:24.663,258.256
22,5 Aug 2023 21:24:09.569,5 Aug 2023 21:30:32.243,382.674
23,5 Aug 2023 23:03:21.408,5 Aug 2023 23:09:27.564,366.156
24,6 Aug 2023 00:42:15.045,6 Aug 2023 00:48:24.373,369.328
25,6 Aug 2023 02:21:25.290,6 Aug 2023 02:25:07.436,222.145
26,6 Aug 2023 19:24:59.879,6 Aug 2023 19:29:25.418,265.540
27,6 Aug 2023 21:02:08.980,6 Aug 2023 21:08:31.732,382.752
28,6 Aug 2023 22:41:21.332,6 Aug 2023 22:47:27.398,366.066
29,7 Aug 2023 00:20:14.466,7 Aug 2023 00:26:23.537,369.071
30,7 Aug 2023 01:59:26.442,7 Aug 2023 02:03:04.910,218.468
31,7 Aug 2023 19:02:53.926,7 Aug 2023 19:07:26.109,272.184
32,7 Aug 2023 20:40:08.417,7 Aug 2023 20:46:31.224,382.807
33,7 Aug 2023 22:19:21.250,7 Aug 2023 22:25:27.231,365.982
34,7 Aug 2023 23:58:13.891,8 Aug 2023 00:04:22.673,368.782
35,8 Aug 2023 01:37:27.699,8 Aug 2023 01:41:02.283,214.584

"Access","Start Time (UTCG)","Stop Time (UTCG)","Duration (sec)"
1,1 Aug 2023 22:03:05.676,1 Aug 2023 22:09:10.012,364.336
2,1 Aug 2023 23:41:41.068,1 Aug 2023 23:47:57.447,376.380
3,2 Aug 2023 01:20:55.234,2 Aug 2023 01:27:02.867,367.633
4,2 Aug 2023 02:59:38.571,2 Aug 2023 03:05:16.222,337.651
5,2 Aug 2023 21:41:04.319,2 Aug 2023 21:47:09.736,365.418
6,2 Aug 2023 23:19:41.022,2 Aug 2023 23:25:57.065,376.043
7,3 Aug 2023 00:58:54.866,3 Aug 2023 01:05:02.633,367.767
8,3 Aug 2023 02:37:38.202,3 Aug 2023 02:43:13.852,335.649
9,3 Aug 2023 21:19:03.013,3 Aug 2023 21:25:09.443,366.430
10,3 Aug 2023 22:57:40.983,3 Aug 2023 23:03:56.692,375.709
11,4 Aug 2023 00:36:54.487,4 Aug 2023 00:43:02.387,367.900
12,4 Aug 2023 02:15:37.845,4 Aug 2023 02:21:11.397,333.552
13,4 Aug 2023 20:57:01.695,4 Aug 2023 21:03:09.141,367.446
14,4 Aug 2023 22:35:40.956,4 Aug 2023 22:41:56.324,375.368
15,5 Aug 2023 00:14:54.102,5 Aug 2023 00:21:02.131,368.030
16,5 Aug 2023 01:53:37.505,5 Aug 2023 01:59:08.849,331.344
17,5 Aug 2023 20:35:00.399,5 Aug 2023 20:41:08.823,368.424
18,5 Aug 2023 22:13:40.932,5 Aug 2023 22:19:55.961,375.029
19,5 Aug 2023 23:52:53.706,5 Aug 2023 23:59:01.866,368.160
20,6 Aug 2023 01:31:37.177,6 Aug 2023 01:37:06.206,329.029
21,6 Aug 2023 20:12:59.147,6 Aug 2023 20:19:08.493,369.346
22,6 Aug 2023 21:51:40.917,6 Aug 2023 21:57:55.605,374.688
23,6 Aug 2023 23:30:53.302,6 Aug 2023 23:37:01.588,368.286
24,7 Aug 2023 01:09:36.864,7 Aug 2023 01:15:03.467,326.602
25,7 Aug 2023 19:50:57.916,7 Aug 2023 19:57:08.150,370.234
26,7 Aug 2023 21:29:40.906,7 Aug 2023 21:35:55.255,374.349
27,7 Aug 2023 23:08:52.891,7 Aug 2023 23:15:01.300,368.410
28,8 Aug 2023 00:47:36.570,8 Aug 2023 00:53:00.616,324.046

