STK/conflict_rostov/access_sensors/resolution/RCO_2x4_50_500_1.5.csv

"Access","Start Time (UTCG)","Stop Time (UTCG)","Duration (sec)"
1,1 Jun 2023 10:20:32.593,1 Jun 2023 10:24:23.582,230.989
2,1 Jun 2023 11:59:35.512,1 Jun 2023 12:03:38.947,243.436
3,1 Jun 2023 13:38:19.212,1 Jun 2023 13:40:49.531,150.319
4,2 Jun 2023 08:19:25.620,2 Jun 2023 08:23:45.861,260.241
5,2 Jun 2023 09:58:33.876,2 Jun 2023 10:02:24.269,230.393
6,2 Jun 2023 11:37:35.793,2 Jun 2023 11:41:39.483,243.689
7,2 Jun 2023 13:16:20.766,2 Jun 2023 13:18:47.762,146.996
8,3 Jun 2023 07:57:25.830,3 Jun 2023 08:01:46.335,260.505
9,3 Jun 2023 09:36:35.160,3 Jun 2023 09:40:24.968,229.809
10,3 Jun 2023 11:15:36.075,3 Jun 2023 11:19:39.993,243.918
11,3 Jun 2023 12:54:22.413,3 Jun 2023 12:56:47.081,144.668
12,4 Jun 2023 07:35:26.097,4 Jun 2023 07:39:46.801,260.704
13,4 Jun 2023 09:14:36.451,4 Jun 2023 09:18:25.679,229.227
14,4 Jun 2023 10:53:36.356,4 Jun 2023 10:57:40.559,244.204
15,4 Jun 2023 12:32:24.162,4 Jun 2023 12:34:46.458,142.296
16,5 Jun 2023 07:13:26.402,5 Jun 2023 07:17:47.248,260.845
17,5 Jun 2023 08:52:37.743,5 Jun 2023 08:56:26.406,228.663
18,5 Jun 2023 10:31:36.636,5 Jun 2023 10:35:41.123,244.486
19,5 Jun 2023 12:10:26.025,5 Jun 2023 12:12:45.744,139.719
20,6 Jun 2023 06:51:26.271,6 Jun 2023 06:55:47.680,261.408
21,6 Jun 2023 08:30:39.039,6 Jun 2023 08:34:27.146,228.107
22,6 Jun 2023 10:09:36.916,6 Jun 2023 10:13:41.658,244.742
23,6 Jun 2023 11:48:28.014,6 Jun 2023 11:50:44.930,136.916
24,7 Jun 2023 06:29:26.194,7 Jun 2023 06:33:48.111,261.918
25,7 Jun 2023 08:08:40.336,7 Jun 2023 08:12:27.900,227.563
26,7 Jun 2023 09:47:37.198,7 Jun 2023 09:51:42.159,244.961
27,7 Jun 2023 11:26:30.153,7 Jun 2023 11:28:44.012,133.859
28,8 Jun 2023 06:07:26.180,8 Jun 2023 06:11:48.540,262.360
29,8 Jun 2023 07:46:41.634,8 Jun 2023 07:50:28.668,227.035
30,8 Jun 2023 09:25:37.479,8 Jun 2023 09:29:42.636,245.157

"Access","Start Time (UTCG)","Stop Time (UTCG)","Duration (sec)"
1,1 Jun 2023 11:10:15.139,1 Jun 2023 11:14:01.995,226.856
2,1 Jun 2023 12:48:47.553,1 Jun 2023 12:52:47.597,240.044
3,2 Jun 2023 07:32:05.436,2 Jun 2023 07:34:00.875,115.439
4,2 Jun 2023 09:08:44.156,2 Jun 2023 09:13:02.770,258.614
5,2 Jun 2023 10:48:15.779,2 Jun 2023 10:52:02.983,227.204
6,2 Jun 2023 12:26:47.813,2 Jun 2023 12:30:46.774,238.961
7,3 Jun 2023 07:10:03.173,3 Jun 2023 07:12:02.957,119.785
8,3 Jun 2023 08:46:45.005,3 Jun 2023 08:51:03.058,258.053
9,3 Jun 2023 10:26:16.404,3 Jun 2023 10:30:03.965,227.561
10,3 Jun 2023 12:04:48.085,3 Jun 2023 12:08:45.852,237.767
11,4 Jun 2023 06:48:01.163,4 Jun 2023 06:50:04.935,123.772
12,4 Jun 2023 08:24:45.881,4 Jun 2023 08:29:03.352,257.471
13,4 Jun 2023 10:04:17.015,4 Jun 2023 10:08:04.948,227.933
14,4 Jun 2023 11:42:48.370,4 Jun 2023 11:46:44.829,236.459
15,5 Jun 2023 06:25:59.372,5 Jun 2023 06:28:06.898,127.525
16,5 Jun 2023 08:02:46.781,5 Jun 2023 08:07:03.647,256.866
17,5 Jun 2023 09:42:17.612,5 Jun 2023 09:46:05.921,228.308
18,5 Jun 2023 11:20:48.675,5 Jun 2023 11:24:43.689,235.014
19,6 Jun 2023 06:03:36.149,6 Jun 2023 06:06:08.799,152.650
20,6 Jun 2023 07:40:47.709,6 Jun 2023 07:45:03.952,256.243
21,6 Jun 2023 09:20:18.197,6 Jun 2023 09:24:06.892,228.695
22,6 Jun 2023 10:58:48.993,6 Jun 2023 11:02:42.427,233.434
23,7 Jun 2023 05:41:28.570,7 Jun 2023 05:44:10.583,162.013
24,7 Jun 2023 07:18:48.660,7 Jun 2023 07:23:04.257,255.597
25,7 Jun 2023 08:58:18.768,7 Jun 2023 09:02:07.859,229.091
26,7 Jun 2023 10:36:49.332,7 Jun 2023 10:40:41.027,231.696
27,8 Jun 2023 05:19:23.093,8 Jun 2023 05:22:12.268,169.175
28,8 Jun 2023 06:56:49.638,8 Jun 2023 07:01:04.566,254.928
29,8 Jun 2023 08:36:19.323,8 Jun 2023 08:40:08.815,229.492

"Access","Start Time (UTCG)","Stop Time (UTCG)","Duration (sec)"
1,1 Jun 2023 15:00:29.931,1 Jun 2023 15:04:52.960,263.029
2,1 Jun 2023 16:39:58.891,1 Jun 2023 16:43:38.498,219.607
3,1 Jun 2023 18:18:41.738,1 Jun 2023 18:22:48.962,247.223
4,1 Jun 2023 19:58:23.103,1 Jun 2023 19:59:16.760,53.657
5,2 Jun 2023 14:38:31.133,2 Jun 2023 14:42:54.220,263.088
6,2 Jun 2023 16:18:00.758,2 Jun 2023 16:21:40.407,219.649
7,2 Jun 2023 17:56:42.814,2 Jun 2023 18:00:50.177,247.363
8,2 Jun 2023 19:36:29.959,2 Jun 2023 19:37:12.607,42.648
9,3 Jun 2023 14:16:32.371,3 Jun 2023 14:20:55.472,263.101
10,3 Jun 2023 15:56:02.613,3 Jun 2023 15:59:42.327,219.713
11,3 Jun 2023 17:34:43.896,3 Jun 2023 17:38:51.349,247.452
12,3 Jun 2023 19:14:40.276,3 Jun 2023 19:15:05.883,25.607
13,4 Jun 2023 13:54:33.651,4 Jun 2023 13:58:56.727,263.076
14,4 Jun 2023 15:34:04.457,4 Jun 2023 15:37:44.250,219.792
15,4 Jun 2023 17:12:44.987,4 Jun 2023 17:16:52.482,247.495
16,5 Jun 2023 13:32:34.966,5 Jun 2023 13:36:57.974,263.008
17,5 Jun 2023 15:12:06.291,5 Jun 2023 15:15:46.181,219.890
18,5 Jun 2023 16:50:46.084,5 Jun 2023 16:54:53.572,247.489
19,6 Jun 2023 13:10:36.320,6 Jun 2023 13:14:59.215,262.895
20,6 Jun 2023 14:50:08.115,6 Jun 2023 14:53:48.118,220.003
21,6 Jun 2023 16:28:47.188,6 Jun 2023 16:32:54.616,247.428
22,7 Jun 2023 12:48:37.710,7 Jun 2023 12:53:00.455,262.746
23,7 Jun 2023 14:28:09.926,7 Jun 2023 14:31:50.060,220.134
24,7 Jun 2023 16:06:48.300,7 Jun 2023 16:10:55.612,247.312

"Access","Start Time (UTCG)","Stop Time (UTCG)","Duration (sec)"
1,1 Jun 2023 14:11:29.185,1 Jun 2023 14:15:29.177,239.993
2,1 Jun 2023 15:50:05.633,1 Jun 2023 15:54:07.876,242.243
3,1 Jun 2023 17:29:27.716,1 Jun 2023 17:33:20.467,232.751
4,1 Jun 2023 19:07:56.528,1 Jun 2023 19:11:15.589,199.061
5,2 Jun 2023 13:49:29.080,2 Jun 2023 13:53:31.038,241.958
6,2 Jun 2023 15:28:07.830,2 Jun 2023 15:32:09.267,241.437
7,2 Jun 2023 17:07:29.062,2 Jun 2023 17:11:22.294,233.233
8,2 Jun 2023 18:45:58.133,2 Jun 2023 18:49:14.286,196.152
9,3 Jun 2023 13:27:29.092,3 Jun 2023 13:31:32.888,243.795
10,3 Jun 2023 15:06:10.044,3 Jun 2023 15:10:10.671,240.627
11,3 Jun 2023 16:45:30.400,3 Jun 2023 16:49:24.150,233.750
12,3 Jun 2023 18:23:59.763,3 Jun 2023 18:27:12.669,192.906
13,4 Jun 2023 13:05:29.213,4 Jun 2023 13:09:34.714,245.501
14,4 Jun 2023 14:44:12.267,4 Jun 2023 14:48:12.084,239.818
15,4 Jun 2023 16:23:31.728,4 Jun 2023 16:27:26.016,234.288
16,4 Jun 2023 18:02:01.421,4 Jun 2023 18:05:10.640,189.218
17,5 Jun 2023 12:43:29.431,5 Jun 2023 12:47:36.506,247.076
18,5 Jun 2023 14:22:14.505,5 Jun 2023 14:26:13.509,239.005
19,5 Jun 2023 16:01:33.047,5 Jun 2023 16:05:27.894,234.847
20,5 Jun 2023 17:40:03.111,5 Jun 2023 17:43:08.050,184.939
21,6 Jun 2023 12:21:29.744,6 Jun 2023 12:25:38.267,248.523
22,6 Jun 2023 14:00:16.758,6 Jun 2023 14:04:14.947,238.189
23,6 Jun 2023 15:39:34.360,6 Jun 2023 15:43:29.760,235.400
24,6 Jun 2023 17:18:04.834,6 Jun 2023 17:21:04.601,179.767
25,7 Jun 2023 11:59:30.145,7 Jun 2023 12:03:40.004,249.859
26,7 Jun 2023 13:38:19.029,7 Jun 2023 13:42:16.398,237.369
27,7 Jun 2023 15:17:35.665,7 Jun 2023 15:21:31.614,235.949
28,7 Jun 2023 16:56:06.589,7 Jun 2023 16:59:05.197,178.608

"Access","Start Time (UTCG)","Stop Time (UTCG)","Duration (sec)"
1,1 Jun 2023 19:43:01.468,1 Jun 2023 19:44:57.677,116.209
2,1 Jun 2023 21:19:40.729,1 Jun 2023 21:23:59.215,258.486
3,1 Jun 2023 22:59:12.371,1 Jun 2023 23:02:59.524,227.153
4,2 Jun 2023 00:37:44.312,2 Jun 2023 00:41:43.143,238.832
5,2 Jun 2023 19:20:59.284,2 Jun 2023 19:22:59.761,120.477
6,2 Jun 2023 20:57:41.612,2 Jun 2023 21:01:59.535,257.923
7,2 Jun 2023 22:37:13.023,2 Jun 2023 22:41:00.541,227.518
8,3 Jun 2023 00:15:44.616,3 Jun 2023 00:19:42.241,237.626
9,3 Jun 2023 18:58:57.346,3 Jun 2023 19:01:01.764,124.418
10,3 Jun 2023 20:35:42.522,3 Jun 2023 20:39:59.858,257.336
11,3 Jun 2023 22:15:13.663,3 Jun 2023 22:19:01.548,227.885
12,3 Jun 2023 23:53:44.933,3 Jun 2023 23:57:41.238,236.305
13,4 Jun 2023 18:36:55.617,4 Jun 2023 18:39:03.753,128.136
14,4 Jun 2023 20:13:43.457,4 Jun 2023 20:18:00.181,256.724
15,4 Jun 2023 21:53:14.289,4 Jun 2023 21:57:02.556,228.267
16,4 Jun 2023 23:31:45.266,4 Jun 2023 23:35:40.118,234.852
17,5 Jun 2023 18:14:31.152,5 Jun 2023 18:17:05.661,154.509
18,5 Jun 2023 19:51:44.419,5 Jun 2023 19:56:00.514,256.095
19,5 Jun 2023 21:31:14.900,5 Jun 2023 21:35:03.556,228.657
20,5 Jun 2023 23:09:45.616,5 Jun 2023 23:13:38.873,233.257
21,6 Jun 2023 17:52:24.216,6 Jun 2023 17:55:07.458,163.243
22,6 Jun 2023 19:29:45.404,6 Jun 2023 19:34:00.850,255.446
23,6 Jun 2023 21:09:15.495,6 Jun 2023 21:13:04.549,229.054
24,6 Jun 2023 22:47:45.986,6 Jun 2023 22:51:37.489,231.503
25,7 Jun 2023 17:30:18.976,7 Jun 2023 17:33:09.149,170.173
26,7 Jun 2023 19:07:46.413,7 Jun 2023 19:12:01.192,254.779
27,7 Jun 2023 20:47:16.080,7 Jun 2023 20:51:05.539,229.459
28,7 Jun 2023 22:25:46.369,7 Jun 2023 22:29:35.946,229.577

"Access","Start Time (UTCG)","Stop Time (UTCG)","Duration (sec)"
1,1 Jun 2023 20:30:22.079,1 Jun 2023 20:34:42.368,260.289
2,1 Jun 2023 22:09:30.558,1 Jun 2023 22:13:20.749,230.191
3,1 Jun 2023 23:48:32.315,1 Jun 2023 23:52:36.002,243.687
4,2 Jun 2023 01:27:17.390,2 Jun 2023 01:29:44.087,146.698
5,2 Jun 2023 20:08:22.330,2 Jun 2023 20:12:42.871,260.541
6,2 Jun 2023 21:47:31.877,2 Jun 2023 21:51:21.479,229.601
7,2 Jun 2023 23:26:32.623,2 Jun 2023 23:30:36.542,243.919
8,3 Jun 2023 01:05:19.075,3 Jun 2023 01:07:43.511,144.436
9,3 Jun 2023 19:46:22.634,3 Jun 2023 19:50:43.361,260.726
10,3 Jun 2023 21:25:33.197,3 Jun 2023 21:29:22.222,229.025
11,3 Jun 2023 23:04:32.933,3 Jun 2023 23:08:37.142,244.209
12,4 Jun 2023 00:43:20.862,4 Jun 2023 00:45:42.911,142.049
13,4 Jun 2023 19:24:22.898,4 Jun 2023 19:28:43.836,260.939
14,4 Jun 2023 21:03:34.522,4 Jun 2023 21:07:22.982,228.460
15,4 Jun 2023 22:42:33.243,4 Jun 2023 22:46:37.730,244.487
16,5 Jun 2023 00:21:22.768,5 Jun 2023 00:23:42.218,139.450
17,5 Jun 2023 19:02:22.803,5 Jun 2023 19:06:44.298,261.495
18,5 Jun 2023 20:41:35.847,5 Jun 2023 20:45:23.753,227.905
19,5 Jun 2023 22:20:33.552,5 Jun 2023 22:24:38.290,244.738
20,5 Jun 2023 23:59:24.801,6 Jun 2023 00:01:41.420,136.619
21,6 Jun 2023 18:40:22.769,6 Jun 2023 18:44:44.756,261.987
22,6 Jun 2023 20:19:37.174,6 Jun 2023 20:23:24.541,227.367
23,6 Jun 2023 21:58:33.860,6 Jun 2023 22:02:38.824,244.964
24,6 Jun 2023 23:37:26.984,6 Jun 2023 23:39:40.518,133.534
25,7 Jun 2023 18:18:22.791,7 Jun 2023 18:22:45.215,262.424
26,7 Jun 2023 19:57:38.502,7 Jun 2023 20:01:25.338,226.836
27,7 Jun 2023 21:36:34.170,7 Jun 2023 21:40:39.325,245.155
28,7 Jun 2023 23:15:29.338,7 Jun 2023 23:17:39.501,130.163

"Access","Start Time (UTCG)","Stop Time (UTCG)","Duration (sec)"
1,2 Jun 2023 02:00:30.604,2 Jun 2023 02:04:27.324,236.720
2,2 Jun 2023 03:39:02.772,2 Jun 2023 03:43:10.632,247.860
3,2 Jun 2023 05:18:23.438,2 Jun 2023 05:22:21.156,237.718
4,2 Jun 2023 06:56:56.221,2 Jun 2023 07:00:07.007,190.786
5,3 Jun 2023 01:38:28.330,3 Jun 2023 01:42:27.277,238.948
6,3 Jun 2023 03:17:02.988,3 Jun 2023 03:21:10.132,247.144
7,3 Jun 2023 04:56:22.891,3 Jun 2023 05:00:21.092,238.201
8,3 Jun 2023 06:34:56.015,3 Jun 2023 06:38:02.547,186.532
9,4 Jun 2023 01:16:26.195,4 Jun 2023 01:20:27.224,241.028
10,4 Jun 2023 02:55:03.217,4 Jun 2023 02:59:09.643,246.426
11,4 Jun 2023 04:34:22.334,4 Jun 2023 04:38:21.015,238.680
12,4 Jun 2023 06:12:55.842,4 Jun 2023 06:15:57.277,181.436
13,5 Jun 2023 00:54:24.197,5 Jun 2023 00:58:27.153,242.956
14,5 Jun 2023 02:33:03.467,5 Jun 2023 02:37:09.167,245.701
15,5 Jun 2023 04:12:21.767,5 Jun 2023 04:16:20.921,239.154
16,5 Jun 2023 05:50:55.706,5 Jun 2023 05:53:54.201,178.495
17,6 Jun 2023 00:32:22.315,6 Jun 2023 00:36:27.096,244.782
18,6 Jun 2023 02:11:03.727,6 Jun 2023 02:15:08.705,244.979
19,6 Jun 2023 03:50:21.194,6 Jun 2023 03:54:20.808,239.614
20,6 Jun 2023 05:28:55.606,6 Jun 2023 05:31:52.941,177.334
21,7 Jun 2023 00:10:20.544,7 Jun 2023 00:14:27.018,246.473
22,7 Jun 2023 01:49:04.004,7 Jun 2023 01:53:08.255,244.252
23,7 Jun 2023 03:28:20.613,7 Jun 2023 03:32:20.679,240.067
24,7 Jun 2023 05:06:55.547,7 Jun 2023 05:09:51.621,176.074
25,7 Jun 2023 23:48:18.875,7 Jun 2023 23:52:26.908,248.033
26,8 Jun 2023 01:27:04.288,8 Jun 2023 01:31:07.815,243.527
27,8 Jun 2023 03:06:20.025,8 Jun 2023 03:10:20.531,240.506
28,8 Jun 2023 04:44:55.513,8 Jun 2023 04:47:50.228,174.715

"Access","Start Time (UTCG)","Stop Time (UTCG)","Duration (sec)"
1,2 Jun 2023 02:49:29.803,2 Jun 2023 02:53:53.421,263.618
2,2 Jun 2023 04:28:54.723,2 Jun 2023 04:32:41.342,226.619
3,2 Jun 2023 06:07:38.252,2 Jun 2023 06:11:47.157,248.905
4,2 Jun 2023 07:47:44.272,2 Jun 2023 07:47:57.107,12.835
5,3 Jun 2023 02:27:28.987,3 Jun 2023 02:31:52.800,263.812
6,3 Jun 2023 04:06:54.635,3 Jun 2023 04:10:41.298,226.663
7,3 Jun 2023 05:45:37.467,3 Jun 2023 05:49:46.304,248.837
8,4 Jun 2023 02:05:28.215,4 Jun 2023 02:09:52.171,263.956
9,4 Jun 2023 03:44:54.537,4 Jun 2023 03:48:41.262,226.726
10,4 Jun 2023 05:23:36.688,4 Jun 2023 05:27:45.404,248.716
11,5 Jun 2023 01:43:27.486,5 Jun 2023 01:47:51.539,264.053
12,5 Jun 2023 03:22:54.428,5 Jun 2023 03:26:41.232,226.804
13,5 Jun 2023 05:01:35.918,5 Jun 2023 05:05:44.457,248.539
14,6 Jun 2023 01:21:26.800,6 Jun 2023 01:25:50.903,264.103
15,6 Jun 2023 03:00:54.310,6 Jun 2023 03:04:41.209,226.899
16,6 Jun 2023 04:39:35.157,6 Jun 2023 04:43:43.453,248.297
17,7 Jun 2023 00:59:26.159,7 Jun 2023 01:03:50.268,264.109
18,7 Jun 2023 02:38:54.182,7 Jun 2023 02:42:41.190,227.009
19,7 Jun 2023 04:17:34.401,7 Jun 2023 04:21:42.426,248.025
20,8 Jun 2023 00:37:25.557,8 Jun 2023 00:41:49.626,264.069
21,8 Jun 2023 02:16:54.041,8 Jun 2023 02:20:41.174,227.133
22,8 Jun 2023 03:55:33.653,8 Jun 2023 03:59:41.361,247.708

