STK/files_points/access_sensors/RCO_2x4_50_260_3.0_Luhansk.csv

"Access","Start Time (UTCG)","Stop Time (UTCG)","Duration (sec)"
1,2 Aug 2023 04:11:59.502,2 Aug 2023 04:13:12.735,73.233
2,2 Aug 2023 05:45:02.000,2 Aug 2023 05:46:54.731,112.731
3,2 Aug 2023 07:18:32.062,2 Aug 2023 07:20:29.494,117.432
4,3 Aug 2023 04:06:24.848,3 Aug 2023 04:08:11.846,106.998
5,3 Aug 2023 05:39:50.726,3 Aug 2023 05:41:39.887,109.161
6,3 Aug 2023 07:13:16.862,3 Aug 2023 07:15:16.105,119.242
7,4 Aug 2023 04:01:03.363,4 Aug 2023 04:03:01.297,117.935
8,4 Aug 2023 05:34:38.287,4 Aug 2023 05:36:26.679,108.393
9,4 Aug 2023 07:08:04.255,4 Aug 2023 07:09:57.973,113.718
10,5 Aug 2023 03:55:48.176,5 Aug 2023 03:57:46.973,118.798
11,5 Aug 2023 05:29:24.145,5 Aug 2023 05:31:14.998,110.853
12,5 Aug 2023 07:02:57.584,5 Aug 2023 07:04:30.837,93.253
13,6 Aug 2023 03:50:36.068,6 Aug 2023 03:52:31.265,115.197
14,6 Aug 2023 05:24:08.676,6 Aug 2023 05:26:03.834,115.158
15,6 Aug 2023 06:58:23.339,6 Aug 2023 06:58:27.524,4.185
16,7 Aug 2023 02:12:09.317,7 Aug 2023 02:13:42.276,92.959
17,7 Aug 2023 03:45:24.898,7 Aug 2023 03:47:15.789,110.891
18,7 Aug 2023 05:18:52.961,7 Aug 2023 05:20:51.783,118.823
19,8 Aug 2023 02:06:42.062,8 Aug 2023 02:08:35.632,113.571
20,8 Aug 2023 03:40:13.231,8 Aug 2023 03:42:01.629,108.399
21,8 Aug 2023 05:13:38.618,8 Aug 2023 05:15:36.637,118.019

"Access","Start Time (UTCG)","Stop Time (UTCG)","Duration (sec)"
1,2 Aug 2023 04:58:14.756,2 Aug 2023 05:00:13.660,118.904
2,2 Aug 2023 06:31:50.614,2 Aug 2023 06:33:39.390,108.776
3,2 Aug 2023 08:05:17.682,2 Aug 2023 08:07:07.714,110.031
4,3 Aug 2023 04:53:00.721,3 Aug 2023 04:54:58.758,118.037
5,3 Aug 2023 06:26:36.032,3 Aug 2023 06:28:27.988,111.957
6,3 Aug 2023 08:00:14.052,3 Aug 2023 08:01:36.505,82.452
7,4 Aug 2023 03:14:58.928,4 Aug 2023 03:15:51.952,53.024
8,4 Aug 2023 04:47:49.009,4 Aug 2023 04:49:42.972,113.963
9,4 Aug 2023 06:21:20.364,4 Aug 2023 06:23:16.689,116.325
10,5 Aug 2023 03:09:16.505,5 Aug 2023 03:10:57.505,101.001
11,5 Aug 2023 04:42:37.849,5 Aug 2023 04:44:27.778,109.929
12,5 Aug 2023 06:16:04.840,5 Aug 2023 06:18:04.095,119.255
13,6 Aug 2023 03:03:52.439,6 Aug 2023 03:05:48.644,116.204
14,6 Aug 2023 04:37:25.825,6 Aug 2023 04:39:14.088,108.264
15,6 Aug 2023 06:10:51.258,6 Aug 2023 06:12:47.579,116.320
16,7 Aug 2023 02:58:35.873,7 Aug 2023 03:00:35.089,119.216
17,7 Aug 2023 04:32:12.151,7 Aug 2023 04:34:02.053,109.902
18,7 Aug 2023 06:05:42.381,7 Aug 2023 06:07:23.605,101.223
19,8 Aug 2023 02:53:23.213,8 Aug 2023 02:55:19.579,116.366
20,8 Aug 2023 04:26:56.968,8 Aug 2023 04:28:50.889,113.922
21,8 Aug 2023 06:00:47.682,8 Aug 2023 06:01:41.439,53.757

"Access","Start Time (UTCG)","Stop Time (UTCG)","Duration (sec)"
1,1 Aug 2023 11:48:54.567,1 Aug 2023 11:50:49.509,114.943
2,1 Aug 2023 13:22:28.178,1 Aug 2023 13:24:21.274,113.096
3,1 Aug 2023 14:56:18.764,1 Aug 2023 14:57:10.994,52.230
4,2 Aug 2023 10:10:31.048,2 Aug 2023 10:12:00.825,89.777
5,2 Aug 2023 11:43:44.706,2 Aug 2023 11:45:34.675,109.969
6,2 Aug 2023 13:17:13.117,2 Aug 2023 13:19:10.875,117.758
7,3 Aug 2023 10:05:03.419,3 Aug 2023 10:06:56.108,112.689
8,3 Aug 2023 11:38:34.474,3 Aug 2023 11:40:21.140,106.666
9,3 Aug 2023 13:11:58.986,3 Aug 2023 13:13:58.040,119.054
10,4 Aug 2023 09:59:45.663,4 Aug 2023 10:01:44.796,119.133
11,4 Aug 2023 11:33:22.677,4 Aug 2023 11:35:09.474,106.798
12,4 Aug 2023 13:06:48.004,4 Aug 2023 13:08:39.777,111.773
13,5 Aug 2023 09:54:33.104,5 Aug 2023 09:56:30.541,117.436
14,5 Aug 2023 11:28:09.020,5 Aug 2023 11:29:59.320,110.300
15,5 Aug 2023 13:01:44.136,5 Aug 2023 13:03:11.069,86.933
16,6 Aug 2023 08:16:29.192,6 Aug 2023 08:17:27.899,58.706
17,6 Aug 2023 09:49:22.747,6 Aug 2023 09:51:15.479,112.732
18,6 Aug 2023 11:22:54.133,6 Aug 2023 11:24:49.421,115.287
19,7 Aug 2023 08:10:49.765,7 Aug 2023 08:12:32.633,102.868
20,7 Aug 2023 09:44:12.920,7 Aug 2023 09:46:01.096,108.176
21,7 Aug 2023 11:17:39.267,7 Aug 2023 11:19:38.289,119.022
22,8 Aug 2023 08:05:27.346,8 Aug 2023 08:07:24.262,116.916
23,8 Aug 2023 09:39:02.099,8 Aug 2023 09:40:48.360,106.261

"Access","Start Time (UTCG)","Stop Time (UTCG)","Duration (sec)"
1,1 Aug 2023 11:02:11.428,1 Aug 2023 11:04:07.122,115.694
2,1 Aug 2023 12:35:45.069,1 Aug 2023 12:37:31.392,106.322
3,1 Aug 2023 14:09:09.177,1 Aug 2023 14:11:07.322,118.145
4,2 Aug 2023 10:56:55.458,2 Aug 2023 10:58:54.698,119.240
5,2 Aug 2023 12:30:32.734,2 Aug 2023 12:32:20.230,107.496
6,2 Aug 2023 14:03:59.597,2 Aug 2023 14:05:46.837,107.240
7,3 Aug 2023 10:51:43.787,3 Aug 2023 10:53:40.038,116.251
8,3 Aug 2023 12:25:18.634,3 Aug 2023 12:27:10.302,111.668
9,3 Aug 2023 13:58:59.785,3 Aug 2023 14:00:12.977,73.192
10,4 Aug 2023 09:13:28.492,4 Aug 2023 09:14:45.728,77.236
11,4 Aug 2023 10:46:33.723,4 Aug 2023 10:48:25.036,111.314
12,4 Aug 2023 12:20:03.606,4 Aug 2023 12:22:00.174,116.568
13,5 Aug 2023 09:07:56.143,5 Aug 2023 09:09:44.679,108.536
14,5 Aug 2023 10:41:23.750,5 Aug 2023 10:43:11.045,107.294
15,5 Aug 2023 12:14:49.035,5 Aug 2023 12:16:48.342,119.307
16,6 Aug 2023 09:02:36.268,6 Aug 2023 09:04:34.670,118.402
17,6 Aug 2023 10:36:12.464,6 Aug 2023 10:37:58.846,106.382
18,6 Aug 2023 12:09:36.869,6 Aug 2023 12:11:31.946,115.077
19,7 Aug 2023 08:57:22.557,7 Aug 2023 08:59:20.982,118.426
20,7 Aug 2023 10:30:59.303,7 Aug 2023 10:32:48.358,109.055
21,7 Aug 2023 12:04:30.252,7 Aug 2023 12:06:07.034,96.781
22,8 Aug 2023 07:19:37.968,8 Aug 2023 07:20:01.807,23.839
23,8 Aug 2023 08:52:11.813,8 Aug 2023 08:54:05.977,114.164

"Access","Start Time (UTCG)","Stop Time (UTCG)","Duration (sec)"
1,1 Aug 2023 16:14:56.890,1 Aug 2023 16:15:27.964,31.074
2,1 Aug 2023 17:47:34.638,1 Aug 2023 17:49:29.394,114.756
3,1 Aug 2023 19:21:06.842,1 Aug 2023 19:23:02.365,115.524
4,2 Aug 2023 16:09:05.798,2 Aug 2023 16:10:41.794,95.996
5,2 Aug 2023 17:42:23.531,2 Aug 2023 17:44:14.029,110.499
6,2 Aug 2023 19:15:51.197,2 Aug 2023 19:17:50.198,119.000
7,3 Aug 2023 16:03:39.753,3 Aug 2023 16:05:34.347,114.594
8,3 Aug 2023 17:37:11.787,3 Aug 2023 17:39:00.057,108.269
9,3 Aug 2023 19:10:37.101,3 Aug 2023 19:12:34.669,117.568
10,4 Aug 2023 15:58:22.183,4 Aug 2023 16:00:21.437,119.254
11,4 Aug 2023 17:31:58.468,4 Aug 2023 17:33:47.782,109.314
12,4 Aug 2023 19:05:27.075,4 Aug 2023 19:07:12.513,105.438
13,5 Aug 2023 15:53:09.105,5 Aug 2023 15:55:06.152,117.047
14,5 Aug 2023 17:26:43.539,5 Aug 2023 17:28:36.595,113.056
15,5 Aug 2023 19:00:27.754,5 Aug 2023 19:01:36.023,68.269
16,6 Aug 2023 14:14:55.588,6 Aug 2023 14:16:08.170,72.582
17,6 Aug 2023 15:47:57.674,6 Aug 2023 15:49:50.424,112.750
18,6 Aug 2023 17:21:27.795,6 Aug 2023 17:23:25.149,117.354
19,7 Aug 2023 14:09:20.718,7 Aug 2023 14:11:07.510,106.791
20,7 Aug 2023 15:42:46.451,7 Aug 2023 15:44:35.591,109.140
21,7 Aug 2023 17:16:12.601,7 Aug 2023 17:18:11.858,119.258

"Access","Start Time (UTCG)","Stop Time (UTCG)","Duration (sec)"
1,1 Aug 2023 17:00:50.259,1 Aug 2023 17:02:47.159,116.900
2,1 Aug 2023 18:34:24.272,1 Aug 2023 18:36:12.492,108.220
3,1 Aug 2023 20:07:49.784,1 Aug 2023 20:09:45.376,115.593
4,2 Aug 2023 16:55:34.227,2 Aug 2023 16:57:33.345,119.117
5,2 Aug 2023 18:29:10.473,2 Aug 2023 18:31:00.619,110.146
6,2 Aug 2023 20:02:41.584,2 Aug 2023 20:04:20.484,98.900
7,3 Aug 2023 16:50:21.814,3 Aug 2023 16:52:17.774,115.960
8,3 Aug 2023 18:23:55.209,3 Aug 2023 18:25:49.511,114.302
9,3 Aug 2023 19:57:50.122,3 Aug 2023 19:58:34.907,44.785
10,4 Aug 2023 15:11:59.653,4 Aug 2023 15:13:25.843,86.190
11,4 Aug 2023 16:45:10.611,4 Aug 2023 16:47:02.180,111.570
12,4 Aug 2023 18:18:39.458,4 Aug 2023 18:20:37.781,118.322
13,5 Aug 2023 15:06:29.862,5 Aug 2023 15:08:21.141,111.278
14,5 Aug 2023 16:39:59.177,5 Aug 2023 16:41:47.756,108.579
15,5 Aug 2023 18:13:24.731,5 Aug 2023 18:15:23.471,118.740
16,6 Aug 2023 15:01:10.475,6 Aug 2023 15:03:09.358,118.883
17,6 Aug 2023 16:34:46.337,6 Aug 2023 16:36:35.032,108.695
18,6 Aug 2023 18:08:13.292,6 Aug 2023 18:10:03.576,110.284
19,7 Aug 2023 14:55:56.437,7 Aug 2023 14:57:54.501,118.064
20,7 Aug 2023 16:29:31.804,7 Aug 2023 16:31:23.657,111.852
21,7 Aug 2023 18:03:09.473,7 Aug 2023 18:04:32.671,83.198

"Access","Start Time (UTCG)","Stop Time (UTCG)","Duration (sec)"
1,1 Aug 2023 22:13:28.842,1 Aug 2023 22:14:18.779,49.938
2,1 Aug 2023 23:46:17.114,1 Aug 2023 23:48:12.022,114.908
3,2 Aug 2023 01:19:48.333,2 Aug 2023 01:21:45.635,117.302
4,2 Aug 2023 22:07:44.491,2 Aug 2023 22:09:24.355,99.864
5,2 Aug 2023 23:41:04.669,2 Aug 2023 23:42:56.055,111.387
6,3 Aug 2023 01:14:32.209,3 Aug 2023 01:16:31.506,119.297
7,3 Aug 2023 22:02:19.126,3 Aug 2023 22:04:14.811,115.685
8,3 Aug 2023 23:35:51.446,3 Aug 2023 23:37:41.476,110.030
9,4 Aug 2023 01:09:18.264,4 Aug 2023 01:11:13.158,114.894
10,4 Aug 2023 21:57:01.297,4 Aug 2023 21:59:00.557,119.260
11,4 Aug 2023 23:30:36.722,4 Aug 2023 23:32:28.371,111.648
12,5 Aug 2023 01:04:09.469,5 Aug 2023 01:05:46.775,97.305
13,5 Aug 2023 21:51:47.381,5 Aug 2023 21:53:44.336,116.955
14,5 Aug 2023 23:25:20.658,5 Aug 2023 23:27:15.933,115.275
15,6 Aug 2023 00:59:18.949,6 Aug 2023 00:59:58.266,39.317
16,6 Aug 2023 20:13:27.620,6 Aug 2023 20:14:48.335,80.715
17,6 Aug 2023 21:46:34.783,6 Aug 2023 21:48:27.935,113.152
18,6 Aug 2023 23:20:04.177,6 Aug 2023 23:22:02.876,118.699
19,7 Aug 2023 20:07:54.971,7 Aug 2023 20:09:44.191,109.220
20,7 Aug 2023 21:41:22.128,7 Aug 2023 21:43:12.537,110.408
21,7 Aug 2023 23:14:48.760,7 Aug 2023 23:16:47.164,118.404

"Access","Start Time (UTCG)","Stop Time (UTCG)","Duration (sec)"
1,1 Aug 2023 22:59:32.055,1 Aug 2023 23:01:29.602,117.547
2,2 Aug 2023 00:33:05.937,2 Aug 2023 00:34:56.119,110.182
3,2 Aug 2023 02:06:33.550,2 Aug 2023 02:08:25.345,111.795
4,2 Aug 2023 22:54:15.580,2 Aug 2023 22:56:14.589,119.010
5,3 Aug 2023 00:27:50.794,3 Aug 2023 00:29:43.312,112.518
6,3 Aug 2023 02:01:27.229,3 Aug 2023 02:02:55.516,88.287
7,3 Aug 2023 22:49:02.204,3 Aug 2023 22:50:58.168,115.964
8,4 Aug 2023 00:22:34.500,4 Aug 2023 00:24:30.814,116.314
9,4 Aug 2023 21:10:35.271,4 Aug 2023 21:12:06.985,91.715
10,4 Aug 2023 22:43:49.744,4 Aug 2023 22:45:41.949,112.205
11,5 Aug 2023 00:17:18.136,5 Aug 2023 00:19:17.317,119.180
12,5 Aug 2023 21:05:06.729,5 Aug 2023 21:06:59.665,112.936
13,5 Aug 2023 22:38:36.842,5 Aug 2023 22:40:26.947,110.105
14,6 Aug 2023 00:12:03.360,6 Aug 2023 00:14:00.401,117.041
15,6 Aug 2023 20:59:47.302,6 Aug 2023 21:01:46.388,119.086
16,6 Aug 2023 22:33:22.546,6 Aug 2023 22:35:13.484,110.938
17,7 Aug 2023 00:06:52.709,7 Aug 2023 00:08:36.771,104.062
18,7 Aug 2023 20:54:32.617,7 Aug 2023 20:56:30.493,117.876
19,7 Aug 2023 22:28:06.782,7 Aug 2023 22:30:00.990,114.207
20,8 Aug 2023 00:01:53.424,8 Aug 2023 00:02:58.141,64.717

