STK/input/files_points/access_sensors/RCO_2x6_50_260_3.0_Donetsk.csv

"Access","Start Time (UTCG)","Stop Time (UTCG)","Duration (sec)"
1,2 Aug 2023 04:11:42.718,2 Aug 2023 04:12:53.856,71.138
2,2 Aug 2023 05:44:49.221,2 Aug 2023 05:46:34.077,104.856
3,2 Aug 2023 07:18:22.845,2 Aug 2023 07:20:11.536,108.691
4,3 Aug 2023 04:06:07.811,3 Aug 2023 04:07:53.970,106.159
5,3 Aug 2023 05:39:40.005,3 Aug 2023 05:41:18.241,98.236
6,3 Aug 2023 07:13:06.048,3 Aug 2023 07:15:01.199,115.152
7,4 Aug 2023 04:00:46.800,4 Aug 2023 04:02:43.122,116.322
8,4 Aug 2023 05:34:29.166,4 Aug 2023 05:36:04.664,95.499
9,4 Aug 2023 07:07:50.784,4 Aug 2023 07:09:47.275,116.491
10,5 Aug 2023 03:55:32.606,5 Aug 2023 03:57:28.004,115.398
11,5 Aug 2023 05:29:15.735,5 Aug 2023 05:30:53.697,97.962
12,5 Aug 2023 07:02:39.602,5 Aug 2023 07:04:26.753,107.151
13,6 Aug 2023 03:50:22.142,6 Aug 2023 03:52:11.246,109.105
14,6 Aug 2023 05:23:59.992,6 Aug 2023 05:25:44.429,104.437
15,6 Aug 2023 06:57:38.682,6 Aug 2023 06:58:53.053,74.370
16,7 Aug 2023 02:11:52.289,7 Aug 2023 02:13:24.082,91.793
17,7 Aug 2023 03:45:13.065,7 Aug 2023 03:46:54.652,101.587
18,7 Aug 2023 05:18:43.134,7 Aug 2023 05:20:35.071,111.937
19,8 Aug 2023 02:06:25.167,8 Aug 2023 02:08:17.765,112.597
20,8 Aug 2023 03:40:03.312,8 Aug 2023 03:41:39.706,96.394
21,8 Aug 2023 05:13:26.779,8 Aug 2023 05:15:23.435,116.656

"Access","Start Time (UTCG)","Stop Time (UTCG)","Duration (sec)"
1,2 Aug 2023 04:57:58.419,2 Aug 2023 04:59:55.296,116.877
2,2 Aug 2023 06:31:41.789,2 Aug 2023 06:33:17.454,95.666
3,2 Aug 2023 08:05:03.203,2 Aug 2023 08:06:58.497,115.294
4,3 Aug 2023 04:52:45.511,3 Aug 2023 04:54:39.519,114.008
5,3 Aug 2023 06:26:27.640,3 Aug 2023 06:28:07.098,99.458
6,3 Aug 2023 07:59:53.895,3 Aug 2023 08:01:35.333,101.438
7,4 Aug 2023 03:14:42.646,4 Aug 2023 03:15:31.981,49.335
8,4 Aug 2023 04:47:35.650,4 Aug 2023 04:49:22.636,106.986
9,4 Aug 2023 06:21:11.445,4 Aug 2023 06:22:58.006,106.561
10,4 Aug 2023 07:54:59.527,4 Aug 2023 07:55:54.212,54.685
11,5 Aug 2023 03:08:59.444,5 Aug 2023 03:10:39.521,100.077
12,5 Aug 2023 04:42:26.582,5 Aug 2023 04:44:06.368,99.787
13,5 Aug 2023 06:15:54.554,5 Aug 2023 06:17:48.246,113.692
14,6 Aug 2023 03:03:35.688,6 Aug 2023 03:05:30.638,114.950
15,6 Aug 2023 04:37:16.337,6 Aug 2023 04:38:52.081,95.745
16,6 Aug 2023 06:10:38.663,6 Aug 2023 06:12:35.566,116.903
17,7 Aug 2023 02:58:19.983,7 Aug 2023 03:00:16.369,116.386
18,7 Aug 2023 04:32:03.647,7 Aug 2023 04:33:40.430,96.783
19,7 Aug 2023 06:05:25.999,7 Aug 2023 06:07:17.268,111.270
20,8 Aug 2023 02:53:08.733,8 Aug 2023 02:54:59.867,111.134
21,8 Aug 2023 04:26:48.450,8 Aug 2023 04:28:30.852,102.401
22,8 Aug 2023 06:00:21.004,8 Aug 2023 06:01:48.480,87.476

"Access","Start Time (UTCG)","Stop Time (UTCG)","Duration (sec)"
1,1 Aug 2023 10:20:24.144,1 Aug 2023 10:22:01.865,97.722
2,1 Aug 2023 11:53:51.774,1 Aug 2023 11:55:44.360,112.586
3,2 Aug 2023 08:41:32.979,2 Aug 2023 08:43:28.314,115.335
4,2 Aug 2023 10:15:15.059,2 Aug 2023 10:16:48.258,93.198
5,2 Aug 2023 11:48:36.314,2 Aug 2023 11:50:33.154,116.840
6,3 Aug 2023 08:36:18.482,3 Aug 2023 08:38:14.595,116.113
7,3 Aug 2023 10:10:03.350,3 Aug 2023 10:11:37.489,94.140
8,3 Aug 2023 11:43:23.886,3 Aug 2023 11:45:16.538,112.652
9,4 Aug 2023 08:31:08.457,4 Aug 2023 08:32:58.648,110.191
10,4 Aug 2023 10:04:48.927,4 Aug 2023 10:06:29.018,100.091
11,4 Aug 2023 11:38:18.511,4 Aug 2023 11:39:50.063,91.551
12,5 Aug 2023 06:52:46.271,5 Aug 2023 06:54:08.352,82.081
13,5 Aug 2023 08:26:00.466,5 Aug 2023 08:27:42.397,101.931
14,5 Aug 2023 09:59:32.845,5 Aug 2023 10:01:21.175,108.330
15,6 Aug 2023 06:47:16.164,6 Aug 2023 06:49:05.899,109.735
16,6 Aug 2023 08:20:52.317,6 Aug 2023 08:22:27.465,95.148
17,6 Aug 2023 09:54:16.665,6 Aug 2023 09:56:11.824,115.159
18,7 Aug 2023 06:41:57.784,7 Aug 2023 06:43:54.614,116.830
19,7 Aug 2023 08:15:42.181,7 Aug 2023 08:17:15.080,92.899
20,7 Aug 2023 09:49:02.224,7 Aug 2023 09:50:58.613,116.389
21,8 Aug 2023 06:36:45.585,8 Aug 2023 06:38:39.644,114.059
22,8 Aug 2023 08:10:29.209,8 Aug 2023 08:12:05.465,96.256
23,8 Aug 2023 09:43:52.156,8 Aug 2023 09:45:38.451,106.295

"Access","Start Time (UTCG)","Stop Time (UTCG)","Duration (sec)"
1,1 Aug 2023 11:07:13.599,1 Aug 2023 11:08:48.988,95.389
2,1 Aug 2023 12:40:35.436,1 Aug 2023 12:42:24.455,109.019
3,2 Aug 2023 09:28:20.158,2 Aug 2023 09:30:08.095,107.936
4,2 Aug 2023 11:01:58.571,2 Aug 2023 11:03:40.892,102.321
5,2 Aug 2023 12:35:33.708,2 Aug 2023 12:36:53.479,79.772
6,3 Aug 2023 07:49:50.040,3 Aug 2023 07:51:23.241,93.201
7,3 Aug 2023 09:23:12.334,3 Aug 2023 09:24:52.062,99.727
8,3 Aug 2023 10:56:42.293,3 Aug 2023 10:58:32.852,110.559
9,4 Aug 2023 07:44:24.215,4 Aug 2023 07:46:17.355,113.141
10,4 Aug 2023 09:18:03.784,4 Aug 2023 09:19:37.750,93.966
11,4 Aug 2023 10:51:26.400,4 Aug 2023 10:53:22.667,116.267
12,5 Aug 2023 07:39:07.930,5 Aug 2023 07:41:04.714,116.784
13,5 Aug 2023 09:12:52.881,5 Aug 2023 09:14:26.178,93.297
14,5 Aug 2023 10:46:12.850,5 Aug 2023 10:48:07.887,115.036
15,6 Aug 2023 07:33:56.919,6 Aug 2023 07:35:49.177,112.258
16,6 Aug 2023 09:07:39.150,6 Aug 2023 09:09:17.195,98.046
17,6 Aug 2023 10:41:04.818,6 Aug 2023 10:42:44.897,100.078
18,7 Aug 2023 05:55:45.056,7 Aug 2023 05:56:51.161,66.105
19,7 Aug 2023 07:28:48.584,7 Aug 2023 07:30:32.837,104.253
20,7 Aug 2023 09:02:23.387,7 Aug 2023 09:04:09.380,105.994
21,7 Aug 2023 10:36:13.642,7 Aug 2023 10:37:01.985,48.343
22,8 Aug 2023 05:50:08.972,8 Aug 2023 05:51:53.823,104.852
23,8 Aug 2023 07:23:40.687,8 Aug 2023 07:25:17.385,96.698
24,8 Aug 2023 08:57:07.063,8 Aug 2023 08:59:00.681,113.618

"Access","Start Time (UTCG)","Stop Time (UTCG)","Duration (sec)"
1,1 Aug 2023 13:17:00.233,1 Aug 2023 13:18:57.031,116.798
2,1 Aug 2023 14:50:45.197,1 Aug 2023 14:52:18.418,93.220
3,1 Aug 2023 16:24:05.129,1 Aug 2023 16:26:00.260,115.131
4,2 Aug 2023 13:11:49.196,2 Aug 2023 13:13:41.527,112.331
5,2 Aug 2023 14:45:31.514,2 Aug 2023 14:47:09.429,97.915
6,2 Aug 2023 16:18:56.995,2 Aug 2023 16:20:37.444,100.449
7,3 Aug 2023 11:33:37.867,3 Aug 2023 11:34:43.133,65.266
8,3 Aug 2023 13:06:40.864,3 Aug 2023 13:08:25.196,104.332
9,3 Aug 2023 14:40:15.779,3 Aug 2023 14:42:01.633,105.854
10,3 Aug 2023 16:14:05.286,3 Aug 2023 16:14:55.140,49.854
11,4 Aug 2023 11:28:01.480,4 Aug 2023 11:29:46.090,104.609
12,4 Aug 2023 13:01:32.997,4 Aug 2023 13:03:09.733,96.737
13,4 Aug 2023 14:34:59.462,4 Aug 2023 14:36:52.984,113.522
14,5 Aug 2023 11:22:40.522,5 Aug 2023 11:24:36.599,116.077
15,5 Aug 2023 12:56:23.609,5 Aug 2023 12:57:56.535,92.926
16,5 Aug 2023 14:29:44.304,5 Aug 2023 14:31:41.195,116.890
17,6 Aug 2023 11:17:26.877,6 Aug 2023 11:19:22.420,115.544
18,6 Aug 2023 12:51:11.492,6 Aug 2023 12:52:46.187,94.695
19,6 Aug 2023 14:24:32.578,6 Aug 2023 14:26:23.531,110.953
20,7 Aug 2023 11:12:17.317,7 Aug 2023 11:14:06.329,109.012
21,7 Aug 2023 12:45:56.755,7 Aug 2023 12:47:37.951,101.195
22,7 Aug 2023 14:19:28.931,7 Aug 2023 14:20:54.914,85.983
23,8 Aug 2023 09:33:50.763,8 Aug 2023 09:35:19.124,88.360

"Access","Start Time (UTCG)","Stop Time (UTCG)","Duration (sec)"
1,1 Aug 2023 12:30:38.901,1 Aug 2023 12:32:00.427,81.526
2,1 Aug 2023 14:03:52.715,1 Aug 2023 14:05:34.716,102.001
3,1 Aug 2023 15:37:25.205,1 Aug 2023 15:39:13.402,108.197
4,2 Aug 2023 12:25:08.598,2 Aug 2023 12:26:58.167,109.569
5,2 Aug 2023 13:58:44.603,2 Aug 2023 14:00:19.771,95.168
6,2 Aug 2023 15:32:09.024,2 Aug 2023 15:34:04.109,115.085
7,3 Aug 2023 12:19:50.139,3 Aug 2023 12:21:46.955,116.816
8,3 Aug 2023 13:53:34.519,3 Aug 2023 13:55:07.363,92.844
9,3 Aug 2023 15:26:54.554,3 Aug 2023 15:28:50.990,116.435
10,4 Aug 2023 12:14:37.903,4 Aug 2023 12:16:32.025,114.122
11,4 Aug 2023 13:48:21.598,4 Aug 2023 13:49:57.735,96.137
12,4 Aug 2023 15:21:44.409,4 Aug 2023 15:23:30.976,106.567
13,5 Aug 2023 10:36:42.638,5 Aug 2023 10:37:20.298,37.660
14,5 Aug 2023 12:09:29.047,5 Aug 2023 12:11:15.742,106.695
15,5 Aug 2023 13:43:06.309,5 Aug 2023 13:44:49.802,103.494
16,5 Aug 2023 15:16:45.215,5 Aug 2023 15:17:57.050,71.835
17,6 Aug 2023 10:30:55.426,6 Aug 2023 10:32:33.181,97.754
18,6 Aug 2023 12:04:21.267,6 Aug 2023 12:05:59.883,98.616
19,6 Aug 2023 13:37:49.989,6 Aug 2023 13:39:41.614,111.626
20,7 Aug 2023 10:25:31.463,7 Aug 2023 10:27:25.892,114.429
21,7 Aug 2023 11:59:12.476,7 Aug 2023 12:00:45.941,93.465
22,7 Aug 2023 13:32:34.314,7 Aug 2023 13:34:30.947,116.633

"Access","Start Time (UTCG)","Stop Time (UTCG)","Duration (sec)"
1,1 Aug 2023 16:14:43.631,1 Aug 2023 16:15:04.995,21.364
2,1 Aug 2023 17:47:20.908,1 Aug 2023 17:49:09.262,108.354
3,1 Aug 2023 19:20:58.100,1 Aug 2023 19:22:43.179,105.079
4,1 Aug 2023 20:54:39.327,1 Aug 2023 20:55:48.275,68.948
5,2 Aug 2023 16:08:48.755,2 Aug 2023 16:10:23.682,94.927
6,2 Aug 2023 17:42:11.897,2 Aug 2023 17:43:52.787,100.890
7,2 Aug 2023 19:15:41.242,2 Aug 2023 19:17:33.752,112.511
8,3 Aug 2023 16:03:22.902,3 Aug 2023 16:05:16.432,113.530
9,3 Aug 2023 17:37:02.034,3 Aug 2023 17:38:38.079,96.045
10,3 Aug 2023 19:10:25.040,3 Aug 2023 19:12:21.838,116.799
11,4 Aug 2023 15:58:06.100,4 Aug 2023 16:00:02.865,116.766
12,4 Aug 2023 17:31:49.872,4 Aug 2023 17:33:25.981,96.109
13,4 Aug 2023 19:05:11.572,4 Aug 2023 19:07:04.884,113.312
14,5 Aug 2023 15:52:54.277,5 Aug 2023 15:54:46.634,112.357
15,5 Aug 2023 17:26:35.113,5 Aug 2023 17:28:16.162,101.049
16,5 Aug 2023 19:00:04.557,5 Aug 2023 19:01:38.733,94.176
17,6 Aug 2023 14:14:38.819,6 Aug 2023 14:15:49.262,70.443
18,6 Aug 2023 15:47:44.878,6 Aug 2023 15:49:29.778,104.899
19,6 Aug 2023 17:21:18.610,6 Aug 2023 17:23:07.145,108.536
20,6 Aug 2023 18:55:26.732,6 Aug 2023 18:55:40.294,13.562
21,7 Aug 2023 14:09:03.679,7 Aug 2023 14:10:49.634,105.955
22,7 Aug 2023 15:42:35.716,7 Aug 2023 15:44:13.942,98.226
23,7 Aug 2023 17:16:01.825,7 Aug 2023 17:17:56.889,115.065

"Access","Start Time (UTCG)","Stop Time (UTCG)","Duration (sec)"
1,1 Aug 2023 17:00:33.568,1 Aug 2023 17:02:29.094,115.526
2,1 Aug 2023 18:34:14.930,1 Aug 2023 18:35:50.458,95.528
3,1 Aug 2023 20:07:36.925,1 Aug 2023 20:09:33.774,116.848
4,2 Aug 2023 16:55:18.444,2 Aug 2023 16:57:14.537,116.093
5,2 Aug 2023 18:29:02.024,2 Aug 2023 18:30:39.078,97.054
6,2 Aug 2023 20:02:24.730,2 Aug 2023 20:04:14.829,110.100
7,3 Aug 2023 16:50:07.523,3 Aug 2023 16:51:57.954,110.431
8,3 Aug 2023 18:23:46.661,3 Aug 2023 18:25:29.661,103.001
9,3 Aug 2023 19:57:20.922,3 Aug 2023 19:58:44.644,83.723
10,4 Aug 2023 15:11:42.691,4 Aug 2023 15:13:07.445,84.754
11,4 Aug 2023 16:44:58.401,4 Aug 2023 16:46:41.230,102.828
12,4 Aug 2023 18:18:29.918,4 Aug 2023 18:20:20.520,110.602
13,5 Aug 2023 15:06:12.899,5 Aug 2023 15:08:03.319,110.419
14,5 Aug 2023 16:39:48.954,5 Aug 2023 16:41:25.914,96.960
15,5 Aug 2023 18:13:13.355,5 Aug 2023 18:15:09.525,116.170
16,6 Aug 2023 15:00:54.129,6 Aug 2023 15:02:50.998,116.869
17,6 Aug 2023 16:34:37.514,6 Aug 2023 16:36:13.073,95.559
18,6 Aug 2023 18:07:58.874,6 Aug 2023 18:09:54.268,115.394
19,7 Aug 2023 14:55:41.211,7 Aug 2023 14:57:35.269,114.058
20,7 Aug 2023 16:29:23.429,7 Aug 2023 16:31:02.727,99.298
21,7 Aug 2023 18:02:49.471,7 Aug 2023 18:04:31.306,101.835

"Access","Start Time (UTCG)","Stop Time (UTCG)","Duration (sec)"
1,1 Aug 2023 20:44:11.527,1 Aug 2023 20:45:59.998,108.471
2,1 Aug 2023 22:17:45.105,1 Aug 2023 22:19:24.561,99.455
3,1 Aug 2023 23:51:10.644,1 Aug 2023 23:53:07.043,116.399
4,2 Aug 2023 20:38:50.911,2 Aug 2023 20:40:47.566,116.655
5,2 Aug 2023 22:12:32.789,2 Aug 2023 22:14:10.724,97.935
6,2 Aug 2023 23:45:55.560,2 Aug 2023 23:47:50.660,115.100
7,3 Aug 2023 20:33:36.439,3 Aug 2023 20:35:31.444,115.005
8,3 Aug 2023 22:07:18.024,3 Aug 2023 22:08:59.217,101.194
9,3 Aug 2023 23:40:45.578,3 Aug 2023 23:42:26.567,100.989
10,4 Aug 2023 18:55:41.193,4 Aug 2023 18:56:15.102,33.908
11,4 Aug 2023 20:28:25.216,4 Aug 2023 20:30:14.046,108.830
12,4 Aug 2023 22:02:01.291,4 Aug 2023 22:03:48.934,107.643
13,4 Aug 2023 23:35:50.611,4 Aug 2023 23:36:44.466,53.855
14,5 Aug 2023 18:49:51.087,5 Aug 2023 18:51:27.609,96.522
15,5 Aug 2023 20:23:14.972,5 Aug 2023 20:24:57.095,102.123
16,5 Aug 2023 21:56:43.852,5 Aug 2023 21:58:38.023,114.171
17,6 Aug 2023 18:44:25.128,6 Aug 2023 18:46:19.005,113.877
18,6 Aug 2023 20:18:03.774,6 Aug 2023 20:19:41.938,98.164
19,6 Aug 2023 21:51:27.374,6 Aug 2023 21:53:24.264,116.890
20,7 Aug 2023 18:39:07.750,7 Aug 2023 18:41:04.502,116.752
21,7 Aug 2023 20:12:50.356,7 Aug 2023 20:14:29.227,98.871
22,7 Aug 2023 21:46:14.094,7 Aug 2023 21:48:04.946,110.852

"Access","Start Time (UTCG)","Stop Time (UTCG)","Duration (sec)"
1,1 Aug 2023 21:30:51.165,1 Aug 2023 21:32:44.757,113.591
2,1 Aug 2023 23:04:31.622,1 Aug 2023 23:06:14.370,102.749
3,2 Aug 2023 00:38:02.553,2 Aug 2023 00:39:35.810,93.256
4,2 Aug 2023 19:52:39.574,2 Aug 2023 19:53:42.161,62.587
5,2 Aug 2023 21:25:40.421,2 Aug 2023 21:27:27.321,106.900
6,2 Aug 2023 22:59:14.552,2 Aug 2023 23:01:04.119,109.568
7,3 Aug 2023 19:47:00.798,3 Aug 2023 19:48:44.204,103.406
8,3 Aug 2023 21:20:30.093,3 Aug 2023 21:22:10.749,100.656
9,3 Aug 2023 22:53:57.195,3 Aug 2023 22:55:52.663,115.468
10,4 Aug 2023 19:41:37.760,4 Aug 2023 19:43:33.451,115.691
11,4 Aug 2023 21:15:18.374,4 Aug 2023 21:16:56.237,97.863
12,4 Aug 2023 22:48:41.324,4 Aug 2023 22:50:37.699,116.374
13,5 Aug 2023 19:36:21.950,5 Aug 2023 19:38:18.039,116.089
14,5 Aug 2023 21:10:04.274,5 Aug 2023 21:11:44.159,99.885
15,5 Aug 2023 22:43:29.498,5 Aug 2023 22:45:16.198,106.700
16,6 Aug 2023 19:31:10.077,6 Aug 2023 19:33:00.803,110.726
17,6 Aug 2023 21:04:47.975,6 Aug 2023 21:06:33.704,105.730
18,6 Aug 2023 22:38:27.985,6 Aug 2023 22:39:41.493,73.508
19,7 Aug 2023 17:52:42.701,7 Aug 2023 17:54:09.909,87.208
20,7 Aug 2023 19:25:59.776,7 Aug 2023 19:27:43.577,103.801
21,7 Aug 2023 20:59:30.580,7 Aug 2023 21:01:23.174,112.594

"Access","Start Time (UTCG)","Stop Time (UTCG)","Duration (sec)"
1,2 Aug 2023 01:14:24.087,2 Aug 2023 01:16:20.384,116.297
2,2 Aug 2023 02:48:06.505,2 Aug 2023 02:49:46.158,99.652
3,2 Aug 2023 04:21:31.333,2 Aug 2023 04:23:19.132,107.798
4,3 Aug 2023 01:09:12.010,3 Aug 2023 01:11:03.195,111.186
5,3 Aug 2023 02:42:50.311,3 Aug 2023 02:44:35.621,105.310
6,3 Aug 2023 04:16:28.696,3 Aug 2023 04:17:45.711,77.015
7,3 Aug 2023 23:30:46.503,3 Aug 2023 23:32:10.967,84.464
8,4 Aug 2023 01:04:01.651,4 Aug 2023 01:05:45.910,104.259
9,4 Aug 2023 02:37:32.934,4 Aug 2023 02:39:25.135,112.201
10,4 Aug 2023 23:25:15.864,4 Aug 2023 23:27:06.028,110.164
11,5 Aug 2023 00:58:50.942,5 Aug 2023 01:00:30.015,99.074
12,5 Aug 2023 02:32:15.910,5 Aug 2023 02:34:12.579,116.669
13,5 Aug 2023 23:19:56.135,5 Aug 2023 23:21:52.979,116.843
14,6 Aug 2023 00:53:38.333,6 Aug 2023 00:55:16.454,98.121
15,6 Aug 2023 02:27:01.217,6 Aug 2023 02:28:55.488,114.271
16,6 Aug 2023 23:14:42.147,6 Aug 2023 23:16:36.594,114.447
17,7 Aug 2023 00:48:23.279,7 Aug 2023 00:50:05.148,101.869
18,7 Aug 2023 02:21:52.174,7 Aug 2023 02:23:30.090,97.917
19,7 Aug 2023 21:36:38.609,7 Aug 2023 21:37:27.386,48.777
20,7 Aug 2023 23:09:31.126,7 Aug 2023 23:11:19.154,108.028
21,8 Aug 2023 00:43:06.376,8 Aug 2023 00:44:54.876,108.500
22,8 Aug 2023 02:17:01.887,8 Aug 2023 02:17:42.900,41.013

"Access","Start Time (UTCG)","Stop Time (UTCG)","Duration (sec)"
1,2 Aug 2023 00:27:54.534,2 Aug 2023 00:29:29.032,94.498
2,2 Aug 2023 02:01:16.889,2 Aug 2023 02:02:59.432,102.543
3,2 Aug 2023 03:34:46.228,2 Aug 2023 03:36:40.059,113.831
4,3 Aug 2023 00:22:27.750,3 Aug 2023 00:24:21.034,113.284
5,3 Aug 2023 01:56:05.784,3 Aug 2023 01:57:44.114,98.331
6,3 Aug 2023 03:29:29.620,3 Aug 2023 03:31:26.535,116.915
7,4 Aug 2023 00:17:09.934,4 Aug 2023 00:19:06.774,116.840
8,4 Aug 2023 01:50:52.512,4 Aug 2023 01:52:31.228,98.716
9,4 Aug 2023 03:24:16.026,4 Aug 2023 03:26:07.662,111.636
10,5 Aug 2023 00:11:56.993,5 Aug 2023 00:13:49.915,112.922
11,5 Aug 2023 01:45:36.854,5 Aug 2023 01:47:20.364,103.510
12,5 Aug 2023 03:19:09.674,5 Aug 2023 03:20:38.777,89.103
13,5 Aug 2023 22:33:40.588,5 Aug 2023 22:34:51.025,70.437
14,6 Aug 2023 00:06:46.382,6 Aug 2023 00:08:32.491,106.110
15,6 Aug 2023 01:40:19.657,6 Aug 2023 01:42:10.060,110.403
16,6 Aug 2023 22:28:04.728,6 Aug 2023 22:29:50.475,105.747
17,7 Aug 2023 00:01:35.952,7 Aug 2023 00:03:16.096,100.144
18,7 Aug 2023 01:35:02.366,7 Aug 2023 01:36:58.292,115.926
19,7 Aug 2023 22:22:42.753,7 Aug 2023 22:24:38.947,116.194
20,7 Aug 2023 23:56:23.966,7 Aug 2023 23:58:01.855,97.889
21,8 Aug 2023 01:29:46.801,8 Aug 2023 01:31:42.721,115.921

