STK/general_shapes/access_sensors/SSO_2x10_S21_300_1.6+RCO_2x5_50_300_1.6.csv

"Access","Start Time (UTCG)","Stop Time (UTCG)","Duration (sec)"
1,1 May 2023 10:31:28.773,1 May 2023 10:32:41.892,73.120
2,1 May 2023 20:43:38.769,1 May 2023 20:48:29.556,290.788
3,2 May 2023 09:13:13.423,2 May 2023 09:15:53.003,159.580
4,2 May 2023 20:54:00.748,2 May 2023 20:58:49.648,288.900
5,3 May 2023 09:21:45.360,3 May 2023 09:26:14.295,268.934
6,3 May 2023 21:04:21.781,3 May 2023 21:09:08.875,287.094
7,4 May 2023 09:31:49.618,4 May 2023 09:36:34.127,284.509
8,4 May 2023 21:14:41.945,4 May 2023 21:19:19.575,277.630
9,5 May 2023 09:42:07.036,5 May 2023 09:46:54.834,287.798
10,5 May 2023 21:25:01.226,5 May 2023 21:28:42.928,221.702
11,6 May 2023 09:52:26.599,6 May 2023 09:57:16.432,289.833
12,6 May 2023 20:08:47.368,6 May 2023 20:09:15.120,27.751
13,6 May 2023 21:35:41.030,6 May 2023 21:36:12.811,31.780

"Access","Start Time (UTCG)","Stop Time (UTCG)","Duration (sec)"
1,1 May 2023 21:28:59.277,1 May 2023 21:31:39.001,159.724
2,2 May 2023 09:56:22.846,2 May 2023 10:01:13.512,290.666
3,2 May 2023 20:12:10.473,2 May 2023 20:13:22.806,72.333
4,3 May 2023 10:06:43.496,3 May 2023 10:11:28.723,285.227
5,3 May 2023 20:20:48.749,3 May 2023 20:23:49.784,181.035
6,4 May 2023 10:17:05.005,4 May 2023 10:20:52.656,227.652
7,4 May 2023 20:29:36.165,4 May 2023 20:34:11.854,275.689
8,5 May 2023 10:27:28.011,5 May 2023 10:29:21.759,113.748
9,5 May 2023 20:39:41.889,5 May 2023 20:44:33.094,291.205
10,6 May 2023 09:10:23.187,6 May 2023 09:11:49.672,86.486
11,6 May 2023 20:50:03.896,6 May 2023 20:54:53.480,289.585
12,7 May 2023 09:18:05.226,7 May 2023 09:22:18.392,253.166

"Access","Start Time (UTCG)","Stop Time (UTCG)","Duration (sec)"
1,1 May 2023 12:02:03.483,1 May 2023 12:06:50.488,287.005
2,1 May 2023 23:44:57.598,1 May 2023 23:49:20.195,262.597
3,2 May 2023 12:12:22.825,2 May 2023 12:17:11.829,289.004
4,2 May 2023 23:55:22.350,2 May 2023 23:57:22.201,119.850
5,3 May 2023 12:22:42.974,3 May 2023 12:27:34.129,291.155
6,3 May 2023 22:38:10.373,3 May 2023 22:39:45.713,95.340
7,4 May 2023 12:33:03.943,4 May 2023 12:37:43.659,279.716
8,4 May 2023 22:46:42.807,4 May 2023 22:50:10.278,207.471
9,5 May 2023 12:43:25.755,5 May 2023 12:46:42.125,196.371
10,5 May 2023 22:55:50.397,5 May 2023 23:00:32.259,281.862
11,6 May 2023 12:53:51.097,6 May 2023 12:55:16.879,85.781
12,6 May 2023 23:06:02.386,6 May 2023 23:10:53.410,291.024

"Access","Start Time (UTCG)","Stop Time (UTCG)","Duration (sec)"
1,1 May 2023 12:47:22.461,1 May 2023 12:49:56.310,153.848
2,1 May 2023 22:59:40.335,1 May 2023 23:04:28.611,288.276
3,2 May 2023 12:57:54.804,2 May 2023 12:58:39.499,44.696
4,2 May 2023 23:09:59.131,2 May 2023 23:14:49.450,290.319
5,3 May 2023 11:38:52.603,3 May 2023 11:42:14.647,202.045
6,3 May 2023 23:20:20.991,3 May 2023 23:25:09.465,288.474
7,4 May 2023 11:47:59.346,4 May 2023 11:52:34.245,274.900
8,4 May 2023 23:30:41.924,4 May 2023 23:35:28.037,286.113
9,5 May 2023 11:58:08.347,5 May 2023 12:02:54.393,286.046
10,5 May 2023 23:41:01.982,5 May 2023 23:45:35.385,273.402
11,6 May 2023 12:08:27.143,6 May 2023 12:13:15.406,288.262
12,6 May 2023 23:51:22.057,6 May 2023 23:54:28.528,186.471

"Access","Start Time (UTCG)","Stop Time (UTCG)","Duration (sec)"
1,1 May 2023 15:03:20.797,1 May 2023 15:07:27.221,246.425
2,2 May 2023 01:15:58.327,2 May 2023 01:20:27.432,269.105
3,2 May 2023 15:13:43.290,2 May 2023 15:15:52.017,128.727
4,3 May 2023 01:25:58.485,3 May 2023 01:30:48.921,290.436
5,3 May 2023 13:57:05.360,3 May 2023 13:58:00.494,55.134
6,3 May 2023 15:24:28.775,3 May 2023 15:24:38.317,9.542
7,4 May 2023 01:36:19.671,4 May 2023 01:41:09.535,289.864
8,4 May 2023 14:04:37.760,4 May 2023 14:08:34.783,237.023
9,5 May 2023 01:46:41.304,5 May 2023 01:51:29.378,288.074
10,5 May 2023 14:14:15.382,5 May 2023 14:18:54.213,278.831
11,6 May 2023 01:57:02.027,6 May 2023 02:01:46.500,284.473
12,6 May 2023 14:24:27.806,6 May 2023 14:29:14.551,286.745
13,7 May 2023 02:07:21.870,7 May 2023 02:11:49.254,267.384

"Access","Start Time (UTCG)","Stop Time (UTCG)","Duration (sec)"
1,1 May 2023 14:18:06.800,1 May 2023 14:22:50.092,283.292
2,2 May 2023 02:00:57.930,2 May 2023 02:05:38.310,280.380
3,2 May 2023 14:28:23.283,2 May 2023 14:33:10.752,287.469
4,3 May 2023 02:11:17.433,3 May 2023 02:15:25.083,247.650
5,3 May 2023 14:38:42.813,3 May 2023 14:43:32.302,289.488
6,4 May 2023 02:21:48.617,4 May 2023 02:23:00.369,71.752
7,4 May 2023 14:49:03.132,4 May 2023 14:53:53.974,290.843
8,5 May 2023 01:04:07.555,5 May 2023 01:06:07.810,120.254
9,5 May 2023 14:59:24.295,5 May 2023 15:03:56.697,272.402
10,6 May 2023 01:12:34.214,6 May 2023 01:16:30.829,236.614
11,6 May 2023 15:09:46.285,6 May 2023 15:12:35.860,169.576
12,7 May 2023 01:22:06.267,7 May 2023 01:26:52.614,286.346

"Access","Start Time (UTCG)","Stop Time (UTCG)","Duration (sec)"
1,1 May 2023 16:34:19.313,1 May 2023 16:38:49.877,270.564
2,2 May 2023 04:16:57.457,2 May 2023 04:21:44.310,286.853
3,2 May 2023 16:44:24.793,2 May 2023 16:49:09.758,284.965
4,3 May 2023 04:27:17.551,3 May 2023 04:31:53.932,276.381
5,3 May 2023 16:54:42.569,3 May 2023 16:59:30.494,287.925
6,4 May 2023 04:37:36.867,4 May 2023 04:41:08.022,211.155
7,4 May 2023 17:05:02.167,4 May 2023 17:09:52.145,289.978
8,5 May 2023 03:21:17.160,5 May 2023 03:21:53.962,36.803
9,5 May 2023 04:48:24.162,5 May 2023 04:48:35.513,11.351
10,5 May 2023 17:15:22.530,5 May 2023 17:20:12.049,289.519
11,6 May 2023 03:30:02.406,6 May 2023 03:32:28.320,145.914
12,6 May 2023 17:25:43.754,6 May 2023 17:30:06.679,262.925
13,7 May 2023 03:38:28.990,7 May 2023 03:42:50.644,261.653

"Access","Start Time (UTCG)","Stop Time (UTCG)","Duration (sec)"
1,1 May 2023 17:19:19.183,1 May 2023 17:24:03.212,284.029
2,2 May 2023 03:33:16.413,2 May 2023 03:36:25.607,189.194
3,2 May 2023 17:29:40.711,2 May 2023 17:33:20.451,219.741
4,3 May 2023 03:42:09.786,3 May 2023 03:46:47.589,277.802
5,3 May 2023 17:40:04.092,3 May 2023 17:41:51.260,107.168
6,4 May 2023 03:52:17.459,4 May 2023 03:57:08.763,291.304
7,4 May 2023 16:22:47.573,4 May 2023 16:24:26.969,99.396
8,5 May 2023 04:02:39.590,5 May 2023 04:07:29.077,289.487
9,5 May 2023 16:30:36.937,5 May 2023 16:34:53.892,256.955
10,6 May 2023 04:13:00.906,6 May 2023 04:17:48.620,287.714
11,6 May 2023 16:40:32.022,6 May 2023 16:45:13.412,281.390
12,7 May 2023 04:23:21.328,7 May 2023 04:28:03.412,282.084

"Access","Start Time (UTCG)","Stop Time (UTCG)","Duration (sec)"
1,1 May 2023 19:35:17.396,1 May 2023 19:40:08.730,291.334
2,2 May 2023 05:50:34.583,2 May 2023 05:52:21.834,107.252
3,2 May 2023 19:45:38.083,2 May 2023 19:50:17.697,279.614
4,3 May 2023 05:59:06.546,3 May 2023 06:02:45.163,218.616
5,3 May 2023 19:55:59.590,3 May 2023 19:59:16.763,197.173
6,4 May 2023 06:08:23.093,4 May 2023 06:13:06.767,283.674
7,4 May 2023 20:06:24.223,4 May 2023 20:07:53.007,88.784
8,5 May 2023 06:18:36.504,5 May 2023 06:23:27.557,291.053
9,5 May 2023 18:48:35.401,5 May 2023 18:50:48.913,133.513
10,6 May 2023 06:28:58.365,6 May 2023 06:33:47.521,289.156
11,6 May 2023 18:56:47.926,6 May 2023 19:01:11.891,263.965
12,7 May 2023 06:39:19.314,7 May 2023 06:44:06.700,287.386

"Access","Start Time (UTCG)","Stop Time (UTCG)","Duration (sec)"
1,1 May 2023 18:51:27.571,1 May 2023 18:54:49.281,201.710
2,2 May 2023 06:32:55.835,2 May 2023 06:37:44.266,288.430
3,2 May 2023 19:00:33.975,2 May 2023 19:05:08.559,274.584
4,3 May 2023 06:43:16.421,3 May 2023 06:48:01.936,285.515
5,3 May 2023 19:10:42.393,3 May 2023 19:15:28.443,286.050
6,4 May 2023 06:53:36.156,4 May 2023 06:58:07.130,270.973
7,4 May 2023 19:21:00.822,4 May 2023 19:25:49.188,288.367
8,5 May 2023 07:03:56.448,5 May 2023 07:06:48.825,172.377
9,5 May 2023 19:31:20.389,5 May 2023 19:36:10.848,290.459
10,6 May 2023 05:47:14.857,6 May 2023 05:48:19.406,64.548
11,6 May 2023 19:41:40.726,6 May 2023 19:46:28.292,287.566
12,7 May 2023 05:55:56.113,7 May 2023 05:58:47.294,171.181

"Access","Start Time (UTCG)","Stop Time (UTCG)","Duration (sec)"
1,1 May 2023 21:09:41.971,1 May 2023 21:10:32.659,50.688
2,1 May 2023 22:36:55.020,1 May 2023 22:37:17.516,22.495
3,2 May 2023 08:48:52.909,2 May 2023 08:53:42.809,289.900
4,2 May 2023 21:17:19.434,2 May 2023 21:21:07.187,227.753
5,3 May 2023 08:59:14.020,3 May 2023 09:04:02.113,288.093
6,3 May 2023 21:26:48.559,3 May 2023 21:31:26.193,277.634
7,4 May 2023 09:09:34.252,4 May 2023 09:14:17.734,283.482
8,4 May 2023 21:36:59.320,4 May 2023 21:41:46.076,286.756
9,5 May 2023 09:19:53.623,5 May 2023 09:24:17.387,263.764
10,5 May 2023 21:47:18.023,5 May 2023 21:52:06.822,288.800
11,6 May 2023 09:30:16.371,6 May 2023 09:32:29.442,133.071
12,6 May 2023 21:57:37.551,6 May 2023 22:02:28.478,290.927
13,7 May 2023 08:13:11.932,7 May 2023 08:14:40.556,88.623

"Access","Start Time (UTCG)","Stop Time (UTCG)","Duration (sec)"
1,1 May 2023 21:51:15.379,1 May 2023 21:56:05.063,289.685
2,2 May 2023 08:07:39.326,2 May 2023 08:08:02.797,23.471
3,2 May 2023 09:34:25.997,2 May 2023 09:35:13.474,47.477
4,2 May 2023 22:01:35.233,2 May 2023 22:06:26.422,291.189
5,3 May 2023 08:16:28.857,3 May 2023 08:18:41.405,132.547
6,3 May 2023 22:11:55.889,3 May 2023 22:16:29.993,274.104
7,4 May 2023 08:24:56.225,4 May 2023 08:29:03.540,247.315
8,4 May 2023 22:22:17.376,4 May 2023 22:25:14.667,177.290
9,5 May 2023 08:34:37.221,5 May 2023 08:39:24.786,287.564
10,5 May 2023 22:32:43.820,5 May 2023 22:33:55.648,71.828
11,6 May 2023 08:44:54.496,6 May 2023 08:49:45.217,290.721
12,6 May 2023 21:14:25.979,6 May 2023 21:17:08.241,162.263
13,7 May 2023 08:55:16.010,7 May 2023 09:00:04.843,288.833

"Access","Start Time (UTCG)","Stop Time (UTCG)","Duration (sec)"
1,1 May 2023 11:39:49.122,1 May 2023 11:44:22.552,273.430
2,2 May 2023 00:07:13.383,2 May 2023 00:12:01.442,288.058
3,2 May 2023 11:50:08.313,2 May 2023 11:53:20.162,191.849
4,3 May 2023 00:17:32.526,3 May 2023 00:22:22.654,290.128
5,3 May 2023 10:33:37.852,3 May 2023 10:34:29.317,51.465
6,4 May 2023 00:27:52.406,4 May 2023 00:32:42.520,290.114
7,4 May 2023 10:42:23.411,4 May 2023 10:44:59.291,155.880
8,5 May 2023 00:38:13.138,5 May 2023 00:42:39.371,266.233
9,5 May 2023 10:50:55.595,5 May 2023 10:55:21.088,265.493
10,6 May 2023 00:48:34.650,6 May 2023 00:51:12.041,157.390
11,6 May 2023 11:00:52.059,6 May 2023 11:05:42.058,289.999
12,7 May 2023 00:59:04.208,7 May 2023 00:59:57.413,53.205

"Access","Start Time (UTCG)","Stop Time (UTCG)","Duration (sec)"
1,1 May 2023 10:54:38.738,1 May 2023 10:59:19.665,280.927
2,2 May 2023 00:52:34.280,2 May 2023 00:54:26.385,112.105
3,2 May 2023 11:04:48.820,2 May 2023 11:09:40.296,291.477
4,2 May 2023 23:35:25.443,2 May 2023 23:36:56.832,91.389
5,3 May 2023 11:15:10.562,3 May 2023 11:20:00.085,289.523
6,3 May 2023 23:43:12.572,3 May 2023 23:47:24.111,251.539
7,4 May 2023 11:25:31.378,4 May 2023 11:30:19.130,287.752
8,4 May 2023 23:53:02.898,4 May 2023 23:57:43.184,280.286
9,5 May 2023 11:35:51.333,5 May 2023 11:40:32.240,280.907
10,6 May 2023 00:03:15.947,6 May 2023 00:08:03.130,287.183
11,6 May 2023 11:46:10.418,6 May 2023 11:50:22.902,252.484
12,7 May 2023 00:13:34.731,7 May 2023 00:18:23.939,289.207

"Access","Start Time (UTCG)","Stop Time (UTCG)","Duration (sec)"
1,1 May 2023 13:11:26.243,1 May 2023 13:15:15.785,229.542
2,2 May 2023 03:08:29.267,2 May 2023 03:11:46.290,197.023
3,2 May 2023 13:20:51.765,2 May 2023 13:25:37.045,285.280
4,3 May 2023 03:18:53.361,3 May 2023 03:20:24.010,90.649
5,3 May 2023 13:31:06.441,3 May 2023 13:35:57.504,291.063
6,4 May 2023 02:01:07.339,4 May 2023 02:03:18.247,130.909
7,4 May 2023 13:41:28.006,4 May 2023 13:46:17.150,289.144
8,5 May 2023 02:09:18.424,5 May 2023 02:13:41.036,262.612
9,5 May 2023 13:51:48.640,5 May 2023 13:56:35.934,287.294
10,6 May 2023 02:19:17.557,6 May 2023 02:24:00.320,282.763
11,6 May 2023 14:02:08.428,6 May 2023 14:06:46.244,277.816
12,7 May 2023 02:29:32.846,7 May 2023 02:34:20.448,287.602

"Access","Start Time (UTCG)","Stop Time (UTCG)","Duration (sec)"
1,1 May 2023 13:55:46.689,1 May 2023 14:00:31.452,284.763
2,2 May 2023 02:23:12.224,2 May 2023 02:27:58.309,286.086
3,2 May 2023 14:06:06.116,2 May 2023 14:10:34.373,268.257
4,3 May 2023 02:33:30.333,3 May 2023 02:38:18.809,288.477
5,3 May 2023 14:16:26.801,3 May 2023 14:19:05.301,158.500
6,4 May 2023 02:43:49.636,4 May 2023 02:48:40.223,290.587
7,4 May 2023 12:59:37.196,4 May 2023 13:00:50.773,73.577
8,5 May 2023 02:54:09.700,5 May 2023 02:58:57.563,287.864
9,5 May 2023 13:08:18.395,5 May 2023 13:11:16.932,178.537
10,6 May 2023 03:04:30.598,6 May 2023 03:08:40.117,249.519
11,6 May 2023 13:17:04.286,6 May 2023 13:21:38.558,274.272
12,7 May 2023 03:14:52.335,7 May 2023 03:17:07.694,135.359

"Access","Start Time (UTCG)","Stop Time (UTCG)","Duration (sec)"
1,1 May 2023 16:11:43.949,1 May 2023 16:16:31.945,287.997
2,2 May 2023 04:39:17.522,2 May 2023 04:43:56.087,278.565
3,2 May 2023 16:22:04.154,2 May 2023 16:26:47.100,282.946
4,3 May 2023 04:49:29.139,3 May 2023 04:54:16.038,286.899
5,3 May 2023 16:32:23.502,3 May 2023 16:36:45.249,261.747
6,4 May 2023 04:59:47.943,4 May 2023 05:04:36.851,288.908
7,4 May 2023 16:42:47.186,4 May 2023 16:44:50.529,123.342
8,5 May 2023 05:10:07.531,5 May 2023 05:14:58.580,291.049
9,5 May 2023 15:25:37.000,5 May 2023 15:27:11.103,94.103
10,6 May 2023 05:20:27.909,6 May 2023 05:25:11.761,283.852
11,6 May 2023 15:34:13.021,6 May 2023 15:37:35.184,202.164
12,7 May 2023 05:30:49.111,7 May 2023 05:34:28.642,219.531

"Access","Start Time (UTCG)","Stop Time (UTCG)","Duration (sec)"
1,1 May 2023 15:28:53.538,1 May 2023 15:31:11.456,137.918
2,2 May 2023 05:24:25.911,2 May 2023 05:28:57.856,271.945
3,2 May 2023 15:37:19.654,2 May 2023 15:41:33.534,253.880
4,3 May 2023 05:34:47.444,3 May 2023 05:37:38.120,170.676
5,3 May 2023 15:47:06.489,3 May 2023 15:51:54.758,288.269
6,4 May 2023 05:45:14.891,4 May 2023 05:46:20.353,65.462
7,4 May 2023 15:57:24.548,4 May 2023 16:02:15.161,290.614
8,5 May 2023 04:26:46.424,5 May 2023 04:29:38.690,172.266
9,5 May 2023 16:07:46.018,5 May 2023 16:12:34.765,288.748
10,6 May 2023 04:35:28.522,6 May 2023 04:39:58.785,270.263
11,6 May 2023 16:18:06.592,6 May 2023 16:22:52.960,286.368
12,7 May 2023 04:45:33.451,7 May 2023 04:50:18.374,284.923

"Access","Start Time (UTCG)","Stop Time (UTCG)","Duration (sec)"
1,1 May 2023 17:46:08.317,1 May 2023 17:46:59.646,51.329
2,2 May 2023 07:40:23.758,2 May 2023 07:45:12.686,288.928
3,2 May 2023 17:54:52.005,2 May 2023 17:57:30.074,158.070
4,3 May 2023 07:50:44.867,3 May 2023 07:55:03.674,258.807
5,3 May 2023 18:03:24.792,3 May 2023 18:07:52.147,267.355
6,4 May 2023 08:01:06.816,4 May 2023 08:03:29.440,142.624
7,4 May 2023 18:13:23.157,4 May 2023 18:18:13.397,290.240
8,5 May 2023 06:44:52.842,5 May 2023 06:45:16.565,23.722
9,5 May 2023 08:11:41.636,5 May 2023 08:12:16.244,34.608
10,5 May 2023 18:23:43.696,5 May 2023 18:28:33.795,290.099
11,6 May 2023 06:52:23.814,6 May 2023 06:55:58.637,214.824
12,6 May 2023 18:34:05.129,6 May 2023 18:38:53.421,288.292
13,7 May 2023 07:01:41.545,7 May 2023 07:06:17.785,276.239

"Access","Start Time (UTCG)","Stop Time (UTCG)","Duration (sec)"
1,1 May 2023 18:27:41.277,1 May 2023 18:32:30.618,289.340
2,2 May 2023 06:55:35.522,2 May 2023 06:59:55.094,259.572
3,2 May 2023 18:38:02.336,2 May 2023 18:42:49.923,287.587
4,3 May 2023 07:05:32.557,3 May 2023 07:10:14.544,281.987
5,3 May 2023 18:48:22.527,3 May 2023 18:53:03.197,280.670
6,4 May 2023 07:15:47.536,4 May 2023 07:20:34.865,287.329
7,4 May 2023 18:58:41.851,4 May 2023 19:02:52.375,250.524
8,5 May 2023 07:26:06.711,5 May 2023 07:30:56.062,289.352
9,5 May 2023 19:09:10.844,5 May 2023 19:10:33.613,82.769
10,6 May 2023 07:36:26.668,6 May 2023 07:41:17.996,291.328
11,6 May 2023 17:51:36.273,6 May 2023 17:53:31.621,115.348
12,7 May 2023 07:46:47.452,7 May 2023 07:51:24.649,277.197

"Access","Start Time (UTCG)","Stop Time (UTCG)","Duration (sec)"
1,1 May 2023 10:13:56.590,1 May 2023 10:17:56.738,240.148
2,1 May 2023 11:49:10.097,1 May 2023 11:52:31.003,200.906
3,1 May 2023 13:23:34.212,1 May 2023 13:26:53.289,199.077
4,1 May 2023 14:58:04.522,1 May 2023 15:01:58.116,233.595
5,1 May 2023 16:33:46.354,1 May 2023 16:34:22.113,35.759
6,2 May 2023 08:49:05.235,2 May 2023 08:51:11.335,126.100
7,2 May 2023 10:22:43.969,2 May 2023 10:26:25.050,221.081
8,2 May 2023 11:57:32.511,2 May 2023 12:00:48.921,196.410
9,2 May 2023 13:31:52.869,2 May 2023 13:35:19.595,206.726
10,2 May 2023 15:06:38.855,2 May 2023 15:10:38.165,239.310
11,3 May 2023 08:56:04.829,3 May 2023 08:59:59.047,234.218
12,3 May 2023 10:31:19.431,3 May 2023 10:34:47.324,207.893
13,3 May 2023 12:05:51.507,3 May 2023 12:09:07.665,196.159
14,3 May 2023 13:40:14.629,3 May 2023 13:43:53.964,219.335
15,3 May 2023 15:15:24.989,3 May 2023 15:17:44.499,139.509
16,4 May 2023 09:04:38.587,4 May 2023 09:08:34.510,235.924
17,4 May 2023 10:39:46.507,4 May 2023 10:43:06.212,199.704
18,4 May 2023 12:14:09.383,4 May 2023 12:17:29.561,200.179
19,4 May 2023 13:48:42.124,4 May 2023 13:52:39.789,237.665
20,5 May 2023 07:39:24.264,5 May 2023 07:41:53.427,149.163
21,5 May 2023 09:13:23.324,5 May 2023 09:17:01.441,218.117
22,5 May 2023 10:48:08.070,5 May 2023 10:51:24.075,196.005
23,5 May 2023 12:22:28.446,5 May 2023 12:25:57.222,208.776
24,5 May 2023 13:57:18.453,5 May 2023 14:01:07.879,229.426
25,6 May 2023 07:46:36.432,6 May 2023 07:50:38.442,242.010
26,6 May 2023 09:21:56.936,6 May 2023 09:25:22.841,205.905
27,6 May 2023 10:56:26.652,6 May 2023 10:59:43.268,196.616
28,6 May 2023 12:30:51.120,6 May 2023 12:34:33.525,222.405
29,6 May 2023 14:06:07.332,6 May 2023 14:08:03.745,116.413
30,7 May 2023 06:22:45.049,7 May 2023 06:23:36.782,51.733
31,7 May 2023 07:55:20.003,7 May 2023 07:59:11.979,231.976
32,7 May 2023 09:30:22.704,7 May 2023 09:33:41.360,198.656

"Access","Start Time (UTCG)","Stop Time (UTCG)","Duration (sec)"
1,1 May 2023 11:01:43.622,1 May 2023 11:05:18.759,215.137
2,1 May 2023 12:36:24.616,1 May 2023 12:39:40.411,195.795
3,1 May 2023 14:10:45.291,1 May 2023 14:14:16.452,211.161
4,1 May 2023 15:45:39.978,1 May 2023 15:49:10.497,210.519
5,2 May 2023 09:34:53.097,2 May 2023 09:38:58.731,245.635
6,2 May 2023 11:10:15.344,2 May 2023 11:13:39.367,204.023
7,2 May 2023 12:44:42.877,2 May 2023 12:48:00.135,197.259
8,2 May 2023 14:19:09.016,2 May 2023 14:22:55.009,225.993
9,2 May 2023 15:54:31.979,2 May 2023 15:56:03.499,91.520
10,3 May 2023 08:10:45.637,3 May 2023 08:12:03.557,77.920
11,3 May 2023 09:43:42.344,3 May 2023 09:47:30.380,228.036
12,3 May 2023 11:18:39.876,3 May 2023 11:21:57.554,197.679
13,3 May 2023 12:53:00.949,3 May 2023 12:56:24.039,203.090
14,3 May 2023 14:27:39.675,3 May 2023 14:31:45.335,245.660
15,4 May 2023 08:17:40.334,4 May 2023 08:20:57.357,197.023
16,4 May 2023 09:52:22.185,4 May 2023 09:55:54.732,212.547
17,4 May 2023 11:26:59.942,4 May 2023 11:30:15.703,195.761
18,4 May 2023 13:01:21.175,4 May 2023 13:04:54.778,213.604
19,4 May 2023 14:36:20.553,4 May 2023 14:39:27.885,187.332
20,5 May 2023 08:25:32.529,5 May 2023 08:29:37.283,244.754
21,5 May 2023 10:00:52.241,5 May 2023 10:04:14.684,202.443
22,5 May 2023 11:35:18.010,5 May 2023 11:38:36.046,198.036
23,5 May 2023 13:09:46.003,5 May 2023 13:13:35.549,229.546
24,5 May 2023 14:45:15.692,5 May 2023 14:46:23.780,68.088
25,6 May 2023 07:01:05.698,6 May 2023 07:02:46.978,101.280
26,6 May 2023 08:34:22.681,6 May 2023 08:38:07.249,224.568
27,6 May 2023 10:09:15.715,6 May 2023 10:12:32.698,196.984
28,6 May 2023 11:43:36.312,6 May 2023 11:47:01.045,204.733
29,6 May 2023 13:18:18.371,6 May 2023 13:22:23.140,244.769
30,7 May 2023 07:07:58.307,7 May 2023 07:11:37.751,219.444
31,7 May 2023 08:43:00.341,7 May 2023 08:46:30.547,210.205

"Access","Start Time (UTCG)","Stop Time (UTCG)","Duration (sec)"
1,1 May 2023 14:44:32.666,1 May 2023 14:48:38.917,246.251
2,1 May 2023 16:19:54.838,1 May 2023 16:23:18.160,203.322
3,1 May 2023 17:54:21.344,1 May 2023 17:57:38.486,197.142
4,1 May 2023 19:28:47.371,1 May 2023 19:32:34.011,226.641
5,1 May 2023 21:04:11.535,1 May 2023 21:05:40.077,88.542
6,2 May 2023 13:20:19.533,2 May 2023 13:21:46.215,86.682
7,2 May 2023 14:53:23.988,2 May 2023 14:57:10.910,226.922
8,2 May 2023 16:28:19.872,2 May 2023 16:31:37.086,197.213
9,2 May 2023 18:02:40.248,2 May 2023 18:06:03.443,203.195
10,2 May 2023 19:37:19.229,2 May 2023 19:41:25.440,246.211
11,3 May 2023 13:27:14.286,3 May 2023 13:30:40.054,205.768
12,3 May 2023 15:02:04.077,3 May 2023 15:05:35.760,211.683
13,3 May 2023 16:36:40.568,3 May 2023 16:39:56.047,195.479
14,3 May 2023 18:11:01.393,3 May 2023 18:14:35.373,213.980
15,3 May 2023 19:46:01.465,3 May 2023 19:49:06.281,184.816
16,4 May 2023 13:35:16.558,4 May 2023 13:39:20.217,243.659
17,4 May 2023 15:10:34.543,4 May 2023 15:13:56.343,201.799
18,4 May 2023 16:44:59.360,4 May 2023 16:48:17.330,197.970
19,4 May 2023 18:19:27.287,4 May 2023 18:23:17.480,230.193
20,4 May 2023 19:54:58.184,4 May 2023 19:56:03.641,65.457
21,5 May 2023 12:10:42.625,5 May 2023 12:12:32.243,109.619
22,5 May 2023 13:44:07.030,5 May 2023 13:47:50.573,223.542
23,5 May 2023 15:18:58.554,5 May 2023 15:22:15.107,196.553
24,5 May 2023 16:53:18.521,5 May 2023 16:56:43.387,204.865
25,5 May 2023 18:28:00.842,5 May 2023 18:32:05.735,244.893
26,6 May 2023 12:17:37.572,6 May 2023 12:21:23.125,225.553
27,6 May 2023 13:52:44.993,6 May 2023 13:56:14.426,209.433
28,6 May 2023 15:27:18.718,6 May 2023 15:30:34.314,195.596
29,6 May 2023 17:01:40.362,6 May 2023 17:05:17.005,216.643
30,6 May 2023 18:36:45.533,6 May 2023 18:39:27.632,162.099

"Access","Start Time (UTCG)","Stop Time (UTCG)","Duration (sec)"
1,1 May 2023 13:58:37.685,1 May 2023 14:00:52.660,134.975
2,1 May 2023 15:32:24.330,1 May 2023 15:36:04.417,220.088
3,1 May 2023 17:07:11.382,1 May 2023 17:10:27.379,195.997
4,1 May 2023 18:41:31.172,1 May 2023 18:44:58.114,206.942
5,1 May 2023 20:16:17.594,1 May 2023 20:20:16.325,238.731
6,2 May 2023 14:05:42.403,2 May 2023 14:09:40.483,238.081
7,2 May 2023 15:41:00.118,2 May 2023 15:44:27.219,207.101
8,2 May 2023 17:15:31.044,2 May 2023 17:18:47.006,195.962
9,2 May 2023 18:49:53.907,2 May 2023 18:53:33.732,219.825
10,2 May 2023 20:25:05.205,2 May 2023 20:27:22.009,136.804
11,3 May 2023 12:42:06.155,3 May 2023 12:42:27.585,21.430
12,3 May 2023 14:14:21.499,3 May 2023 14:18:16.246,234.747
13,3 May 2023 15:49:27.645,3 May 2023 15:52:46.791,199.146
14,3 May 2023 17:23:49.705,3 May 2023 17:27:09.891,200.186
15,3 May 2023 18:58:22.519,3 May 2023 19:02:21.010,238.491
16,4 May 2023 12:48:59.734,4 May 2023 12:51:37.408,157.674
17,4 May 2023 14:23:06.432,4 May 2023 14:26:43.617,217.185
18,4 May 2023 15:57:49.803,4 May 2023 16:01:05.446,195.643
19,4 May 2023 17:32:09.653,4 May 2023 17:35:38.668,209.015
20,4 May 2023 19:07:00.124,4 May 2023 19:10:48.429,228.305
21,5 May 2023 12:56:18.420,5 May 2023 13:00:22.602,244.182
22,5 May 2023 14:31:40.412,5 May 2023 14:35:05.601,205.189
23,5 May 2023 16:06:09.077,5 May 2023 16:09:25.522,196.445
24,5 May 2023 17:40:33.323,5 May 2023 17:44:16.230,222.907
25,5 May 2023 19:15:50.451,5 May 2023 19:17:44.523,114.072
26,6 May 2023 11:32:23.321,6 May 2023 11:33:24.216,60.895
27,6 May 2023 13:05:05.585,6 May 2023 13:08:56.490,230.905
28,6 May 2023 14:40:06.677,6 May 2023 14:43:24.826,198.149
29,6 May 2023 16:14:27.824,6 May 2023 16:17:49.340,201.516
30,6 May 2023 17:49:03.374,6 May 2023 17:53:06.167,242.792

"Access","Start Time (UTCG)","Stop Time (UTCG)","Duration (sec)"
1,1 May 2023 19:15:18.117,1 May 2023 19:19:17.955,239.839
2,1 May 2023 20:50:37.125,1 May 2023 20:54:03.749,206.624
3,1 May 2023 22:25:07.562,1 May 2023 22:28:23.761,196.199
4,1 May 2023 23:59:31.015,2 May 2023 00:03:11.798,220.783
5,2 May 2023 01:34:44.145,2 May 2023 01:36:53.218,129.073
6,2 May 2023 17:51:34.185,2 May 2023 17:52:11.408,37.223
7,2 May 2023 19:23:59.225,2 May 2023 19:27:52.855,233.630
8,2 May 2023 20:59:03.995,2 May 2023 21:02:22.937,198.942
9,2 May 2023 22:33:25.973,2 May 2023 22:36:46.645,200.672
10,3 May 2023 00:07:59.755,3 May 2023 00:11:59.564,239.809
11,3 May 2023 17:58:31.423,3 May 2023 18:01:14.778,163.356
12,3 May 2023 19:32:43.134,3 May 2023 19:36:19.587,216.453
13,3 May 2023 21:07:25.661,3 May 2023 21:10:41.342,195.680
14,3 May 2023 22:41:45.773,3 May 2023 22:45:15.530,209.757
15,4 May 2023 00:16:37.708,4 May 2023 00:20:20.860,223.152
16,4 May 2023 18:05:54.007,4 May 2023 18:09:58.923,244.916
17,4 May 2023 19:41:16.301,4 May 2023 19:44:41.079,204.777
18,4 May 2023 21:15:44.556,4 May 2023 21:19:01.275,196.718
19,4 May 2023 22:50:09.443,4 May 2023 22:53:53.425,223.982
20,5 May 2023 00:25:28.600,5 May 2023 00:27:14.751,106.151
21,5 May 2023 16:41:54.817,5 May 2023 16:43:01.696,66.878
22,5 May 2023 18:14:42.129,5 May 2023 18:18:32.017,229.888
23,5 May 2023 19:49:41.948,5 May 2023 19:52:59.929,197.981
24,5 May 2023 21:24:03.055,5 May 2023 21:27:25.115,202.060
25,5 May 2023 22:58:39.693,5 May 2023 23:02:43.900,244.208
26,6 May 2023 16:48:51.597,6 May 2023 16:51:57.783,186.187
27,6 May 2023 18:23:23.714,6 May 2023 18:26:57.509,213.796
28,6 May 2023 19:58:02.885,6 May 2023 20:01:18.461,195.576
29,6 May 2023 21:32:23.424,6 May 2023 21:35:55.461,212.037
30,6 May 2023 23:07:19.814,6 May 2023 23:10:41.982,202.168

"Access","Start Time (UTCG)","Stop Time (UTCG)","Duration (sec)"
1,1 May 2023 18:29:52.392,1 May 2023 18:31:24.785,92.393
2,1 May 2023 20:03:01.740,1 May 2023 20:06:47.738,225.998
3,1 May 2023 21:37:56.509,1 May 2023 21:41:13.594,197.085
4,1 May 2023 23:12:16.925,1 May 2023 23:15:40.692,203.768
5,2 May 2023 00:46:57.053,2 May 2023 00:51:03.103,246.051
6,2 May 2023 18:36:46.041,2 May 2023 18:40:17.441,211.399
7,2 May 2023 20:11:40.897,2 May 2023 20:15:12.007,211.110
8,2 May 2023 21:46:16.744,2 May 2023 21:49:32.344,195.600
9,2 May 2023 23:20:37.997,2 May 2023 23:24:12.831,214.835
10,3 May 2023 00:55:39.714,3 May 2023 00:58:36.698,176.984
11,3 May 2023 18:44:54.273,3 May 2023 18:48:56.682,242.409
12,3 May 2023 20:20:10.659,3 May 2023 20:23:32.132,201.473
13,3 May 2023 21:54:35.219,3 May 2023 21:57:53.565,198.346
14,3 May 2023 23:29:03.968,3 May 2023 23:32:55.332,231.364
15,4 May 2023 01:04:37.325,4 May 2023 01:05:34.583,57.258
16,4 May 2023 17:20:14.237,4 May 2023 17:22:09.619,115.382
17,4 May 2023 18:53:43.643,4 May 2023 18:57:26.297,222.653
18,4 May 2023 20:28:34.097,4 May 2023 20:31:50.592,196.495
19,4 May 2023 22:02:54.196,4 May 2023 22:06:19.678,205.483
20,4 May 2023 23:37:37.772,4 May 2023 23:41:41.134,243.362
21,5 May 2023 17:27:10.390,5 May 2023 17:30:59.374,228.985
22,5 May 2023 19:02:20.710,5 May 2023 19:05:49.590,208.880
23,5 May 2023 20:36:53.845,5 May 2023 20:40:09.623,195.777
24,5 May 2023 22:11:15.985,5 May 2023 22:14:53.559,217.574
25,5 May 2023 23:46:22.950,5 May 2023 23:48:57.117,154.168
26,6 May 2023 17:35:38.372,6 May 2023 17:39:36.481,238.109
27,6 May 2023 19:10:49.059,6 May 2023 19:14:09.209,200.150
28,6 May 2023 20:45:12.219,6 May 2023 20:48:31.585,199.366
29,6 May 2023 22:19:43.237,6 May 2023 22:23:38.470,235.233

"Access","Start Time (UTCG)","Stop Time (UTCG)","Duration (sec)"
1,1 May 2023 23:46:22.579,1 May 2023 23:49:55.336,212.756
2,2 May 2023 01:21:18.634,2 May 2023 01:24:49.552,210.918
3,2 May 2023 02:55:54.488,2 May 2023 02:59:10.475,195.987
4,2 May 2023 04:30:16.605,2 May 2023 04:33:52.366,215.760
5,2 May 2023 06:05:20.107,2 May 2023 06:08:08.147,168.039
6,2 May 2023 23:54:31.515,2 May 2023 23:58:33.135,241.620
7,3 May 2023 01:29:47.097,3 May 2023 01:33:08.595,201.498
8,3 May 2023 03:04:11.980,3 May 2023 03:07:30.913,198.933
9,3 May 2023 04:38:41.923,3 May 2023 04:42:34.428,232.505
10,3 May 2023 06:14:19.212,3 May 2023 06:15:05.135,45.922
11,3 May 2023 22:29:48.407,3 May 2023 22:31:45.618,117.211
12,4 May 2023 00:03:19.256,4 May 2023 00:07:01.452,222.196
13,4 May 2023 01:38:09.353,4 May 2023 01:41:26.085,196.731
14,4 May 2023 03:12:30.082,4 May 2023 03:15:56.375,206.292
15,4 May 2023 04:47:15.207,4 May 2023 04:51:15.881,240.674
16,4 May 2023 22:36:43.993,4 May 2023 22:40:33.726,229.734
17,5 May 2023 00:11:54.874,5 May 2023 00:15:23.571,208.698
18,5 May 2023 01:46:28.035,5 May 2023 01:49:44.262,196.227
19,5 May 2023 03:20:51.127,5 May 2023 03:24:29.720,218.593
20,5 May 2023 04:56:00.062,5 May 2023 04:58:24.840,144.777
21,5 May 2023 22:45:12.069,5 May 2023 22:49:09.361,237.292
22,6 May 2023 00:20:21.916,6 May 2023 00:23:42.132,200.216
23,6 May 2023 01:54:45.454,6 May 2023 01:58:05.455,200.001
24,6 May 2023 03:29:17.765,6 May 2023 03:33:14.287,236.523
25,6 May 2023 21:20:05.766,6 May 2023 21:22:26.280,140.514
26,6 May 2023 22:53:57.117,6 May 2023 22:57:36.249,219.131
27,7 May 2023 00:28:43.267,7 May 2023 00:31:59.550,196.283
28,7 May 2023 02:03:03.939,7 May 2023 02:06:32.242,208.303
29,7 May 2023 03:37:53.012,7 May 2023 03:41:44.942,231.930

"Access","Start Time (UTCG)","Stop Time (UTCG)","Duration (sec)"
1,1 May 2023 23:01:10.322,1 May 2023 23:01:50.912,40.591
2,2 May 2023 00:33:37.399,2 May 2023 00:37:30.441,233.041
3,2 May 2023 02:08:41.608,2 May 2023 02:12:00.677,199.069
4,2 May 2023 03:43:04.053,2 May 2023 03:46:25.360,201.307
5,2 May 2023 05:17:39.126,2 May 2023 05:21:40.146,241.019
6,2 May 2023 23:08:06.822,2 May 2023 23:10:51.703,164.881
7,3 May 2023 00:42:19.786,3 May 2023 00:45:55.918,216.131
8,3 May 2023 02:17:02.151,3 May 2023 02:20:18.158,196.008
9,3 May 2023 03:51:23.021,3 May 2023 03:54:53.637,210.616
10,3 May 2023 05:26:16.623,3 May 2023 05:29:52.382,215.759
11,3 May 2023 23:15:29.683,3 May 2023 23:19:34.294,244.611
12,4 May 2023 00:50:51.589,4 May 2023 00:54:16.295,204.706
13,4 May 2023 02:25:20.027,4 May 2023 02:28:37.256,197.229
14,4 May 2023 03:59:45.983,4 May 2023 04:03:31.053,225.070
15,4 May 2023 05:35:07.227,4 May 2023 05:36:44.206,96.979
16,4 May 2023 21:51:27.798,4 May 2023 21:52:36.850,69.052
17,4 May 2023 23:24:16.752,4 May 2023 23:28:06.020,229.269
18,5 May 2023 00:59:16.001,5 May 2023 01:02:34.108,198.106
19,5 May 2023 02:33:37.604,5 May 2023 02:37:00.386,202.781
20,5 May 2023 04:08:15.680,5 May 2023 04:12:20.696,245.016
21,5 May 2023 21:58:22.918,5 May 2023 22:01:31.148,188.230
22,5 May 2023 23:32:56.806,5 May 2023 23:36:30.257,213.451
23,6 May 2023 01:07:35.815,6 May 2023 01:10:51.747,195.932
24,6 May 2023 02:41:57.188,6 May 2023 02:45:30.188,213.000
25,6 May 2023 04:16:55.413,6 May 2023 04:20:07.918,192.506
26,6 May 2023 22:06:05.950,6 May 2023 22:10:11.303,245.353
27,6 May 2023 23:41:26.897,6 May 2023 23:44:49.961,203.064
28,7 May 2023 01:15:53.492,7 May 2023 01:19:11.438,197.946
29,7 May 2023 02:50:21.217,7 May 2023 02:54:09.814,228.598
30,7 May 2023 04:25:49.118,7 May 2023 04:27:02.539,73.421

"Access","Start Time (UTCG)","Stop Time (UTCG)","Duration (sec)"
1,1 May 2023 10:27:21.291,1 May 2023 10:31:23.013,241.723
2,2 May 2023 04:17:46.272,2 May 2023 04:20:33.295,167.023
3,2 May 2023 05:52:01.115,2 May 2023 05:55:36.950,215.835
4,2 May 2023 07:26:43.182,2 May 2023 07:29:59.284,196.101
5,2 May 2023 09:01:04.334,2 May 2023 09:04:35.380,211.046
6,2 May 2023 10:35:58.798,2 May 2023 10:39:30.095,211.297
7,3 May 2023 04:25:10.518,3 May 2023 04:29:15.202,244.683
8,3 May 2023 06:00:32.348,3 May 2023 06:03:56.915,204.566
9,3 May 2023 07:35:00.715,3 May 2023 07:38:18.162,197.447
10,3 May 2023 09:09:27.136,3 May 2023 09:13:12.805,225.668
11,3 May 2023 10:44:49.517,3 May 2023 10:46:21.881,92.363
12,4 May 2023 03:01:06.637,4 May 2023 03:02:18.043,71.406
13,4 May 2023 04:33:57.548,4 May 2023 04:37:46.365,228.818
14,4 May 2023 06:08:56.287,4 May 2023 06:12:14.376,198.089
15,4 May 2023 07:43:18.007,4 May 2023 07:46:41.132,203.125
16,4 May 2023 09:17:56.774,4 May 2023 09:22:01.974,245.200
17,5 May 2023 03:08:01.028,5 May 2023 03:11:11.537,190.510
18,5 May 2023 04:42:36.951,5 May 2023 04:46:10.122,213.171
19,5 May 2023 06:17:15.690,5 May 2023 06:20:31.736,196.047
20,5 May 2023 07:51:37.382,5 May 2023 07:55:10.853,213.471
21,5 May 2023 09:26:36.540,5 May 2023 09:29:44.283,187.743
22,6 May 2023 03:15:46.016,6 May 2023 03:19:51.030,245.014
23,6 May 2023 04:51:06.478,6 May 2023 04:54:29.416,202.938
24,6 May 2023 06:25:33.022,6 May 2023 06:28:51.221,198.199
25,6 May 2023 08:00:01.272,6 May 2023 08:03:50.522,229.249
26,6 May 2023 09:35:30.415,6 May 2023 09:36:39.001,68.586
27,7 May 2023 01:51:23.708,7 May 2023 01:52:58.856,95.148
28,7 May 2023 03:24:35.209,7 May 2023 03:28:20.467,225.258
29,7 May 2023 04:59:29.321,7 May 2023 05:02:46.689,197.368
30,7 May 2023 06:33:50.515,7 May 2023 06:37:15.291,204.776
31,7 May 2023 08:08:32.630,7 May 2023 08:12:37.013,244.383

"Access","Start Time (UTCG)","Stop Time (UTCG)","Duration (sec)"
1,1 May 2023 11:15:02.840,1 May 2023 11:17:46.365,163.525
2,2 May 2023 05:04:13.285,2 May 2023 05:08:14.342,241.057
3,2 May 2023 06:39:28.200,2 May 2023 06:42:49.609,201.410
4,2 May 2023 08:13:53.087,2 May 2023 08:17:12.283,199.195
5,2 May 2023 09:48:23.570,2 May 2023 09:52:16.728,233.158
6,2 May 2023 11:24:04.029,2 May 2023 11:24:42.039,38.010
7,3 May 2023 03:39:27.556,3 May 2023 03:41:26.986,119.430
8,3 May 2023 05:13:00.291,3 May 2023 05:16:42.137,221.846
9,3 May 2023 06:47:50.005,3 May 2023 06:51:06.781,196.776
10,3 May 2023 08:22:10.947,3 May 2023 08:25:37.611,206.664
11,3 May 2023 09:56:56.832,3 May 2023 10:00:56.005,239.173
12,4 May 2023 03:46:23.564,4 May 2023 03:50:14.366,230.802
13,4 May 2023 05:21:35.318,4 May 2023 05:25:03.803,208.485
14,4 May 2023 06:56:08.297,4 May 2023 06:59:24.699,196.402
15,4 May 2023 08:30:31.794,4 May 2023 08:34:10.923,219.129
16,4 May 2023 10:05:41.767,4 May 2023 10:08:01.869,140.103
17,5 May 2023 03:54:52.642,5 May 2023 03:58:49.384,236.742
18,5 May 2023 05:30:01.839,5 May 2023 05:33:21.992,200.153
19,5 May 2023 07:04:25.419,5 May 2023 07:07:45.718,200.299
20,5 May 2023 08:38:58.320,5 May 2023 08:42:55.564,237.245
21,6 May 2023 02:29:43.583,6 May 2023 02:32:06.464,142.881
22,6 May 2023 04:03:36.973,6 May 2023 04:07:15.756,218.783
23,6 May 2023 05:38:22.754,6 May 2023 05:41:39.108,196.355
24,6 May 2023 07:12:43.661,6 May 2023 07:16:12.397,208.737
25,6 May 2023 08:47:33.591,6 May 2023 08:51:22.938,229.346
26,7 May 2023 02:36:51.067,7 May 2023 02:40:51.066,239.999
27,7 May 2023 04:12:10.067,7 May 2023 04:15:36.506,206.439
28,7 May 2023 05:46:40.624,7 May 2023 05:49:57.462,196.838
29,7 May 2023 07:21:05.426,7 May 2023 07:24:47.638,222.211
30,7 May 2023 08:56:21.303,7 May 2023 08:58:17.959,116.656

