STK/target_primary/access_sensors/resolution/RCO_2x4_50_800_2.0.csv

"Access","Start Time (UTCG)","Stop Time (UTCG)","Duration (sec)"
1,1 Aug 2023 10:33:23.051,1 Aug 2023 10:36:05.113,162.062
2,2 Aug 2023 03:02:56.159,2 Aug 2023 03:06:12.625,196.465
3,2 Aug 2023 04:45:32.653,2 Aug 2023 04:52:28.819,416.165
4,2 Aug 2023 06:31:35.784,2 Aug 2023 06:38:14.613,398.830
5,2 Aug 2023 08:17:20.633,2 Aug 2023 08:24:02.480,401.847
6,2 Aug 2023 10:03:37.591,2 Aug 2023 10:07:08.681,211.090
7,3 Aug 2023 02:34:05.344,3 Aug 2023 02:36:33.200,147.856
8,3 Aug 2023 04:16:12.758,3 Aug 2023 04:23:08.254,415.496
9,3 Aug 2023 06:02:11.744,3 Aug 2023 06:08:51.540,399.796
10,3 Aug 2023 07:48:00.536,3 Aug 2023 07:54:44.010,403.474
11,3 Aug 2023 09:34:02.386,3 Aug 2023 09:38:05.568,243.182
12,4 Aug 2023 02:05:23.955,4 Aug 2023 02:06:39.597,75.643
13,4 Aug 2023 03:46:53.819,4 Aug 2023 03:53:47.603,413.784
14,4 Aug 2023 05:32:47.480,4 Aug 2023 05:39:28.643,401.163
15,4 Aug 2023 07:18:40.390,4 Aug 2023 07:25:24.235,403.845
16,4 Aug 2023 09:04:31.947,4 Aug 2023 09:08:57.963,266.016
17,5 Aug 2023 03:17:36.066,5 Aug 2023 03:24:26.739,410.673
18,5 Aug 2023 05:03:23.112,5 Aug 2023 05:10:05.981,402.869
19,5 Aug 2023 06:49:20.102,5 Aug 2023 06:56:03.338,403.237
20,5 Aug 2023 08:35:04.451,5 Aug 2023 08:39:49.417,284.966
21,6 Aug 2023 02:48:18.380,6 Aug 2023 02:55:05.546,407.166
22,6 Aug 2023 04:33:58.756,6 Aug 2023 04:40:43.599,404.843
23,6 Aug 2023 06:19:59.593,6 Aug 2023 06:26:42.288,402.695
24,6 Aug 2023 08:05:38.989,6 Aug 2023 08:10:40.233,301.244
25,7 Aug 2023 02:19:02.650,7 Aug 2023 02:25:43.895,401.244
26,7 Aug 2023 04:04:34.437,7 Aug 2023 04:11:21.546,407.110
27,7 Aug 2023 05:50:38.791,7 Aug 2023 05:57:20.883,402.092
28,7 Aug 2023 07:36:14.771,7 Aug 2023 07:41:38.077,323.307
29,8 Aug 2023 01:49:48.567,8 Aug 2023 01:56:21.619,393.052
30,8 Aug 2023 03:35:10.201,8 Aug 2023 03:41:59.818,409.616
31,8 Aug 2023 05:21:17.631,8 Aug 2023 05:27:58.863,401.232
32,8 Aug 2023 07:06:51.723,8 Aug 2023 07:12:36.334,344.611

"Access","Start Time (UTCG)","Stop Time (UTCG)","Duration (sec)"
1,2 Aug 2023 03:53:06.015,2 Aug 2023 03:59:38.749,392.734
2,2 Aug 2023 05:38:27.283,2 Aug 2023 05:45:16.984,409.702
3,2 Aug 2023 07:24:34.801,2 Aug 2023 07:31:16.002,401.201
4,2 Aug 2023 09:10:08.857,2 Aug 2023 09:15:54.180,345.323
5,3 Aug 2023 03:23:54.717,3 Aug 2023 03:30:15.620,380.902
6,3 Aug 2023 05:09:03.460,3 Aug 2023 05:15:55.562,412.102
7,3 Aug 2023 06:55:13.218,3 Aug 2023 07:01:53.401,400.183
8,3 Aug 2023 08:40:46.739,3 Aug 2023 08:46:50.538,363.799
9,4 Aug 2023 02:54:46.929,4 Aug 2023 03:00:51.410,364.481
10,4 Aug 2023 04:39:40.175,4 Aug 2023 04:46:34.415,414.240
11,4 Aug 2023 06:25:51.195,4 Aug 2023 06:32:30.369,399.174
12,4 Aug 2023 08:11:25.311,4 Aug 2023 08:17:42.472,377.162
13,5 Aug 2023 02:25:44.029,5 Aug 2023 02:31:26.187,342.158
14,5 Aug 2023 04:10:17.575,5 Aug 2023 04:17:13.500,415.926
15,5 Aug 2023 05:56:28.712,5 Aug 2023 06:03:07.039,398.328
16,5 Aug 2023 07:42:04.388,5 Aug 2023 07:48:31.216,386.827
17,6 Aug 2023 01:56:48.847,6 Aug 2023 02:01:59.218,310.371
18,6 Aug 2023 03:40:55.808,6 Aug 2023 03:47:52.774,416.966
19,6 Aug 2023 05:27:05.778,6 Aug 2023 05:33:43.855,398.077
20,6 Aug 2023 07:12:43.846,6 Aug 2023 07:19:17.465,393.619
21,6 Aug 2023 09:00:18.893,6 Aug 2023 09:01:21.968,63.075
22,7 Aug 2023 01:28:13.106,7 Aug 2023 01:32:29.639,256.533
23,7 Aug 2023 03:11:35.029,7 Aug 2023 03:18:32.171,417.143
24,7 Aug 2023 04:57:42.422,7 Aug 2023 05:04:20.675,398.253
25,7 Aug 2023 06:43:23.558,7 Aug 2023 06:50:02.135,398.577
26,7 Aug 2023 08:30:07.025,7 Aug 2023 08:32:46.942,159.917
27,8 Aug 2023 00:59:38.063,8 Aug 2023 01:02:55.955,197.892
28,8 Aug 2023 02:42:15.403,8 Aug 2023 02:49:11.622,416.218
29,8 Aug 2023 04:28:18.695,8 Aug 2023 04:34:57.499,398.804
30,8 Aug 2023 06:14:03.421,8 Aug 2023 06:20:45.191,401.770
31,8 Aug 2023 08:00:20.986,8 Aug 2023 08:03:50.810,209.824

"Access","Start Time (UTCG)","Stop Time (UTCG)","Duration (sec)"
1,1 Aug 2023 10:14:58.699,1 Aug 2023 10:21:39.268,400.569
2,1 Aug 2023 12:00:29.693,1 Aug 2023 12:07:15.774,406.081
3,1 Aug 2023 13:46:35.288,1 Aug 2023 13:53:15.867,400.579
4,1 Aug 2023 15:32:08.999,1 Aug 2023 15:37:40.052,331.053
5,2 Aug 2023 09:45:45.853,2 Aug 2023 09:52:17.908,392.055
6,2 Aug 2023 11:31:06.299,2 Aug 2023 11:37:55.057,408.758
7,2 Aug 2023 13:17:15.012,2 Aug 2023 13:23:54.470,399.459
8,2 Aug 2023 15:02:47.302,2 Aug 2023 15:08:39.399,352.097
9,3 Aug 2023 09:16:35.867,3 Aug 2023 09:22:55.688,379.821
10,3 Aug 2023 11:01:43.331,3 Aug 2023 11:08:34.653,411.321
11,3 Aug 2023 12:47:54.295,3 Aug 2023 12:54:32.542,398.247
12,3 Aug 2023 14:33:26.441,3 Aug 2023 14:39:35.147,368.707
13,4 Aug 2023 08:47:29.537,4 Aug 2023 08:53:32.343,362.807
14,4 Aug 2023 10:32:20.934,4 Aug 2023 10:39:14.528,413.593
15,4 Aug 2023 12:18:33.106,4 Aug 2023 12:25:10.218,397.113
16,4 Aug 2023 14:04:06.210,4 Aug 2023 14:10:26.926,380.715
17,5 Aug 2023 08:18:28.368,5 Aug 2023 08:24:07.931,339.563
18,5 Aug 2023 10:02:59.252,5 Aug 2023 10:09:54.646,415.394
19,5 Aug 2023 11:49:11.437,5 Aug 2023 11:55:47.735,396.298
20,5 Aug 2023 13:34:46.457,5 Aug 2023 13:41:15.751,389.294
21,6 Aug 2023 07:49:35.446,6 Aug 2023 07:54:41.709,306.263
22,6 Aug 2023 09:33:38.440,6 Aug 2023 09:40:34.950,416.511
23,6 Aug 2023 11:19:49.293,6 Aug 2023 11:26:25.426,396.133
24,6 Aug 2023 13:05:27.047,6 Aug 2023 13:12:02.379,395.332
25,6 Aug 2023 14:52:36.405,6 Aug 2023 14:54:24.811,108.406
26,7 Aug 2023 07:21:02.811,7 Aug 2023 07:25:12.745,249.934
27,7 Aug 2023 09:04:18.652,7 Aug 2023 09:11:15.376,416.725
28,7 Aug 2023 10:50:26.713,7 Aug 2023 10:57:03.058,396.345
29,7 Aug 2023 12:36:07.862,7 Aug 2023 12:42:47.389,399.527
30,7 Aug 2023 14:22:39.353,7 Aug 2023 14:25:39.832,180.479
31,8 Aug 2023 06:52:25.975,8 Aug 2023 06:55:39.401,193.426
32,8 Aug 2023 08:35:00.058,8 Aug 2023 08:41:55.850,415.792

"Access","Start Time (UTCG)","Stop Time (UTCG)","Duration (sec)"
1,1 Aug 2023 11:07:30.370,1 Aug 2023 11:14:27.095,416.724
2,1 Aug 2023 12:53:38.391,1 Aug 2023 13:00:14.740,396.350
3,1 Aug 2023 14:39:19.584,1 Aug 2023 14:45:59.149,399.565
4,1 Aug 2023 16:25:50.744,1 Aug 2023 16:28:51.859,181.115
5,2 Aug 2023 08:55:38.034,2 Aug 2023 08:58:50.918,192.884
6,2 Aug 2023 10:38:11.795,2 Aug 2023 10:45:07.568,415.773
7,2 Aug 2023 12:24:15.426,2 Aug 2023 12:30:52.415,396.989
8,2 Aug 2023 14:10:00.514,2 Aug 2023 14:16:42.601,402.088
9,2 Aug 2023 15:56:10.717,2 Aug 2023 15:59:53.949,223.232
10,3 Aug 2023 08:26:48.188,3 Aug 2023 08:29:11.703,143.515
11,3 Aug 2023 10:08:52.765,3 Aug 2023 10:15:48.004,415.239
12,3 Aug 2023 11:54:52.159,3 Aug 2023 12:01:30.220,398.061
13,3 Aug 2023 13:40:41.460,3 Aug 2023 13:47:24.580,403.119
14,3 Aug 2023 15:26:38.309,3 Aug 2023 15:30:50.182,251.873
15,4 Aug 2023 07:58:11.772,4 Aug 2023 07:59:15.043,63.271
16,4 Aug 2023 09:39:34.894,4 Aug 2023 09:46:28.353,413.460
17,4 Aug 2023 11:25:28.669,4 Aug 2023 11:32:08.233,399.563
18,4 Aug 2023 13:11:22.324,4 Aug 2023 13:18:05.299,402.976
19,4 Aug 2023 14:57:09.929,4 Aug 2023 15:01:42.424,272.495
20,5 Aug 2023 09:10:18.026,5 Aug 2023 09:17:08.483,410.457
21,5 Aug 2023 10:56:05.082,5 Aug 2023 11:02:46.508,401.426
22,5 Aug 2023 12:42:03.017,5 Aug 2023 12:48:45.174,402.156
23,5 Aug 2023 14:27:44.155,5 Aug 2023 14:32:35.496,291.340
24,6 Aug 2023 08:41:01.478,6 Aug 2023 08:47:48.268,406.790
25,6 Aug 2023 10:26:41.525,6 Aug 2023 10:33:25.117,403.592
26,6 Aug 2023 12:12:43.460,6 Aug 2023 12:19:24.886,401.425
27,6 Aug 2023 13:58:20.110,6 Aug 2023 14:03:27.814,307.704
28,7 Aug 2023 08:11:46.916,7 Aug 2023 08:18:27.566,400.650
29,7 Aug 2023 09:57:18.024,7 Aug 2023 10:04:04.072,406.048
30,7 Aug 2023 11:43:23.577,7 Aug 2023 11:50:04.167,400.590
31,7 Aug 2023 13:28:57.313,7 Aug 2023 13:34:28.128,330.815
32,8 Aug 2023 07:42:34.042,8 Aug 2023 07:49:06.217,392.175
33,8 Aug 2023 09:27:54.623,8 Aug 2023 09:34:43.353,408.729

"Access","Start Time (UTCG)","Stop Time (UTCG)","Duration (sec)"
1,1 Aug 2023 15:17:07.993,1 Aug 2023 15:20:57.942,229.949
2,1 Aug 2023 17:00:08.656,1 Aug 2023 17:07:05.536,416.880
3,1 Aug 2023 18:46:14.481,1 Aug 2023 18:52:52.869,398.388
4,1 Aug 2023 20:31:57.124,1 Aug 2023 20:38:37.300,400.176
5,1 Aug 2023 22:18:26.915,1 Aug 2023 22:21:32.406,185.492
6,2 Aug 2023 14:48:24.057,2 Aug 2023 14:51:21.967,177.910
7,2 Aug 2023 16:30:49.248,2 Aug 2023 16:37:45.016,415.768
8,2 Aug 2023 18:16:50.637,2 Aug 2023 18:23:29.754,399.116
9,2 Aug 2023 20:02:37.050,2 Aug 2023 20:09:19.723,402.673
10,2 Aug 2023 21:48:46.977,2 Aug 2023 21:52:32.783,225.806
11,3 Aug 2023 14:19:34.105,3 Aug 2023 14:21:39.434,125.329
12,3 Aug 2023 16:01:29.463,3 Aug 2023 16:08:24.463,415.000
13,3 Aug 2023 17:47:26.521,3 Aug 2023 17:54:06.772,400.251
14,3 Aug 2023 19:33:16.977,3 Aug 2023 19:40:00.721,403.744
15,3 Aug 2023 21:19:14.097,3 Aug 2023 21:23:27.583,253.486
16,4 Aug 2023 15:32:11.194,4 Aug 2023 15:39:03.772,412.577
17,4 Aug 2023 17:18:02.225,4 Aug 2023 17:24:43.992,401.767
18,4 Aug 2023 19:03:56.815,4 Aug 2023 19:10:40.489,403.675
19,4 Aug 2023 20:49:45.048,4 Aug 2023 20:54:18.514,273.466
20,5 Aug 2023 15:02:53.294,5 Aug 2023 15:09:42.821,409.528
21,5 Aug 2023 16:48:37.872,5 Aug 2023 16:55:21.468,403.596
22,5 Aug 2023 18:34:36.479,5 Aug 2023 18:41:19.482,403.004
23,5 Aug 2023 20:20:18.503,5 Aug 2023 20:25:10.827,292.324
24,6 Aug 2023 14:33:36.420,6 Aug 2023 14:40:21.492,405.072
25,6 Aug 2023 16:19:13.582,6 Aug 2023 16:25:59.235,405.653
26,6 Aug 2023 18:05:15.889,6 Aug 2023 18:11:58.307,402.418
27,6 Aug 2023 19:50:53.636,6 Aug 2023 19:56:03.070,309.434
28,7 Aug 2023 14:04:21.361,7 Aug 2023 14:10:59.641,398.280
29,7 Aug 2023 15:49:49.266,7 Aug 2023 15:56:37.357,408.092
30,7 Aug 2023 17:35:54.979,7 Aug 2023 17:42:36.711,401.732
31,7 Aug 2023 19:21:29.965,7 Aug 2023 19:27:02.022,332.057

"Access","Start Time (UTCG)","Stop Time (UTCG)","Duration (sec)"
1,1 Aug 2023 16:07:38.582,1 Aug 2023 16:14:16.614,398.031
2,1 Aug 2023 17:53:06.173,1 Aug 2023 17:59:54.344,408.171
3,1 Aug 2023 19:39:11.986,1 Aug 2023 19:45:53.690,401.704
4,1 Aug 2023 21:24:46.908,1 Aug 2023 21:30:19.592,332.684
5,2 Aug 2023 15:38:25.604,2 Aug 2023 15:44:54.036,388.433
6,2 Aug 2023 17:23:42.118,2 Aug 2023 17:30:32.781,410.662
7,2 Aug 2023 19:09:50.681,2 Aug 2023 19:16:31.428,400.747
8,2 Aug 2023 20:55:24.326,2 Aug 2023 21:01:18.010,353.685
9,3 Aug 2023 15:09:15.647,3 Aug 2023 15:15:30.536,374.889
10,3 Aug 2023 16:54:18.523,3 Aug 2023 17:01:11.505,412.982
11,3 Aug 2023 18:40:28.950,3 Aug 2023 18:47:08.659,399.709
12,3 Aug 2023 20:26:02.547,3 Aug 2023 20:32:12.370,369.823
13,4 Aug 2023 14:40:09.644,4 Aug 2023 14:46:05.937,356.293
14,4 Aug 2023 16:24:55.524,4 Aug 2023 16:31:50.487,414.963
15,4 Aug 2023 18:11:06.770,4 Aug 2023 18:17:45.515,398.745
16,4 Aug 2023 19:56:41.375,4 Aug 2023 20:03:02.913,381.538
17,5 Aug 2023 14:11:09.483,5 Aug 2023 14:16:40.153,330.671
18,5 Aug 2023 15:55:33.269,5 Aug 2023 16:02:29.688,416.419
19,5 Aug 2023 17:41:44.129,5 Aug 2023 17:48:22.205,398.076
20,5 Aug 2023 19:27:20.658,5 Aug 2023 19:33:50.593,389.935
21,6 Aug 2023 13:42:19.182,6 Aug 2023 13:47:12.279,293.097
22,6 Aug 2023 15:26:11.910,6 Aug 2023 15:33:09.051,417.141
23,6 Aug 2023 17:12:21.046,6 Aug 2023 17:18:59.091,398.045
24,6 Aug 2023 18:58:00.266,6 Aug 2023 19:04:36.172,395.906
25,6 Aug 2023 20:45:06.567,6 Aug 2023 20:47:02.417,115.850
26,7 Aug 2023 13:13:49.147,7 Aug 2023 13:17:41.313,232.167
27,7 Aug 2023 14:56:51.605,7 Aug 2023 15:03:48.509,416.904
28,7 Aug 2023 16:42:57.557,7 Aug 2023 16:49:35.928,398.371
29,7 Aug 2023 18:28:40.085,7 Aug 2023 18:35:20.156,400.070
30,7 Aug 2023 20:15:10.708,7 Aug 2023 20:18:14.591,183.883

"Access","Start Time (UTCG)","Stop Time (UTCG)","Duration (sec)"
1,1 Aug 2023 22:00:22.455,1 Aug 2023 22:06:56.715,394.260
2,1 Aug 2023 23:45:45.519,1 Aug 2023 23:52:35.885,410.366
3,2 Aug 2023 01:31:51.677,2 Aug 2023 01:38:34.470,402.793
4,2 Aug 2023 03:17:27.697,2 Aug 2023 03:23:03.552,335.854
5,2 Aug 2023 21:31:09.617,2 Aug 2023 21:37:32.791,383.174
6,2 Aug 2023 23:16:20.820,2 Aug 2023 23:23:13.459,412.639
7,3 Aug 2023 01:02:29.285,3 Aug 2023 01:09:11.268,401.983
8,3 Aug 2023 02:48:04.262,3 Aug 2023 02:54:01.030,356.768
9,3 Aug 2023 21:02:00.068,3 Aug 2023 21:08:07.839,367.771
10,3 Aug 2023 22:46:56.622,3 Aug 2023 22:53:51.296,414.674
11,4 Aug 2023 00:33:06.479,4 Aug 2023 00:39:47.596,401.117
12,4 Aug 2023 02:18:41.588,4 Aug 2023 02:24:53.621,372.034
13,4 Aug 2023 20:32:54.996,4 Aug 2023 20:38:41.933,346.937
14,4 Aug 2023 22:17:33.063,4 Aug 2023 22:24:29.368,416.305
15,5 Aug 2023 00:03:43.241,5 Aug 2023 00:10:23.576,400.335
16,5 Aug 2023 01:49:19.482,5 Aug 2023 01:55:42.639,383.158
17,5 Aug 2023 20:03:56.929,5 Aug 2023 20:09:14.423,317.494
18,5 Aug 2023 21:48:10.290,5 Aug 2023 21:55:07.626,417.336
19,5 Aug 2023 23:34:19.573,5 Aug 2023 23:40:59.423,399.850
20,6 Aug 2023 01:19:57.796,6 Aug 2023 01:26:28.937,391.141
21,6 Aug 2023 19:35:12.792,6 Aug 2023 19:39:44.509,271.717
22,6 Aug 2023 21:18:48.451,6 Aug 2023 21:25:46.016,417.565
23,6 Aug 2023 23:04:55.490,6 Aug 2023 23:11:35.472,399.981
24,7 Aug 2023 00:50:36.414,7 Aug 2023 00:57:13.311,396.897
25,7 Aug 2023 02:37:36.643,7 Aug 2023 02:39:46.097,129.453
26,7 Aug 2023 19:06:45.081,7 Aug 2023 19:10:10.916,205.835
27,7 Aug 2023 20:49:27.716,7 Aug 2023 20:56:24.472,416.757
28,7 Aug 2023 22:35:31.042,7 Aug 2023 22:42:11.482,400.440
29,8 Aug 2023 00:21:15.216,8 Aug 2023 00:27:56.109,400.893
30,8 Aug 2023 02:07:43.005,8 Aug 2023 02:10:54.189,191.184

"Access","Start Time (UTCG)","Stop Time (UTCG)","Duration (sec)"
1,1 Aug 2023 21:10:08.925,1 Aug 2023 21:13:32.655,203.730
2,1 Aug 2023 22:52:50.309,1 Aug 2023 22:59:46.991,416.682
3,2 Aug 2023 00:38:53.398,2 Aug 2023 00:45:33.871,400.473
4,2 Aug 2023 02:24:37.754,2 Aug 2023 02:31:18.815,401.061
5,2 Aug 2023 04:11:04.313,2 Aug 2023 04:14:17.918,193.605
6,2 Aug 2023 20:41:17.182,2 Aug 2023 20:43:53.430,156.248
7,2 Aug 2023 22:23:29.648,2 Aug 2023 22:30:25.464,415.817
8,3 Aug 2023 00:09:28.629,3 Aug 2023 00:16:09.943,401.313
9,3 Aug 2023 01:55:16.645,3 Aug 2023 02:02:00.057,403.412
10,3 Aug 2023 03:41:25.134,3 Aug 2023 03:45:16.058,230.924
11,3 Aug 2023 20:12:29.494,3 Aug 2023 20:14:04.210,94.715
12,3 Aug 2023 21:54:09.538,3 Aug 2023 22:01:03.850,414.312
13,3 Aug 2023 23:40:03.626,3 Aug 2023 23:46:46.154,402.529
14,4 Aug 2023 01:25:55.515,4 Aug 2023 01:32:39.932,404.417
15,4 Aug 2023 03:11:52.114,4 Aug 2023 03:16:09.053,256.939
16,4 Aug 2023 21:24:50.968,4 Aug 2023 21:31:42.046,411.078
17,4 Aug 2023 23:10:38.498,4 Aug 2023 23:17:22.564,404.066
18,5 Aug 2023 00:56:34.285,5 Aug 2023 01:03:18.633,404.347
19,5 Aug 2023 02:42:22.593,5 Aug 2023 02:46:58.677,276.084
20,5 Aug 2023 20:55:32.014,5 Aug 2023 21:02:19.943,407.929
21,5 Aug 2023 22:41:13.360,5 Aug 2023 22:47:59.227,405.866
22,6 Aug 2023 00:27:12.868,6 Aug 2023 00:33:56.709,403.840
23,6 Aug 2023 02:12:55.407,6 Aug 2023 02:17:50.029,294.622
24,6 Aug 2023 20:26:14.971,6 Aug 2023 20:32:57.412,402.440
25,6 Aug 2023 22:11:48.256,6 Aug 2023 22:18:36.169,407.913
26,6 Aug 2023 23:57:51.192,7 Aug 2023 00:04:34.587,403.396
27,7 Aug 2023 01:43:29.785,7 Aug 2023 01:48:42.981,313.196
28,7 Aug 2023 19:56:59.560,7 Aug 2023 20:03:34.299,394.739
29,7 Aug 2023 21:42:23.178,7 Aug 2023 21:49:13.422,410.244
30,7 Aug 2023 23:28:29.194,7 Aug 2023 23:35:12.024,402.830
31,8 Aug 2023 01:14:05.304,8 Aug 2023 01:19:40.182,334.878

