STK/target_primary/access_sensors/resolution/RCO_2x4_50_100_3.0.csv

"Access","Start Time (UTCG)","Stop Time (UTCG)","Duration (sec)"
1,1 Jun 2023 10:19:51.653,1 Jun 2023 10:21:32.495,100.843
2,1 Jun 2023 11:49:47.662,1 Jun 2023 11:51:58.083,130.421
3,1 Jun 2023 13:19:15.905,1 Jun 2023 13:20:43.197,87.291
4,2 Jun 2023 07:51:39.527,2 Jun 2023 07:52:44.953,65.426
5,2 Jun 2023 09:20:14.962,2 Jun 2023 09:22:39.053,144.091
6,2 Jun 2023 10:51:05.293,2 Jun 2023 10:52:41.586,96.293
7,2 Jun 2023 12:20:21.484,2 Jun 2023 12:22:33.571,132.087
8,3 Jun 2023 08:21:02.668,3 Jun 2023 08:23:47.340,164.672
9,3 Jun 2023 09:52:12.538,3 Jun 2023 09:53:40.789,88.251
10,3 Jun 2023 11:21:38.138,3 Jun 2023 11:24:08.788,150.650
11,4 Jun 2023 07:22:14.384,4 Jun 2023 07:25:02.725,168.342
12,4 Jun 2023 08:52:59.461,4 Jun 2023 08:54:45.658,106.197
13,4 Jun 2023 10:23:03.466,4 Jun 2023 10:25:10.014,126.548
14,4 Jun 2023 11:52:27.350,4 Jun 2023 11:54:00.556,93.206
15,5 Jun 2023 06:25:01.507,5 Jun 2023 06:25:54.143,52.636
16,5 Jun 2023 07:53:23.832,5 Jun 2023 07:55:52.752,148.920
17,5 Jun 2023 09:24:19.098,5 Jun 2023 09:25:53.997,94.899
18,5 Jun 2023 10:53:36.282,5 Jun 2023 10:55:51.215,134.933
19,6 Jun 2023 06:54:16.383,6 Jun 2023 06:57:01.539,165.157
20,6 Jun 2023 08:25:24.983,6 Jun 2023 08:26:53.691,88.709
21,6 Jun 2023 09:54:54.048,6 Jun 2023 09:57:21.681,147.633
22,7 Jun 2023 05:55:29.270,7 Jun 2023 05:58:15.783,166.513
23,7 Jun 2023 07:26:09.217,7 Jun 2023 07:27:58.848,109.631
24,7 Jun 2023 08:56:20.665,7 Jun 2023 08:58:21.598,120.933
25,7 Jun 2023 10:25:39.405,7 Jun 2023 10:27:16.347,96.942
26,8 Jun 2023 04:58:29.923,8 Jun 2023 04:59:02.859,32.937
27,8 Jun 2023 06:26:32.990,8 Jun 2023 06:29:06.415,153.426
28,8 Jun 2023 07:57:32.831,8 Jun 2023 07:59:06.319,93.488
29,8 Jun 2023 09:26:51.089,8 Jun 2023 09:29:12.842,141.753

"Access","Start Time (UTCG)","Stop Time (UTCG)","Duration (sec)"
1,1 Jun 2023 11:05:03.631,1 Jun 2023 11:06:34.878,91.246
2,1 Jun 2023 12:34:21.887,1 Jun 2023 12:36:52.064,150.177
3,2 Jun 2023 08:35:00.676,2 Jun 2023 08:37:49.973,169.297
4,2 Jun 2023 10:06:05.615,2 Jun 2023 10:07:36.399,90.783
5,2 Jun 2023 11:35:45.069,2 Jun 2023 11:38:04.813,139.744
6,2 Jun 2023 13:05:38.191,2 Jun 2023 13:06:31.756,53.565
7,3 Jun 2023 07:36:21.847,3 Jun 2023 07:37:27.131,65.283
8,3 Jun 2023 07:37:30.498,3 Jun 2023 07:38:56.934,86.436
9,3 Jun 2023 09:06:32.219,3 Jun 2023 09:08:42.295,130.076
10,3 Jun 2023 10:37:06.245,3 Jun 2023 10:38:58.868,112.623
11,3 Jun 2023 12:06:21.902,3 Jun 2023 12:08:01.756,99.854
12,4 Jun 2023 08:07:09.645,4 Jun 2023 08:09:50.718,161.073
13,4 Jun 2023 09:38:17.010,4 Jun 2023 09:39:47.061,90.052
14,4 Jun 2023 11:07:35.866,4 Jun 2023 11:10:07.899,152.033
15,5 Jun 2023 07:08:14.211,5 Jun 2023 07:11:04.364,170.153
16,5 Jun 2023 08:39:17.621,5 Jun 2023 08:40:49.416,91.795
17,5 Jun 2023 10:08:59.555,5 Jun 2023 10:11:17.653,138.098
18,5 Jun 2023 11:38:46.890,5 Jun 2023 11:39:48.265,61.375
19,6 Jun 2023 06:09:45.201,6 Jun 2023 06:10:34.733,49.531
20,6 Jun 2023 06:10:46.763,6 Jun 2023 06:12:08.870,82.107
21,6 Jun 2023 07:39:42.085,6 Jun 2023 07:41:55.529,133.444
22,6 Jun 2023 09:10:20.128,6 Jun 2023 09:12:08.749,108.621
23,6 Jun 2023 10:39:35.683,6 Jun 2023 10:41:14.916,99.233
24,7 Jun 2023 06:40:21.045,7 Jun 2023 06:43:04.101,163.056
25,7 Jun 2023 08:11:30.207,7 Jun 2023 08:12:59.232,89.025
26,7 Jun 2023 09:40:50.148,7 Jun 2023 09:43:23.063,152.915
27,8 Jun 2023 05:41:28.629,8 Jun 2023 05:44:18.446,169.817
28,8 Jun 2023 07:12:29.581,8 Jun 2023 07:14:02.471,92.890
29,8 Jun 2023 08:42:14.275,8 Jun 2023 08:44:30.031,135.756

"Access","Start Time (UTCG)","Stop Time (UTCG)","Duration (sec)"
1,1 Jun 2023 14:34:17.468,1 Jun 2023 14:37:04.812,167.344
2,1 Jun 2023 16:05:02.560,1 Jun 2023 16:06:47.216,104.656
3,1 Jun 2023 17:35:11.325,1 Jun 2023 17:37:09.411,118.086
4,1 Jun 2023 19:04:28.100,1 Jun 2023 19:06:06.169,98.069
5,2 Jun 2023 13:37:14.143,2 Jun 2023 13:37:55.236,41.093
6,2 Jun 2023 15:05:25.468,2 Jun 2023 15:07:55.571,150.103
7,2 Jun 2023 16:36:24.918,2 Jun 2023 16:37:55.343,90.425
8,2 Jun 2023 18:05:41.503,2 Jun 2023 18:08:06.172,144.669
9,3 Jun 2023 14:06:21.337,3 Jun 2023 14:09:06.070,164.734
10,3 Jun 2023 15:37:31.750,3 Jun 2023 15:38:57.102,85.352
11,3 Jun 2023 17:07:05.523,3 Jun 2023 17:09:26.220,140.697
12,3 Jun 2023 18:37:13.448,3 Jun 2023 18:37:45.307,31.859
13,4 Jun 2023 13:07:36.011,4 Jun 2023 13:10:21.004,164.992
14,4 Jun 2023 14:38:14.848,4 Jun 2023 14:40:03.785,108.937
15,4 Jun 2023 16:08:28.624,4 Jun 2023 16:10:23.561,114.938
16,4 Jun 2023 17:37:44.108,4 Jun 2023 17:39:23.832,99.724
17,5 Jun 2023 12:10:41.388,5 Jun 2023 12:11:04.498,23.110
18,5 Jun 2023 13:38:37.925,5 Jun 2023 13:41:12.655,154.730
19,5 Jun 2023 15:09:41.429,5 Jun 2023 15:11:10.662,89.233
20,5 Jun 2023 16:38:58.533,5 Jun 2023 16:41:27.803,149.271
21,6 Jun 2023 12:39:38.600,6 Jun 2023 12:42:24.942,166.342
22,6 Jun 2023 14:10:47.180,6 Jun 2023 14:12:13.309,86.129
23,6 Jun 2023 15:40:23.293,6 Jun 2023 15:42:42.468,139.175
24,6 Jun 2023 17:10:17.377,6 Jun 2023 17:11:08.119,50.742
25,7 Jun 2023 11:40:55.511,7 Jun 2023 11:43:36.700,161.189
26,7 Jun 2023 13:11:19.951,7 Jun 2023 13:13:20.376,120.424
27,7 Jun 2023 14:41:45.986,7 Jun 2023 14:43:37.150,111.165
28,7 Jun 2023 16:11:00.666,7 Jun 2023 16:12:40.508,99.842

"Access","Start Time (UTCG)","Stop Time (UTCG)","Duration (sec)"
1,1 Jun 2023 15:19:10.830,1 Jun 2023 15:21:52.748,161.918
2,1 Jun 2023 16:50:20.372,1 Jun 2023 16:51:46.814,86.442
3,1 Jun 2023 18:19:40.437,1 Jun 2023 18:22:12.838,152.401
4,2 Jun 2023 14:20:18.048,2 Jun 2023 14:23:07.774,169.726
5,2 Jun 2023 15:51:22.137,2 Jun 2023 15:52:51.820,89.683
6,2 Jun 2023 17:21:06.848,2 Jun 2023 17:23:19.574,132.726
7,2 Jun 2023 18:50:39.753,2 Jun 2023 18:51:56.288,76.535
8,3 Jun 2023 13:22:13.299,3 Jun 2023 13:22:34.355,21.056
9,3 Jun 2023 13:22:53.156,3 Jun 2023 13:24:12.327,79.171
10,3 Jun 2023 14:51:45.694,3 Jun 2023 14:53:59.655,133.961
11,3 Jun 2023 16:22:27.377,3 Jun 2023 16:24:03.332,95.955
12,3 Jun 2023 17:51:41.457,3 Jun 2023 17:53:45.825,124.368
13,4 Jun 2023 13:52:25.766,4 Jun 2023 13:55:09.471,163.705
14,4 Jun 2023 15:23:36.794,4 Jun 2023 15:25:02.908,86.114
15,4 Jun 2023 16:52:58.775,4 Jun 2023 16:55:30.560,151.786
16,5 Jun 2023 12:53:36.485,5 Jun 2023 12:56:25.130,168.645
17,5 Jun 2023 14:24:37.025,5 Jun 2023 14:26:08.224,91.199
18,5 Jun 2023 15:54:25.981,5 Jun 2023 15:56:34.666,128.686
19,5 Jun 2023 17:23:52.875,5 Jun 2023 17:25:18.341,85.466
20,6 Jun 2023 11:56:12.403,6 Jun 2023 11:57:26.151,73.748
21,6 Jun 2023 13:24:59.517,6 Jun 2023 13:27:16.242,136.725
22,6 Jun 2023 14:55:44.851,6 Jun 2023 14:57:18.916,94.065
23,6 Jun 2023 16:24:59.192,6 Jun 2023 16:27:09.775,130.583
24,7 Jun 2023 12:25:41.387,7 Jun 2023 12:28:26.042,164.655
25,7 Jun 2023 13:56:53.180,7 Jun 2023 13:58:19.006,85.827
26,7 Jun 2023 15:26:17.653,7 Jun 2023 15:28:47.517,149.864

"Access","Start Time (UTCG)","Stop Time (UTCG)","Duration (sec)"
1,1 Jun 2023 20:19:38.370,1 Jun 2023 20:22:18.134,159.764
2,1 Jun 2023 21:49:55.903,1 Jun 2023 21:52:02.688,126.785
3,1 Jun 2023 23:20:26.246,1 Jun 2023 23:22:21.174,114.928
4,2 Jun 2023 00:49:42.222,2 Jun 2023 00:51:22.206,99.983
5,2 Jun 2023 20:50:31.455,2 Jun 2023 20:53:10.976,159.521
6,2 Jun 2023 22:21:37.462,2 Jun 2023 22:23:08.221,90.758
7,2 Jun 2023 23:50:55.769,2 Jun 2023 23:53:26.662,150.893
8,3 Jun 2023 19:51:34.387,3 Jun 2023 19:54:24.014,169.627
9,3 Jun 2023 21:22:39.056,3 Jun 2023 21:24:10.024,90.968
10,3 Jun 2023 22:52:19.162,3 Jun 2023 22:54:38.461,139.299
11,4 Jun 2023 00:22:10.279,4 Jun 2023 00:23:06.639,56.359
12,4 Jun 2023 18:52:57.674,4 Jun 2023 18:53:59.614,61.940
13,4 Jun 2023 18:54:04.934,4 Jun 2023 18:55:30.376,85.442
14,4 Jun 2023 20:23:04.986,4 Jun 2023 20:25:16.029,131.043
15,4 Jun 2023 21:53:40.221,4 Jun 2023 21:55:31.666,111.445
16,4 Jun 2023 23:22:55.770,4 Jun 2023 23:24:35.565,99.795
17,5 Jun 2023 19:23:42.853,5 Jun 2023 19:26:24.539,161.686
18,5 Jun 2023 20:54:50.897,5 Jun 2023 20:56:20.491,89.594
19,5 Jun 2023 22:24:09.944,5 Jun 2023 22:26:42.240,152.296
20,6 Jun 2023 18:24:48.250,6 Jun 2023 18:27:38.425,170.175
21,6 Jun 2023 19:55:51.133,6 Jun 2023 19:57:23.150,92.017
22,6 Jun 2023 21:25:33.824,6 Jun 2023 21:27:51.256,137.432
23,6 Jun 2023 22:55:17.345,6 Jun 2023 22:56:22.747,65.403
24,7 Jun 2023 17:26:26.333,7 Jun 2023 17:26:28.933,2.601
25,7 Jun 2023 17:26:34.553,7 Jun 2023 17:27:06.812,32.259
26,7 Jun 2023 17:27:21.734,7 Jun 2023 17:28:42.239,80.505
27,7 Jun 2023 18:56:15.160,7 Jun 2023 18:58:29.364,134.204
28,7 Jun 2023 20:26:54.211,7 Jun 2023 20:28:41.332,107.121
29,7 Jun 2023 21:56:09.795,7 Jun 2023 21:57:48.603,98.808

"Access","Start Time (UTCG)","Stop Time (UTCG)","Duration (sec)"
1,1 Jun 2023 21:04:23.140,1 Jun 2023 21:07:07.889,164.748
2,1 Jun 2023 22:35:33.500,1 Jun 2023 22:37:01.429,87.929
3,2 Jun 2023 00:04:57.095,2 Jun 2023 00:07:29.069,151.974
4,2 Jun 2023 20:05:34.242,2 Jun 2023 20:08:23.123,168.882
5,2 Jun 2023 21:36:23.556,2 Jun 2023 21:38:06.129,102.573
6,2 Jun 2023 23:06:22.107,2 Jun 2023 23:08:31.375,129.269
7,3 Jun 2023 00:35:48.949,3 Jun 2023 00:37:18.319,89.371
8,3 Jun 2023 19:08:14.970,3 Jun 2023 19:09:17.520,62.550
9,3 Jun 2023 20:36:47.327,3 Jun 2023 20:39:12.864,145.537
10,3 Jun 2023 22:07:39.245,3 Jun 2023 22:09:15.048,95.803
11,3 Jun 2023 23:36:55.647,3 Jun 2023 23:39:08.860,133.213
12,4 Jun 2023 19:37:36.469,4 Jun 2023 19:40:21.051,164.582
13,4 Jun 2023 21:08:46.177,4 Jun 2023 21:10:14.418,88.241
14,4 Jun 2023 22:38:12.645,4 Jun 2023 22:40:42.495,149.850
15,5 Jun 2023 18:38:48.524,5 Jun 2023 18:41:36.486,167.962
16,5 Jun 2023 20:09:32.265,5 Jun 2023 20:11:19.401,107.136
17,5 Jun 2023 21:39:38.317,5 Jun 2023 21:41:43.331,125.014
18,5 Jun 2023 23:09:00.754,5 Jun 2023 23:10:35.220,94.466
19,6 Jun 2023 17:41:38.445,6 Jun 2023 17:42:26.951,48.506
20,6 Jun 2023 19:09:56.636,6 Jun 2023 19:12:26.662,150.027
21,6 Jun 2023 20:40:53.137,6 Jun 2023 20:42:27.527,94.390
22,6 Jun 2023 22:10:10.588,6 Jun 2023 22:12:25.971,135.383
23,7 Jun 2023 18:10:50.485,7 Jun 2023 18:13:36.026,165.541
24,7 Jun 2023 19:41:58.660,7 Jun 2023 19:43:27.428,88.768
25,7 Jun 2023 21:11:28.948,7 Jun 2023 21:13:55.343,146.395

"Access","Start Time (UTCG)","Stop Time (UTCG)","Duration (sec)"
1,2 Jun 2023 02:05:36.069,2 Jun 2023 02:05:52.035,15.966
2,2 Jun 2023 02:06:14.016,2 Jun 2023 02:07:31.457,77.441
3,2 Jun 2023 03:35:03.562,2 Jun 2023 03:37:20.313,136.752
4,2 Jun 2023 05:05:43.320,2 Jun 2023 05:07:34.295,110.975
5,2 Jun 2023 06:34:59.876,2 Jun 2023 06:36:39.192,99.316
6,3 Jun 2023 02:35:43.414,3 Jun 2023 02:38:27.653,164.239
7,3 Jun 2023 04:06:50.639,3 Jun 2023 04:08:23.607,92.968
8,3 Jun 2023 05:36:12.948,3 Jun 2023 05:38:46.382,153.434
9,4 Jun 2023 01:36:52.824,4 Jun 2023 01:39:41.540,168.717
10,4 Jun 2023 03:07:42.517,4 Jun 2023 03:09:25.290,102.774
11,4 Jun 2023 04:37:35.262,4 Jun 2023 04:39:52.343,137.081
12,4 Jun 2023 06:07:13.749,4 Jun 2023 06:08:27.196,73.448
13,5 Jun 2023 00:39:26.829,5 Jun 2023 00:40:38.658,71.829
14,5 Jun 2023 02:08:09.586,5 Jun 2023 02:10:30.677,141.091
15,5 Jun 2023 03:38:53.801,5 Jun 2023 03:40:40.671,106.870
16,5 Jun 2023 05:08:10.570,5 Jun 2023 05:10:11.628,121.058
17,6 Jun 2023 01:08:52.829,6 Jun 2023 01:11:37.499,164.670
18,6 Jun 2023 02:40:00.339,6 Jun 2023 02:41:32.768,92.429
19,6 Jun 2023 04:09:24.128,6 Jun 2023 04:11:57.737,153.609
20,7 Jun 2023 00:10:02.755,7 Jun 2023 00:12:51.755,169.000
21,7 Jun 2023 01:40:48.501,7 Jun 2023 01:42:35.189,106.688
22,7 Jun 2023 03:10:46.660,7 Jun 2023 03:13:01.194,134.534
23,7 Jun 2023 04:40:19.824,7 Jun 2023 04:41:41.657,81.833
24,7 Jun 2023 23:12:41.413,7 Jun 2023 23:13:45.318,63.905
25,8 Jun 2023 00:41:14.374,8 Jun 2023 00:43:41.044,146.670
26,8 Jun 2023 02:12:04.265,8 Jun 2023 02:13:45.064,100.799
27,8 Jun 2023 03:41:21.317,8 Jun 2023 03:43:30.069,128.752

"Access","Start Time (UTCG)","Stop Time (UTCG)","Duration (sec)"
1,2 Jun 2023 02:49:42.012,2 Jun 2023 02:52:29.089,167.077
2,2 Jun 2023 04:20:46.386,2 Jun 2023 04:22:18.513,92.128
3,2 Jun 2023 05:50:16.905,2 Jun 2023 05:52:46.012,149.107
4,3 Jun 2023 01:50:54.381,3 Jun 2023 01:53:38.684,164.303
5,3 Jun 2023 03:21:18.911,3 Jun 2023 03:23:22.667,123.756
6,3 Jun 2023 04:51:39.732,3 Jun 2023 04:53:45.213,125.481
7,3 Jun 2023 06:21:02.687,3 Jun 2023 06:22:39.752,97.065
8,4 Jun 2023 00:53:59.443,4 Jun 2023 00:54:17.216,17.773
9,4 Jun 2023 02:21:52.282,4 Jun 2023 02:24:29.588,157.306
10,4 Jun 2023 03:52:52.902,4 Jun 2023 03:54:29.127,96.225
11,4 Jun 2023 05:22:12.943,4 Jun 2023 05:24:35.474,142.531
12,5 Jun 2023 01:22:52.168,5 Jun 2023 01:25:40.632,168.465
13,5 Jun 2023 02:53:55.595,5 Jun 2023 02:55:28.286,92.691
14,5 Jun 2023 04:23:29.840,5 Jun 2023 04:25:56.045,146.206
15,5 Jun 2023 05:53:45.624,5 Jun 2023 05:54:13.159,27.535
16,6 Jun 2023 00:24:07.284,6 Jun 2023 00:26:47.774,160.491
17,6 Jun 2023 01:54:23.925,6 Jun 2023 01:56:32.637,128.712
18,6 Jun 2023 03:24:53.019,6 Jun 2023 03:26:53.397,120.378
19,6 Jun 2023 04:54:11.904,6 Jun 2023 04:55:51.125,99.221
20,7 Jun 2023 00:55:00.040,7 Jun 2023 00:57:39.818,159.778
21,7 Jun 2023 02:26:03.101,7 Jun 2023 02:27:38.334,95.234
22,7 Jun 2023 03:55:23.399,7 Jun 2023 03:57:51.511,148.112
23,7 Jun 2023 23:56:01.847,7 Jun 2023 23:58:51.866,170.019
24,8 Jun 2023 01:27:04.714,8 Jun 2023 01:28:38.083,93.369
25,8 Jun 2023 02:56:44.628,8 Jun 2023 02:59:05.933,141.305
26,8 Jun 2023 04:26:44.477,8 Jun 2023 04:27:29.756,45.279

