STK/target_primary/access_sensors/resolution/RCO_2x4_50_500_1.0.csv

"Access","Start Time (UTCG)","Stop Time (UTCG)","Duration (sec)"
1,1 Jun 2023 10:21:29.374,1 Jun 2023 10:23:46.320,136.946
2,1 Jun 2023 12:00:18.057,1 Jun 2023 12:03:07.979,169.922
3,1 Jun 2023 13:39:08.592,1 Jun 2023 13:40:11.596,63.005
4,2 Jun 2023 08:19:56.930,2 Jun 2023 08:23:14.989,198.059
5,2 Jun 2023 09:59:34.954,2 Jun 2023 10:01:46.820,131.866
6,2 Jun 2023 11:38:17.371,2 Jun 2023 11:41:08.574,171.203
7,2 Jun 2023 13:17:12.185,2 Jun 2023 13:18:10.030,57.845
8,3 Jun 2023 07:57:56.947,3 Jun 2023 08:01:15.465,198.519
9,3 Jun 2023 09:37:36.218,3 Jun 2023 09:39:47.325,131.108
10,3 Jun 2023 11:16:16.785,3 Jun 2023 11:19:09.119,172.335
11,3 Jun 2023 12:55:17.213,3 Jun 2023 12:56:08.077,50.865
12,4 Jun 2023 07:35:57.066,4 Jun 2023 07:39:15.906,198.840
13,4 Jun 2023 09:15:37.495,4 Jun 2023 09:17:47.831,130.336
14,4 Jun 2023 10:54:16.278,4 Jun 2023 10:57:09.650,173.372
15,4 Jun 2023 12:33:23.736,4 Jun 2023 12:34:05.818,42.082
16,5 Jun 2023 07:13:57.285,5 Jun 2023 07:17:16.332,199.047
17,5 Jun 2023 08:53:38.791,5 Jun 2023 08:55:48.343,129.552
18,5 Jun 2023 10:32:15.839,5 Jun 2023 10:35:10.198,174.359
19,5 Jun 2023 12:11:27.243,5 Jun 2023 12:12:03.278,36.035
20,6 Jun 2023 06:51:57.595,6 Jun 2023 06:55:16.755,199.161
21,6 Jun 2023 08:31:40.097,6 Jun 2023 08:33:48.859,128.762
22,6 Jun 2023 10:10:15.458,6 Jun 2023 10:13:10.759,175.301
23,6 Jun 2023 11:49:32.006,6 Jun 2023 11:49:59.800,27.794
24,7 Jun 2023 06:29:58.001,7 Jun 2023 06:33:17.150,199.149
25,7 Jun 2023 08:09:41.425,7 Jun 2023 08:11:49.378,127.953
26,7 Jun 2023 09:48:15.126,7 Jun 2023 09:51:11.299,176.173
27,7 Jun 2023 11:27:41.539,7 Jun 2023 11:27:53.828,12.289
28,8 Jun 2023 06:07:58.494,8 Jun 2023 06:11:17.515,199.021
29,8 Jun 2023 07:47:42.766,8 Jun 2023 07:49:49.902,127.135
30,8 Jun 2023 09:26:14.835,8 Jun 2023 09:29:11.782,176.947

"Access","Start Time (UTCG)","Stop Time (UTCG)","Duration (sec)"
1,1 Jun 2023 11:11:16.578,1 Jun 2023 11:13:16.277,119.699
2,1 Jun 2023 12:49:19.606,1 Jun 2023 12:52:00.651,161.045
3,2 Jun 2023 09:09:17.053,2 Jun 2023 09:12:26.822,189.768
4,2 Jun 2023 10:49:16.973,2 Jun 2023 10:51:17.415,120.442
5,2 Jun 2023 12:27:19.741,2 Jun 2023 12:29:59.482,159.741
6,3 Jun 2023 08:47:18.204,3 Jun 2023 08:50:27.203,188.999
7,3 Jun 2023 10:27:17.362,3 Jun 2023 10:29:19.766,122.405
8,3 Jun 2023 12:05:19.908,3 Jun 2023 12:07:58.053,158.145
9,4 Jun 2023 08:25:19.318,4 Jun 2023 08:28:27.577,188.259
10,4 Jun 2023 10:05:17.740,4 Jun 2023 10:07:21.896,124.156
11,4 Jun 2023 11:43:20.119,4 Jun 2023 11:45:56.297,156.178
12,5 Jun 2023 08:03:20.485,5 Jun 2023 08:06:27.946,187.460
13,5 Jun 2023 09:43:18.108,5 Jun 2023 09:45:23.869,125.761
14,5 Jun 2023 11:21:20.364,5 Jun 2023 11:23:54.209,153.845
15,6 Jun 2023 07:41:21.716,6 Jun 2023 07:44:28.310,186.593
16,6 Jun 2023 09:21:18.469,6 Jun 2023 09:23:25.721,127.252
17,6 Jun 2023 10:59:20.561,6 Jun 2023 11:01:52.126,151.566
18,7 Jun 2023 05:43:04.925,7 Jun 2023 05:43:13.092,8.167
19,7 Jun 2023 07:19:23.007,7 Jun 2023 07:22:28.666,185.659
20,7 Jun 2023 08:59:18.823,7 Jun 2023 09:01:27.480,128.657
21,7 Jun 2023 10:37:20.719,7 Jun 2023 10:39:49.968,149.249
22,8 Jun 2023 05:20:58.337,8 Jun 2023 05:21:21.422,23.085
23,8 Jun 2023 06:57:24.363,8 Jun 2023 07:00:29.021,184.658
24,8 Jun 2023 08:37:19.050,8 Jun 2023 08:39:29.160,130.110

"Access","Start Time (UTCG)","Stop Time (UTCG)","Duration (sec)"
1,1 Jun 2023 15:01:01.407,1 Jun 2023 15:04:18.734,197.327
2,1 Jun 2023 16:41:05.442,1 Jun 2023 16:42:56.991,111.550
3,1 Jun 2023 18:19:15.530,1 Jun 2023 18:22:17.724,182.194
4,2 Jun 2023 14:39:02.419,2 Jun 2023 14:42:19.625,197.206
5,2 Jun 2023 16:19:07.081,2 Jun 2023 16:20:58.625,111.545
6,2 Jun 2023 17:57:16.552,2 Jun 2023 18:00:18.759,182.207
7,3 Jun 2023 14:17:03.505,3 Jun 2023 14:20:20.489,196.984
8,3 Jun 2023 15:57:08.704,3 Jun 2023 15:59:00.364,111.660
9,3 Jun 2023 17:35:17.603,3 Jun 2023 17:38:19.719,182.116
10,4 Jun 2023 13:55:04.663,4 Jun 2023 13:58:21.322,196.658
11,4 Jun 2023 15:35:10.308,4 Jun 2023 15:37:02.111,111.803
12,4 Jun 2023 17:13:18.678,4 Jun 2023 17:16:20.661,181.983
13,5 Jun 2023 13:33:05.892,5 Jun 2023 13:36:22.118,196.226
14,5 Jun 2023 15:13:11.899,5 Jun 2023 15:15:03.860,111.961
15,5 Jun 2023 16:51:19.775,5 Jun 2023 16:54:21.530,181.755
16,6 Jun 2023 13:11:07.187,6 Jun 2023 13:14:22.882,195.694
17,6 Jun 2023 14:51:13.471,6 Jun 2023 14:53:05.618,112.147
18,6 Jun 2023 16:29:20.900,6 Jun 2023 16:32:22.309,181.408
19,7 Jun 2023 12:49:08.547,7 Jun 2023 12:52:23.606,195.058
20,7 Jun 2023 14:29:15.030,7 Jun 2023 14:31:07.378,112.348
21,7 Jun 2023 16:07:22.051,7 Jun 2023 16:10:22.993,180.942

"Access","Start Time (UTCG)","Stop Time (UTCG)","Duration (sec)"
1,1 Jun 2023 14:12:43.085,1 Jun 2023 14:13:01.817,18.731
2,1 Jun 2023 14:13:19.948,1 Jun 2023 14:14:55.030,95.082
3,1 Jun 2023 15:50:52.647,1 Jun 2023 15:53:33.588,160.941
4,1 Jun 2023 17:30:21.116,1 Jun 2023 17:32:45.891,144.775
5,1 Jun 2023 19:08:27.896,1 Jun 2023 19:10:27.948,120.052
6,2 Jun 2023 13:50:38.901,2 Jun 2023 13:51:07.939,29.038
7,2 Jun 2023 13:51:20.396,2 Jun 2023 13:52:57.330,96.934
8,2 Jun 2023 15:28:54.908,2 Jun 2023 15:31:35.008,160.100
9,2 Jun 2023 17:08:21.807,2 Jun 2023 17:10:48.076,146.269
10,2 Jun 2023 18:46:29.698,2 Jun 2023 18:48:28.656,118.958
11,3 Jun 2023 13:28:25.483,3 Jun 2023 13:29:12.553,47.070
12,3 Jun 2023 13:29:20.967,3 Jun 2023 13:30:59.529,98.563
13,3 Jun 2023 15:06:57.209,3 Jun 2023 15:09:36.424,159.215
14,3 Jun 2023 16:46:22.534,3 Jun 2023 16:48:50.226,147.692
15,3 Jun 2023 18:24:31.567,3 Jun 2023 18:26:29.267,117.700
16,4 Jun 2023 13:06:16.865,4 Jun 2023 13:07:16.452,59.588
17,4 Jun 2023 13:07:21.447,4 Jun 2023 13:09:01.641,100.195
18,4 Jun 2023 14:44:59.553,4 Jun 2023 14:47:37.844,158.292
19,4 Jun 2023 16:24:23.291,4 Jun 2023 16:26:52.341,149.050
20,4 Jun 2023 18:02:33.394,4 Jun 2023 18:04:29.749,116.356
21,5 Jun 2023 12:44:13.391,5 Jun 2023 12:45:20.346,66.955
22,5 Jun 2023 12:45:21.471,5 Jun 2023 12:47:03.673,102.202
23,5 Jun 2023 14:23:01.943,5 Jun 2023 14:25:39.262,157.319
24,5 Jun 2023 16:02:24.077,5 Jun 2023 16:04:54.415,150.339
25,5 Jun 2023 17:40:35.261,5 Jun 2023 17:42:30.129,114.868
26,6 Jun 2023 12:22:11.107,6 Jun 2023 12:25:05.636,174.528
27,6 Jun 2023 14:01:04.380,6 Jun 2023 14:03:40.682,156.302
28,6 Jun 2023 15:40:24.881,6 Jun 2023 15:42:56.456,151.574
29,6 Jun 2023 17:18:37.206,6 Jun 2023 17:20:30.366,113.160
30,7 Jun 2023 12:00:09.317,7 Jun 2023 12:03:07.528,178.211
31,7 Jun 2023 13:39:06.872,7 Jun 2023 13:41:42.104,155.232
32,7 Jun 2023 15:18:25.710,7 Jun 2023 15:20:58.456,152.746
33,7 Jun 2023 16:56:39.228,7 Jun 2023 16:58:30.424,111.197

"Access","Start Time (UTCG)","Stop Time (UTCG)","Duration (sec)"
1,1 Jun 2023 21:20:13.693,1 Jun 2023 21:23:23.305,189.612
2,1 Jun 2023 23:00:13.527,1 Jun 2023 23:02:14.007,120.480
3,2 Jun 2023 00:38:16.225,2 Jun 2023 00:40:55.812,159.586
4,2 Jun 2023 20:58:14.857,2 Jun 2023 21:01:23.713,188.856
5,2 Jun 2023 22:38:13.941,2 Jun 2023 22:40:16.381,122.439
6,3 Jun 2023 00:16:16.431,3 Jun 2023 00:18:54.385,157.955
7,3 Jun 2023 20:36:16.007,3 Jun 2023 20:39:24.116,188.110
8,3 Jun 2023 22:16:14.349,3 Jun 2023 22:18:18.533,124.184
9,3 Jun 2023 23:54:16.670,3 Jun 2023 23:56:52.627,155.956
10,4 Jun 2023 20:14:17.217,4 Jun 2023 20:17:24.511,187.294
11,4 Jun 2023 21:54:14.744,4 Jun 2023 21:56:20.535,125.790
12,4 Jun 2023 23:32:16.953,4 Jun 2023 23:34:50.554,153.600
13,5 Jun 2023 19:52:18.488,5 Jun 2023 19:55:24.903,186.415
14,5 Jun 2023 21:32:15.132,5 Jun 2023 21:34:22.416,127.284
15,5 Jun 2023 23:10:17.164,5 Jun 2023 23:12:48.508,151.344
16,6 Jun 2023 17:53:59.774,6 Jun 2023 17:54:11.515,11.741
17,6 Jun 2023 19:30:19.818,6 Jun 2023 19:33:25.290,185.472
18,6 Jun 2023 21:10:15.512,6 Jun 2023 21:12:24.205,128.693
19,6 Jun 2023 22:48:17.360,6 Jun 2023 22:50:46.341,148.981
20,7 Jun 2023 17:31:54.272,7 Jun 2023 17:32:19.015,24.742
21,7 Jun 2023 19:08:21.217,7 Jun 2023 19:11:25.671,184.454
22,7 Jun 2023 20:48:15.885,7 Jun 2023 20:50:25.914,130.029
23,7 Jun 2023 22:26:17.596,7 Jun 2023 22:28:43.488,145.892

"Access","Start Time (UTCG)","Stop Time (UTCG)","Duration (sec)"
1,1 Jun 2023 20:30:53.355,1 Jun 2023 20:34:11.497,198.142
2,1 Jun 2023 22:10:31.666,1 Jun 2023 22:12:43.318,131.652
3,1 Jun 2023 23:49:13.857,1 Jun 2023 23:52:05.095,171.237
4,2 Jun 2023 01:28:09.080,2 Jun 2023 01:29:06.304,57.224
5,2 Jun 2023 20:08:53.418,2 Jun 2023 20:12:11.999,198.581
6,2 Jun 2023 21:48:32.964,2 Jun 2023 21:50:43.850,130.887
7,2 Jun 2023 23:27:13.300,2 Jun 2023 23:30:05.665,172.365
8,3 Jun 2023 01:06:14.390,3 Jun 2023 01:07:04.335,49.945
9,3 Jun 2023 19:46:53.584,3 Jun 2023 19:50:12.463,198.879
10,3 Jun 2023 21:26:34.279,3 Jun 2023 21:28:44.389,130.110
11,3 Jun 2023 23:05:12.828,3 Jun 2023 23:08:06.229,173.401
12,4 Jun 2023 00:44:20.583,4 Jun 2023 00:45:02.105,41.522
13,4 Jun 2023 19:24:53.847,4 Jun 2023 19:28:12.922,199.075
14,4 Jun 2023 21:04:35.609,4 Jun 2023 21:06:44.932,129.323
15,4 Jun 2023 22:43:12.418,4 Jun 2023 22:46:06.807,174.388
16,5 Jun 2023 00:22:24.209,5 Jun 2023 00:22:59.522,35.313
17,5 Jun 2023 19:02:54.205,5 Jun 2023 19:06:13.366,199.161
18,5 Jun 2023 20:42:36.955,5 Jun 2023 20:44:45.477,128.522
19,5 Jun 2023 22:21:12.067,5 Jun 2023 22:24:07.400,175.333
20,6 Jun 2023 00:00:29.212,6 Jun 2023 00:00:55.933,26.722
21,6 Jun 2023 18:40:54.655,6 Jun 2023 18:44:13.785,199.131
22,6 Jun 2023 20:20:38.316,6 Jun 2023 20:22:46.026,127.710
23,6 Jun 2023 21:59:11.760,6 Jun 2023 22:02:07.962,176.202
24,6 Jun 2023 23:38:39.293,6 Jun 2023 23:38:49.358,10.065
25,7 Jun 2023 18:18:55.179,7 Jun 2023 18:22:14.175,198.996
26,7 Jun 2023 19:58:39.697,7 Jun 2023 20:00:46.581,126.884
27,7 Jun 2023 21:37:11.502,7 Jun 2023 21:40:08.473,176.971

"Access","Start Time (UTCG)","Stop Time (UTCG)","Duration (sec)"
1,2 Jun 2023 02:02:21.488,2 Jun 2023 02:03:51.746,90.258
2,2 Jun 2023 03:39:45.257,2 Jun 2023 03:42:34.229,168.972
3,2 Jun 2023 05:19:13.056,2 Jun 2023 05:21:47.986,154.930
4,2 Jun 2023 06:57:28.216,2 Jun 2023 06:59:24.592,116.376
5,3 Jun 2023 01:39:46.514,3 Jun 2023 01:39:55.444,8.930
6,3 Jun 2023 01:40:19.697,3 Jun 2023 01:41:52.435,92.738
7,3 Jun 2023 03:17:46.564,3 Jun 2023 03:20:33.665,167.101
8,3 Jun 2023 04:57:12.173,3 Jun 2023 04:59:48.066,155.893
9,3 Jun 2023 06:35:28.208,3 Jun 2023 06:37:23.014,114.807
10,4 Jun 2023 01:17:38.013,4 Jun 2023 01:18:02.457,24.444
11,4 Jun 2023 01:18:18.067,4 Jun 2023 01:19:52.990,94.923
12,4 Jun 2023 02:55:48.108,4 Jun 2023 02:58:33.102,164.994
13,4 Jun 2023 04:35:11.290,4 Jun 2023 04:37:48.111,156.821
14,4 Jun 2023 06:13:28.279,4 Jun 2023 06:15:21.298,113.019
15,5 Jun 2023 00:55:32.223,5 Jun 2023 00:56:05.885,33.662
16,5 Jun 2023 00:56:16.580,5 Jun 2023 00:57:53.423,96.843
17,5 Jun 2023 02:33:49.542,5 Jun 2023 02:36:32.548,163.006
18,5 Jun 2023 04:13:10.416,5 Jun 2023 04:15:48.125,157.709
19,5 Jun 2023 05:51:28.445,5 Jun 2023 05:53:19.394,110.950
20,6 Jun 2023 00:33:11.542,6 Jun 2023 00:34:08.260,56.718
21,6 Jun 2023 00:34:15.224,6 Jun 2023 00:35:53.747,98.523
22,6 Jun 2023 02:11:50.111,6 Jun 2023 02:14:31.998,161.887
23,6 Jun 2023 03:51:09.542,6 Jun 2023 03:53:48.102,158.560
24,6 Jun 2023 05:29:28.703,6 Jun 2023 05:31:17.267,108.563
25,7 Jun 2023 00:11:05.207,7 Jun 2023 00:12:10.153,64.946
26,7 Jun 2023 00:12:13.444,7 Jun 2023 00:13:53.977,100.533
27,7 Jun 2023 01:49:50.415,7 Jun 2023 01:52:31.453,161.037
28,7 Jun 2023 03:29:08.673,7 Jun 2023 03:31:48.050,159.377
29,7 Jun 2023 05:07:29.074,7 Jun 2023 05:09:14.937,105.863
30,7 Jun 2023 23:49:00.712,7 Jun 2023 23:51:54.122,173.410
31,8 Jun 2023 01:27:50.749,8 Jun 2023 01:30:30.915,160.166
32,8 Jun 2023 03:07:07.808,8 Jun 2023 03:09:48.010,160.202
33,8 Jun 2023 04:45:29.569,8 Jun 2023 04:47:12.458,102.889

"Access","Start Time (UTCG)","Stop Time (UTCG)","Duration (sec)"
1,2 Jun 2023 02:50:01.215,2 Jun 2023 02:53:20.481,199.266
2,2 Jun 2023 04:29:54.215,2 Jun 2023 04:31:59.195,124.980
3,2 Jun 2023 06:08:12.372,2 Jun 2023 06:11:15.242,182.870
4,3 Jun 2023 02:28:00.740,3 Jun 2023 02:31:19.589,198.849
5,3 Jun 2023 04:07:54.336,3 Jun 2023 04:09:58.955,124.619
6,3 Jun 2023 05:46:11.614,3 Jun 2023 05:49:14.145,182.531
7,4 Jun 2023 02:05:59.726,4 Jun 2023 02:09:18.673,198.947
8,4 Jun 2023 03:45:54.430,4 Jun 2023 03:47:58.720,124.289
9,4 Jun 2023 05:24:10.884,4 Jun 2023 05:27:12.954,182.070
10,5 Jun 2023 01:43:58.800,5 Jun 2023 01:47:17.733,198.933
11,5 Jun 2023 03:23:54.497,5 Jun 2023 03:25:58.487,123.990
12,5 Jun 2023 05:02:10.173,5 Jun 2023 05:05:11.671,181.498
13,6 Jun 2023 01:21:57.953,6 Jun 2023 01:25:16.770,198.817
14,6 Jun 2023 03:01:54.527,6 Jun 2023 03:03:58.259,123.732
15,6 Jun 2023 04:40:09.490,6 Jun 2023 04:43:10.481,180.991
16,7 Jun 2023 00:59:57.184,7 Jun 2023 01:03:15.781,198.598
17,7 Jun 2023 02:39:54.515,7 Jun 2023 02:41:58.035,123.521
18,7 Jun 2023 04:18:08.834,7 Jun 2023 04:21:09.184,180.350
19,8 Jun 2023 00:37:56.491,8 Jun 2023 00:41:14.770,198.279
20,8 Jun 2023 02:17:54.459,8 Jun 2023 02:19:57.816,123.357
21,8 Jun 2023 03:56:08.200,8 Jun 2023 03:59:07.766,179.566

