STK/target_primary/access_sensors/resolution/SSO_2x12_0_250_2.0.csv

"Access","Start Time (UTCG)","Stop Time (UTCG)","Duration (sec)"
1,1 May 2023 10:32:39.343,1 May 2023 10:33:29.389,50.046
2,1 May 2023 20:38:18.187,1 May 2023 20:40:40.454,142.267
3,2 May 2023 10:26:26.842,2 May 2023 10:27:56.860,90.018
4,2 May 2023 20:32:31.078,2 May 2023 20:34:45.855,134.777
5,3 May 2023 10:20:26.240,3 May 2023 10:22:20.168,113.929
6,3 May 2023 20:26:49.945,3 May 2023 20:28:42.890,112.945
7,4 May 2023 10:14:16.827,4 May 2023 10:16:39.723,142.896
8,4 May 2023 20:21:18.770,4 May 2023 20:22:13.656,54.886
9,5 May 2023 10:08:09.331,5 May 2023 10:10:53.085,163.754
10,6 May 2023 10:02:13.373,6 May 2023 10:05:00.400,167.027
11,6 May 2023 21:38:48.543,6 May 2023 21:39:30.475,41.932
12,7 May 2023 09:56:22.181,7 May 2023 09:59:01.205,159.024
13,7 May 2023 21:32:26.843,7 May 2023 21:33:57.198,90.355
14,8 May 2023 09:50:26.520,8 May 2023 09:53:03.044,156.524
15,8 May 2023 21:26:22.821,8 May 2023 21:28:19.178,116.357
16,9 May 2023 09:44:35.012,9 May 2023 09:46:56.467,141.455
17,9 May 2023 21:20:28.535,9 May 2023 21:22:35.047,126.512
18,10 May 2023 09:38:48.070,10 May 2023 09:41:07.082,139.013
19,10 May 2023 21:14:39.443,10 May 2023 21:16:49.047,129.604
20,11 May 2023 09:33:06.304,11 May 2023 09:35:13.537,127.233
21,11 May 2023 21:08:53.567,11 May 2023 21:11:04.204,130.637
22,12 May 2023 09:27:29.954,12 May 2023 09:29:18.897,108.943
23,12 May 2023 21:03:06.288,12 May 2023 21:05:27.609,141.321
24,13 May 2023 09:21:55.836,13 May 2023 09:23:21.809,85.973
25,13 May 2023 20:57:25.644,13 May 2023 20:59:42.863,137.219
26,14 May 2023 09:16:22.943,14 May 2023 09:17:12.150,49.207
27,14 May 2023 20:51:29.231,14 May 2023 20:53:53.253,144.022
28,15 May 2023 20:45:38.026,15 May 2023 20:47:59.329,141.303

"Access","Start Time (UTCG)","Stop Time (UTCG)","Duration (sec)"
1,1 May 2023 21:22:39.836,1 May 2023 21:24:44.109,124.273
2,2 May 2023 09:40:56.889,2 May 2023 09:43:17.642,140.754
3,2 May 2023 21:16:49.048,2 May 2023 21:18:57.477,128.429
4,3 May 2023 09:35:13.342,3 May 2023 09:37:25.693,132.351
5,3 May 2023 21:11:03.356,3 May 2023 21:13:11.372,128.015
6,4 May 2023 09:29:34.039,4 May 2023 09:31:30.312,116.273
7,4 May 2023 21:05:15.153,4 May 2023 21:07:34.481,139.328
8,5 May 2023 09:24:03.281,5 May 2023 09:25:35.950,92.669
9,5 May 2023 20:59:31.645,5 May 2023 21:01:52.068,140.423
10,6 May 2023 09:18:24.761,6 May 2023 09:19:32.381,67.620
11,6 May 2023 20:53:41.427,6 May 2023 20:56:04.151,142.723
12,7 May 2023 20:47:48.738,7 May 2023 20:50:11.935,143.197
13,8 May 2023 20:41:58.831,8 May 2023 20:44:20.313,141.482
14,9 May 2023 10:30:17.586,9 May 2023 10:31:25.706,68.120
15,9 May 2023 20:36:08.043,9 May 2023 20:38:28.844,140.801
16,10 May 2023 10:24:12.568,10 May 2023 10:25:51.612,99.044
17,10 May 2023 20:30:23.286,10 May 2023 20:32:31.955,128.669
18,11 May 2023 10:18:11.807,11 May 2023 10:20:13.929,122.122
19,11 May 2023 20:24:44.793,11 May 2023 20:26:23.655,98.862
20,12 May 2023 10:11:56.975,12 May 2023 10:14:31.215,154.240
21,12 May 2023 20:19:18.860,12 May 2023 20:19:54.616,35.756
22,13 May 2023 10:05:55.854,13 May 2023 10:08:42.202,166.348
23,14 May 2023 10:00:01.870,14 May 2023 10:02:47.378,165.509
24,14 May 2023 21:36:22.751,14 May 2023 21:37:27.885,65.134
25,15 May 2023 09:54:09.533,15 May 2023 09:56:46.927,157.394
26,15 May 2023 21:30:09.590,15 May 2023 21:31:50.637,101.047
27,16 May 2023 09:48:14.893,16 May 2023 09:50:48.299,153.406

"Access","Start Time (UTCG)","Stop Time (UTCG)","Duration (sec)"
1,1 May 2023 12:01:14.944,1 May 2023 12:04:01.580,166.636
2,1 May 2023 23:37:40.947,1 May 2023 23:38:37.028,56.081
3,2 May 2023 11:55:24.276,2 May 2023 11:58:01.498,157.223
4,2 May 2023 23:31:25.585,2 May 2023 23:33:01.134,95.548
5,3 May 2023 11:49:28.217,3 May 2023 11:52:03.897,155.680
6,3 May 2023 23:25:23.680,3 May 2023 23:27:22.908,119.228
7,4 May 2023 11:43:37.303,4 May 2023 11:45:58.041,140.738
8,4 May 2023 23:19:30.521,4 May 2023 23:21:37.709,127.188
9,5 May 2023 11:37:50.954,5 May 2023 11:40:09.151,138.198
10,5 May 2023 23:13:42.410,5 May 2023 23:15:52.047,129.638
11,6 May 2023 11:32:09.719,6 May 2023 11:34:15.217,125.497
12,6 May 2023 23:07:56.026,6 May 2023 23:10:09.740,133.715
13,7 May 2023 11:26:34.707,7 May 2023 11:28:20.880,106.172
14,7 May 2023 23:02:09.680,7 May 2023 23:04:31.341,141.661
15,8 May 2023 11:20:59.307,8 May 2023 11:22:22.984,83.678
16,8 May 2023 22:56:27.029,8 May 2023 22:58:45.737,138.708
17,9 May 2023 11:15:28.756,9 May 2023 11:16:10.404,41.648
18,9 May 2023 22:50:31.382,9 May 2023 22:52:55.526,144.144
19,10 May 2023 22:44:40.800,10 May 2023 22:47:01.568,140.768
20,11 May 2023 12:33:15.473,11 May 2023 12:33:56.798,41.325
21,11 May 2023 22:38:49.887,11 May 2023 22:41:12.297,142.410
22,12 May 2023 12:27:00.824,12 May 2023 12:28:25.454,84.631
23,12 May 2023 22:33:02.160,12 May 2023 22:35:18.352,136.192
24,13 May 2023 12:21:00.467,13 May 2023 12:22:49.409,108.943
25,13 May 2023 22:27:20.379,13 May 2023 22:29:16.958,116.579
26,14 May 2023 12:14:58.967,14 May 2023 12:17:10.267,131.301
27,14 May 2023 22:21:47.793,14 May 2023 22:22:49.935,62.142
28,15 May 2023 12:08:43.182,15 May 2023 12:11:24.856,161.674

"Access","Start Time (UTCG)","Stop Time (UTCG)","Duration (sec)"
1,1 May 2023 11:17:29.318,1 May 2023 11:18:31.403,62.085
2,1 May 2023 22:52:42.487,1 May 2023 22:55:06.040,143.553
3,2 May 2023 22:46:50.643,2 May 2023 22:49:13.046,142.403
4,3 May 2023 22:41:00.433,3 May 2023 22:43:22.531,142.098
5,4 May 2023 12:29:16.869,4 May 2023 12:30:29.598,72.729
6,4 May 2023 22:35:10.713,4 May 2023 22:37:30.274,139.562
7,5 May 2023 12:23:13.955,5 May 2023 12:24:55.186,101.231
8,5 May 2023 22:29:26.985,5 May 2023 22:31:32.150,125.165
9,6 May 2023 12:17:13.261,6 May 2023 12:19:17.308,124.047
10,6 May 2023 22:23:50.276,6 May 2023 22:25:21.348,91.072
11,7 May 2023 12:10:57.676,7 May 2023 12:13:34.024,156.348
12,7 May 2023 22:18:30.951,7 May 2023 22:18:49.849,18.898
13,8 May 2023 12:04:57.719,8 May 2023 12:07:44.399,166.680
14,9 May 2023 11:59:04.260,9 May 2023 12:01:49.109,164.848
15,9 May 2023 23:35:21.951,9 May 2023 23:36:32.830,70.879
16,10 May 2023 11:53:11.506,10 May 2023 11:55:49.015,157.509
17,10 May 2023 23:29:10.079,10 May 2023 23:30:55.705,105.626
18,11 May 2023 11:47:17.413,11 May 2023 11:49:49.680,152.266
19,11 May 2023 23:23:11.914,11 May 2023 23:25:15.214,123.299
20,12 May 2023 11:41:28.013,12 May 2023 11:43:49.087,141.074
21,12 May 2023 23:17:20.599,12 May 2023 23:19:28.428,127.830
22,13 May 2023 11:35:43.456,13 May 2023 11:37:58.188,134.732
23,13 May 2023 23:11:34.397,13 May 2023 23:13:42.995,128.598
24,14 May 2023 11:30:03.513,14 May 2023 11:32:02.736,119.223
25,14 May 2023 23:05:46.661,14 May 2023 23:08:04.942,138.281
26,15 May 2023 11:24:31.576,15 May 2023 11:26:09.143,97.567
27,15 May 2023 23:00:02.344,15 May 2023 23:02:23.436,141.092

"Access","Start Time (UTCG)","Stop Time (UTCG)","Duration (sec)"
1,1 May 2023 13:31:13.499,1 May 2023 13:33:15.840,122.341
2,2 May 2023 01:06:58.141,2 May 2023 01:09:14.653,136.512
3,2 May 2023 13:25:40.260,2 May 2023 13:27:21.891,101.631
4,3 May 2023 01:01:12.855,3 May 2023 01:03:34.401,141.546
5,3 May 2023 13:20:03.162,3 May 2023 13:21:22.341,79.179
6,4 May 2023 00:55:27.235,4 May 2023 00:57:47.860,140.625
7,4 May 2023 13:14:40.140,4 May 2023 13:14:59.838,19.698
8,5 May 2023 00:49:32.929,5 May 2023 00:51:56.905,143.976
9,6 May 2023 00:43:43.019,6 May 2023 00:46:03.905,140.886
10,6 May 2023 14:32:12.779,6 May 2023 14:33:03.059,50.280
11,7 May 2023 00:37:51.746,7 May 2023 00:40:13.819,142.073
12,7 May 2023 14:26:00.480,7 May 2023 14:27:30.510,90.031
13,8 May 2023 00:32:05.118,8 May 2023 00:34:18.884,133.766
14,8 May 2023 14:20:00.038,8 May 2023 14:21:53.839,113.801
15,9 May 2023 00:26:24.416,9 May 2023 00:28:14.946,110.531
16,9 May 2023 14:13:51.211,9 May 2023 14:16:13.448,142.237
17,10 May 2023 00:20:53.961,10 May 2023 00:21:46.359,52.398
18,10 May 2023 14:07:43.392,10 May 2023 14:10:26.923,163.531
19,11 May 2023 14:01:47.399,11 May 2023 14:04:34.403,167.004
20,12 May 2023 01:38:20.052,12 May 2023 01:39:05.731,45.679
21,12 May 2023 13:55:56.153,12 May 2023 13:58:35.508,159.354
22,13 May 2023 01:32:00.169,13 May 2023 01:33:31.730,91.561
23,13 May 2023 13:50:00.767,13 May 2023 13:52:37.371,156.604
24,14 May 2023 01:25:56.706,14 May 2023 01:27:53.694,116.988
25,14 May 2023 13:44:09.156,14 May 2023 13:46:31.587,142.431
26,15 May 2023 01:20:02.721,15 May 2023 01:22:09.372,126.651
27,15 May 2023 13:38:22.061,15 May 2023 13:40:41.382,139.320
28,16 May 2023 01:14:13.823,16 May 2023 01:16:23.497,129.674

"Access","Start Time (UTCG)","Stop Time (UTCG)","Duration (sec)"
1,1 May 2023 14:16:13.825,1 May 2023 14:18:20.627,126.802
2,2 May 2023 00:22:56.495,2 May 2023 00:24:14.736,78.241
3,2 May 2023 14:09:56.989,2 May 2023 14:12:36.354,159.365
4,3 May 2023 14:03:58.619,3 May 2023 14:06:45.643,167.025
5,4 May 2023 01:40:42.630,4 May 2023 01:41:02.843,20.213
6,4 May 2023 13:58:05.955,4 May 2023 14:00:49.366,163.411
7,5 May 2023 01:34:18.184,5 May 2023 01:35:37.535,79.351
8,5 May 2023 13:52:12.274,5 May 2023 13:54:49.804,157.530
9,6 May 2023 01:28:09.695,6 May 2023 01:30:00.051,110.357
10,6 May 2023 13:46:19.073,6 May 2023 13:48:48.791,149.718
11,7 May 2023 01:22:13.179,7 May 2023 01:24:18.032,124.853
12,7 May 2023 13:40:30.448,7 May 2023 13:42:51.236,140.787
13,8 May 2023 01:16:22.809,8 May 2023 01:18:31.594,128.785
14,8 May 2023 13:34:46.893,8 May 2023 13:36:59.367,132.474
15,9 May 2023 01:10:37.251,9 May 2023 01:12:45.165,127.914
16,9 May 2023 13:29:07.572,9 May 2023 13:31:04.079,116.507
17,10 May 2023 01:04:49.135,10 May 2023 01:07:09.010,139.875
18,10 May 2023 13:23:36.991,10 May 2023 13:25:09.875,92.884
19,11 May 2023 00:59:06.038,11 May 2023 01:01:26.215,140.177
20,11 May 2023 13:17:58.273,11 May 2023 13:19:06.645,68.372
21,12 May 2023 00:53:15.151,12 May 2023 00:55:38.105,142.954
22,13 May 2023 00:47:22.754,13 May 2023 00:49:45.751,142.998
23,14 May 2023 00:41:32.863,14 May 2023 00:43:54.482,141.619
24,14 May 2023 14:29:52.910,14 May 2023 14:30:59.369,66.459
25,15 May 2023 00:35:42.323,15 May 2023 00:38:02.899,140.576
26,15 May 2023 14:23:47.216,15 May 2023 14:25:25.424,98.208
27,16 May 2023 00:29:57.801,16 May 2023 00:32:05.868,128.066

"Access","Start Time (UTCG)","Stop Time (UTCG)","Duration (sec)"
1,1 May 2023 16:31:08.978,1 May 2023 16:32:08.799,59.821
2,2 May 2023 02:36:53.531,2 May 2023 02:39:15.002,141.471
3,2 May 2023 16:24:59.795,2 May 2023 16:26:35.283,95.488
4,3 May 2023 02:31:07.935,3 May 2023 02:33:19.010,131.075
5,3 May 2023 16:18:59.162,3 May 2023 16:20:58.001,118.838
6,4 May 2023 02:25:28.397,4 May 2023 02:27:12.861,104.464
7,4 May 2023 16:12:46.291,4 May 2023 16:15:16.243,149.952
8,5 May 2023 02:20:00.019,5 May 2023 02:20:44.185,44.167
9,5 May 2023 16:06:42.947,5 May 2023 16:09:28.316,165.369
10,6 May 2023 16:00:48.131,6 May 2023 16:03:34.528,166.397
11,7 May 2023 03:37:12.782,7 May 2023 03:38:11.235,58.454
12,7 May 2023 15:54:56.939,7 May 2023 15:57:34.213,157.274
13,8 May 2023 03:30:58.103,8 May 2023 03:32:34.854,96.751
14,8 May 2023 15:49:01.299,8 May 2023 15:51:36.441,155.141
15,9 May 2023 03:24:56.671,9 May 2023 03:26:56.555,119.884
16,9 May 2023 15:43:10.700,9 May 2023 15:45:31.604,140.904
17,10 May 2023 03:19:03.749,10 May 2023 03:21:11.062,127.313
18,10 May 2023 15:37:24.721,10 May 2023 15:39:42.247,137.526
19,11 May 2023 03:13:15.896,11 May 2023 03:15:25.449,129.553
20,11 May 2023 15:31:43.868,11 May 2023 15:33:47.949,124.081
21,12 May 2023 03:07:29.296,12 May 2023 03:09:43.828,134.532
22,12 May 2023 15:26:10.136,12 May 2023 15:27:53.727,103.591
23,13 May 2023 03:01:43.228,13 May 2023 03:04:04.867,141.638
24,13 May 2023 15:20:33.396,13 May 2023 15:21:55.043,81.647
25,14 May 2023 02:55:59.618,14 May 2023 02:58:18.970,139.352
26,14 May 2023 15:15:05.818,14 May 2023 15:15:37.257,31.439
27,15 May 2023 02:50:04.363,15 May 2023 02:52:28.508,144.145
28,16 May 2023 02:44:13.967,16 May 2023 02:46:34.799,140.832

"Access","Start Time (UTCG)","Stop Time (UTCG)","Duration (sec)"
1,1 May 2023 15:45:20.645,1 May 2023 15:47:46.375,145.730
2,2 May 2023 03:21:14.423,2 May 2023 03:23:20.344,125.922
3,2 May 2023 15:39:32.946,2 May 2023 15:41:52.929,139.983
4,3 May 2023 03:15:24.782,3 May 2023 03:17:34.162,129.380
5,3 May 2023 15:33:50.498,3 May 2023 15:36:00.076,129.578
6,4 May 2023 03:09:39.395,4 May 2023 03:11:48.105,128.710
7,4 May 2023 15:28:12.469,4 May 2023 15:30:05.174,112.705
8,5 May 2023 03:03:51.390,5 May 2023 03:06:12.258,140.868
9,5 May 2023 15:22:40.125,5 May 2023 15:24:09.460,89.335
10,6 May 2023 02:58:09.605,6 May 2023 03:00:28.325,138.719
11,6 May 2023 15:17:04.286,6 May 2023 15:18:03.182,58.896
12,7 May 2023 02:52:15.665,7 May 2023 02:54:39.365,143.699
13,8 May 2023 02:46:23.956,8 May 2023 02:48:46.146,142.191
14,8 May 2023 16:35:09.865,8 May 2023 16:35:28.131,18.266
15,9 May 2023 02:40:33.608,9 May 2023 02:42:55.829,142.220
16,9 May 2023 16:28:48.540,9 May 2023 16:30:03.836,75.297
17,10 May 2023 02:34:44.144,10 May 2023 02:37:03.323,139.178
18,10 May 2023 16:22:46.651,10 May 2023 16:24:29.206,102.555
19,11 May 2023 02:29:00.672,11 May 2023 02:31:04.773,124.101
20,11 May 2023 16:16:45.879,11 May 2023 16:18:51.213,125.335
21,12 May 2023 02:23:24.612,12 May 2023 02:24:52.902,88.290
22,12 May 2023 16:10:29.594,12 May 2023 16:13:07.461,157.867
23,13 May 2023 02:18:08.587,13 May 2023 02:18:18.165,9.578
24,13 May 2023 16:04:30.386,13 May 2023 16:07:17.307,166.920
25,14 May 2023 15:58:37.285,14 May 2023 16:01:21.513,164.228
26,15 May 2023 03:34:53.908,15 May 2023 03:36:06.829,72.921
27,15 May 2023 15:52:43.994,15 May 2023 15:55:21.610,157.616
28,16 May 2023 03:28:42.329,16 May 2023 03:30:29.620,107.291

"Access","Start Time (UTCG)","Stop Time (UTCG)","Duration (sec)"
1,1 May 2023 17:59:49.230,1 May 2023 18:02:34.519,165.289
2,2 May 2023 05:36:10.149,2 May 2023 05:37:15.241,65.092
3,2 May 2023 17:53:56.530,2 May 2023 17:56:34.091,157.561
4,3 May 2023 05:29:56.866,3 May 2023 05:31:37.979,101.113
5,3 May 2023 17:48:02.114,3 May 2023 17:50:34.984,152.870
6,4 May 2023 05:23:57.100,4 May 2023 05:25:58.907,121.807
7,4 May 2023 17:42:12.495,4 May 2023 17:44:33.538,141.043
8,5 May 2023 05:18:04.961,5 May 2023 05:20:12.495,127.534
9,5 May 2023 17:36:27.760,5 May 2023 17:38:42.707,134.947
10,6 May 2023 05:12:17.962,6 May 2023 05:14:27.038,129.076
11,6 May 2023 17:30:47.722,6 May 2023 17:32:47.194,119.473
12,7 May 2023 05:06:30.630,7 May 2023 05:08:47.415,136.785
13,7 May 2023 17:25:15.705,7 May 2023 17:26:53.376,97.671
14,8 May 2023 05:00:45.544,8 May 2023 05:03:06.853,141.309
15,8 May 2023 17:19:37.706,8 May 2023 17:20:51.813,74.106
16,9 May 2023 04:54:58.919,9 May 2023 04:57:20.033,141.113
17,10 May 2023 04:49:04.862,10 May 2023 04:51:28.752,143.890
18,11 May 2023 04:43:15.071,11 May 2023 04:45:35.864,140.792
19,11 May 2023 18:31:39.654,11 May 2023 18:32:38.615,58.961
20,12 May 2023 04:37:23.513,12 May 2023 04:39:45.378,141.866
21,12 May 2023 18:25:29.868,12 May 2023 18:27:05.131,95.263
22,13 May 2023 04:31:37.314,13 May 2023 04:33:49.854,132.541
23,13 May 2023 18:19:29.074,13 May 2023 18:21:27.840,118.766
24,14 May 2023 04:25:57.169,14 May 2023 04:27:44.623,107.454
25,14 May 2023 18:13:15.892,14 May 2023 18:15:46.065,150.173
26,15 May 2023 04:20:27.810,15 May 2023 04:21:15.740,47.930
27,15 May 2023 18:07:12.561,15 May 2023 18:09:58.063,165.502

"Access","Start Time (UTCG)","Stop Time (UTCG)","Duration (sec)"
1,1 May 2023 17:16:11.797,1 May 2023 17:16:57.977,46.181
2,2 May 2023 04:51:16.643,2 May 2023 04:53:40.673,144.031
3,3 May 2023 04:45:25.381,3 May 2023 04:47:46.710,141.328
4,3 May 2023 18:34:01.318,3 May 2023 18:34:40.216,38.899
5,4 May 2023 04:39:34.624,4 May 2023 04:41:57.067,142.444
6,4 May 2023 18:27:45.709,4 May 2023 18:29:09.253,83.544
7,5 May 2023 04:33:46.003,5 May 2023 04:36:03.740,137.736
8,5 May 2023 18:21:45.108,5 May 2023 18:23:33.331,108.223
9,6 May 2023 04:28:03.409,6 May 2023 04:30:03.657,120.248
10,6 May 2023 18:15:43.499,6 May 2023 18:17:54.351,130.851
11,7 May 2023 04:22:29.686,7 May 2023 04:23:44.808,75.121
12,7 May 2023 18:09:27.275,7 May 2023 18:12:08.979,161.704
13,8 May 2023 18:03:30.029,8 May 2023 18:06:17.268,167.239
14,9 May 2023 05:40:12.008,9 May 2023 05:40:37.662,25.654
15,9 May 2023 17:57:37.999,9 May 2023 18:00:19.624,161.626
16,10 May 2023 05:33:48.098,10 May 2023 05:35:10.319,82.221
17,10 May 2023 17:51:43.152,10 May 2023 17:54:20.461,157.309
18,11 May 2023 05:27:40.706,11 May 2023 05:29:32.660,111.953
19,11 May 2023 17:45:50.771,11 May 2023 17:48:16.950,146.178
20,12 May 2023 05:21:44.667,12 May 2023 05:23:50.047,125.381
21,12 May 2023 17:40:02.980,12 May 2023 17:42:22.966,139.986
22,13 May 2023 05:15:54.571,13 May 2023 05:18:03.641,129.069
23,13 May 2023 17:34:20.475,13 May 2023 17:36:30.046,129.571
24,14 May 2023 05:10:09.050,14 May 2023 05:12:17.297,128.247
25,14 May 2023 17:28:42.463,14 May 2023 17:30:35.025,112.561
26,15 May 2023 05:04:20.870,15 May 2023 05:06:41.261,140.391
27,15 May 2023 17:23:09.978,15 May 2023 17:24:39.176,89.198
28,16 May 2023 04:58:38.532,16 May 2023 05:00:57.755,139.223

"Access","Start Time (UTCG)","Stop Time (UTCG)","Duration (sec)"
1,1 May 2023 19:29:51.972,1 May 2023 19:31:47.953,115.981
2,2 May 2023 07:05:32.350,2 May 2023 07:07:50.236,137.886
3,2 May 2023 19:24:20.938,2 May 2023 19:25:53.328,92.390
4,3 May 2023 06:59:47.940,3 May 2023 07:02:08.776,140.836
5,3 May 2023 19:18:42.703,3 May 2023 19:19:49.197,66.494
6,4 May 2023 06:53:59.256,4 May 2023 06:56:21.337,142.081
7,5 May 2023 06:48:05.856,5 May 2023 06:50:29.452,143.596
8,6 May 2023 06:42:15.928,6 May 2023 06:44:37.056,141.128
9,6 May 2023 20:30:32.547,6 May 2023 20:31:43.295,70.748
10,7 May 2023 06:36:24.587,7 May 2023 06:38:45.863,141.276
11,7 May 2023 20:24:28.506,7 May 2023 20:26:08.939,100.433
12,8 May 2023 06:30:39.270,8 May 2023 06:32:49.332,130.062
13,8 May 2023 20:18:27.442,8 May 2023 20:20:31.018,123.576
14,9 May 2023 06:25:00.239,9 May 2023 06:26:41.935,101.696
15,9 May 2023 20:12:11.368,9 May 2023 20:14:47.766,156.398
16,10 May 2023 06:19:33.260,10 May 2023 06:20:12.371,39.111
17,10 May 2023 20:06:11.162,10 May 2023 20:08:58.039,166.877
18,11 May 2023 20:00:17.565,11 May 2023 20:03:02.449,164.884
19,12 May 2023 07:36:38.978,12 May 2023 07:37:43.214,64.236
20,12 May 2023 19:54:24.228,12 May 2023 19:57:02.029,157.801
21,13 May 2023 07:30:25.262,13 May 2023 07:32:05.909,100.647
22,13 May 2023 19:48:30.173,13 May 2023 19:51:02.033,151.859
23,14 May 2023 07:24:25.252,14 May 2023 07:26:26.964,121.712
24,14 May 2023 19:42:40.897,14 May 2023 19:45:01.803,140.905
25,15 May 2023 07:18:32.995,15 May 2023 07:20:40.519,127.523
26,15 May 2023 19:36:56.708,15 May 2023 19:39:10.290,133.583
27,16 May 2023 07:12:45.960,16 May 2023 07:14:54.948,128.987

"Access","Start Time (UTCG)","Stop Time (UTCG)","Duration (sec)"
1,1 May 2023 20:14:33.667,1 May 2023 20:16:57.342,143.675
2,2 May 2023 06:21:33.324,2 May 2023 06:22:37.543,64.218
3,2 May 2023 20:08:26.462,2 May 2023 20:11:10.547,164.085
4,3 May 2023 20:02:30.502,3 May 2023 20:05:17.594,167.092
5,4 May 2023 07:39:08.663,4 May 2023 07:39:44.218,35.556
6,4 May 2023 19:56:39.366,4 May 2023 19:59:17.881,158.515
7,5 May 2023 07:32:45.774,5 May 2023 07:34:13.035,87.262
8,5 May 2023 19:50:43.206,5 May 2023 19:53:19.599,156.392
9,6 May 2023 07:26:40.323,6 May 2023 07:28:35.084,114.761
10,6 May 2023 19:44:51.851,6 May 2023 19:47:12.336,140.485
11,7 May 2023 07:20:45.281,7 May 2023 07:22:51.443,126.162
12,7 May 2023 19:39:05.178,7 May 2023 19:41:23.586,138.407
13,8 May 2023 07:14:55.755,8 May 2023 07:17:05.175,129.420
14,8 May 2023 19:33:23.730,8 May 2023 19:35:29.542,125.812
15,9 May 2023 07:09:09.891,9 May 2023 07:11:19.141,129.250
16,9 May 2023 19:27:48.609,9 May 2023 19:29:34.827,106.218
17,10 May 2023 07:03:22.230,10 May 2023 07:05:43.236,141.006
18,10 May 2023 19:22:13.046,10 May 2023 19:23:36.689,83.642
19,11 May 2023 06:57:41.223,11 May 2023 06:59:58.691,137.468
20,11 May 2023 19:16:42.984,11 May 2023 19:17:23.133,40.149
21,12 May 2023 06:51:45.084,12 May 2023 06:54:09.121,144.037
22,13 May 2023 06:45:53.648,13 May 2023 06:48:15.160,141.512
23,13 May 2023 20:34:26.705,13 May 2023 20:35:10.884,44.179
24,14 May 2023 06:40:02.785,14 May 2023 06:42:25.236,142.451
25,14 May 2023 20:28:12.402,14 May 2023 20:29:39.131,86.729
26,15 May 2023 06:34:14.057,15 May 2023 06:36:31.852,137.795
27,15 May 2023 20:22:11.515,15 May 2023 20:24:02.795,111.280
28,16 May 2023 06:28:31.430,16 May 2023 06:30:31.656,120.226

"Access","Start Time (UTCG)","Stop Time (UTCG)","Duration (sec)"
1,1 May 2023 22:29:30.453,1 May 2023 22:30:47.053,76.600
2,2 May 2023 08:35:26.298,2 May 2023 08:37:47.174,140.876
3,2 May 2023 22:23:28.741,2 May 2023 22:25:12.174,103.433
4,3 May 2023 08:29:41.487,3 May 2023 08:31:49.990,128.503
5,3 May 2023 22:17:27.472,3 May 2023 22:19:33.929,126.457
6,4 May 2023 08:24:03.200,4 May 2023 08:25:40.904,97.704
7,4 May 2023 22:11:09.824,4 May 2023 22:13:49.582,159.758
8,5 May 2023 08:18:38.543,5 May 2023 08:19:10.537,31.994
9,5 May 2023 22:05:11.254,5 May 2023 22:07:58.570,167.316
10,6 May 2023 21:59:18.478,6 May 2023 22:02:01.696,163.218
11,7 May 2023 09:35:37.189,7 May 2023 09:36:45.994,68.805
12,7 May 2023 21:53:23.869,7 May 2023 21:56:01.658,157.789
13,8 May 2023 09:29:24.239,8 May 2023 09:31:08.715,104.476
14,8 May 2023 21:47:30.813,8 May 2023 21:49:59.297,148.484
15,9 May 2023 09:23:25.421,9 May 2023 09:25:28.496,123.075
16,9 May 2023 21:41:42.485,9 May 2023 21:44:02.750,140.264
17,10 May 2023 09:17:33.784,10 May 2023 09:19:41.428,127.643
18,10 May 2023 21:35:59.588,10 May 2023 21:38:09.957,130.369
19,11 May 2023 09:11:47.503,11 May 2023 09:13:55.790,128.287
20,11 May 2023 21:30:21.051,11 May 2023 21:32:14.515,113.463
21,12 May 2023 09:05:59.274,12 May 2023 09:08:17.566,138.292
22,12 May 2023 21:24:48.796,12 May 2023 21:26:18.820,90.024
23,13 May 2023 09:00:15.205,13 May 2023 09:02:35.681,140.476
24,13 May 2023 21:19:12.598,13 May 2023 21:20:12.422,59.824
25,14 May 2023 08:54:25.362,14 May 2023 08:56:47.901,142.539
26,15 May 2023 08:48:32.217,15 May 2023 08:50:55.639,143.423
27,15 May 2023 22:37:16.156,15 May 2023 22:37:37.581,21.425
28,16 May 2023 08:42:42.003,16 May 2023 08:45:03.457,141.453

"Access","Start Time (UTCG)","Stop Time (UTCG)","Duration (sec)"
1,1 May 2023 21:43:53.719,1 May 2023 21:46:14.578,140.858
2,2 May 2023 09:19:46.730,2 May 2023 09:21:53.224,126.494
3,2 May 2023 21:38:07.892,2 May 2023 21:40:24.728,136.836
4,3 May 2023 09:13:57.515,3 May 2023 09:16:06.989,129.474
5,3 May 2023 21:32:27.228,3 May 2023 21:34:29.792,122.563
6,4 May 2023 09:08:11.231,4 May 2023 09:10:22.171,130.940
7,4 May 2023 21:26:53.906,4 May 2023 21:28:35.275,101.369
8,5 May 2023 09:02:24.060,5 May 2023 09:04:45.209,141.149
9,5 May 2023 21:21:16.556,5 May 2023 21:22:35.143,78.586
10,6 May 2023 08:56:42.341,6 May 2023 08:59:00.051,137.710
11,6 May 2023 21:15:56.229,6 May 2023 21:16:08.249,12.020
12,7 May 2023 08:50:45.735,7 May 2023 08:53:09.953,144.219
13,8 May 2023 08:44:54.638,8 May 2023 08:47:15.295,140.656
14,8 May 2023 22:33:22.441,8 May 2023 22:34:16.624,54.183
15,9 May 2023 08:39:03.413,9 May 2023 08:41:25.897,142.484
16,9 May 2023 22:27:10.425,9 May 2023 22:28:43.528,93.103
17,10 May 2023 08:33:15.394,10 May 2023 08:35:31.763,136.368
18,10 May 2023 22:21:09.263,10 May 2023 22:23:06.402,117.138
19,11 May 2023 08:27:33.530,11 May 2023 08:29:29.987,116.457
20,11 May 2023 22:14:56.178,11 May 2023 22:17:24.995,148.817
21,12 May 2023 08:22:01.268,12 May 2023 08:22:59.484,58.216
22,12 May 2023 22:08:51.851,12 May 2023 22:11:37.223,165.371
23,13 May 2023 22:02:56.631,13 May 2023 22:05:43.324,166.693
24,14 May 2023 09:39:33.212,14 May 2023 09:40:12.878,39.666
25,14 May 2023 21:57:04.856,14 May 2023 21:59:42.594,157.738
26,15 May 2023 09:33:10.525,15 May 2023 09:34:40.270,89.745
27,15 May 2023 21:51:09.044,15 May 2023 21:53:44.292,155.248
28,16 May 2023 09:27:05.918,16 May 2023 09:29:02.142,116.224

"Access","Start Time (UTCG)","Stop Time (UTCG)","Duration (sec)"
1,1 May 2023 23:58:20.247,2 May 2023 00:01:02.166,161.919
2,2 May 2023 11:34:37.517,2 May 2023 11:35:48.638,71.122
3,2 May 2023 23:52:24.896,2 May 2023 23:55:02.443,157.547
4,3 May 2023 11:28:24.903,3 May 2023 11:30:11.356,106.453
5,3 May 2023 23:46:32.421,3 May 2023 23:48:58.251,145.830
6,4 May 2023 11:22:26.701,4 May 2023 11:24:30.463,123.762
7,4 May 2023 23:40:44.691,4 May 2023 23:43:04.295,139.604
8,5 May 2023 11:16:35.418,5 May 2023 11:18:43.477,128.059
9,5 May 2023 23:35:02.328,5 May 2023 23:37:10.868,128.540
10,6 May 2023 11:10:49.414,6 May 2023 11:12:57.353,127.939
11,6 May 2023 23:29:25.115,6 May 2023 23:31:15.587,110.472
12,7 May 2023 11:05:00.920,7 May 2023 11:07:19.898,138.978
13,7 May 2023 23:23:51.433,7 May 2023 23:25:18.696,87.262
14,8 May 2023 10:59:17.445,8 May 2023 11:01:37.365,139.920
15,8 May 2023 23:18:17.698,8 May 2023 23:19:09.505,51.807
16,9 May 2023 10:53:26.025,9 May 2023 10:55:49.111,143.086
17,10 May 2023 10:47:33.261,10 May 2023 10:49:56.378,143.117
18,11 May 2023 00:36:10.402,11 May 2023 00:36:46.189,35.786
19,11 May 2023 10:41:42.739,11 May 2023 10:44:04.603,141.864
20,12 May 2023 00:29:53.223,12 May 2023 00:31:15.760,82.538
21,12 May 2023 10:35:52.263,12 May 2023 10:38:12.421,140.158
22,13 May 2023 00:23:52.004,13 May 2023 00:25:39.956,107.952
23,13 May 2023 10:30:08.066,13 May 2023 10:32:14.338,126.272
24,14 May 2023 00:17:48.123,14 May 2023 00:20:00.996,132.873
25,14 May 2023 10:24:31.091,14 May 2023 10:26:03.395,92.304
26,15 May 2023 00:11:33.090,15 May 2023 00:14:15.406,162.316
27,15 May 2023 10:19:12.171,15 May 2023 10:19:30.010,17.839
28,16 May 2023 00:05:35.864,16 May 2023 00:08:23.285,167.421

"Access","Start Time (UTCG)","Stop Time (UTCG)","Duration (sec)"
1,1 May 2023 10:55:43.491,1 May 2023 10:58:01.970,138.478
2,2 May 2023 10:49:47.295,2 May 2023 10:52:11.570,144.274
3,3 May 2023 10:43:56.387,3 May 2023 10:46:17.037,140.650
4,4 May 2023 00:32:19.505,4 May 2023 00:33:20.638,61.133
5,4 May 2023 10:38:04.952,4 May 2023 10:40:27.381,142.429
6,5 May 2023 00:26:10.593,5 May 2023 00:27:46.942,96.348
7,5 May 2023 10:32:17.346,5 May 2023 10:34:32.794,135.448
8,6 May 2023 00:20:09.282,6 May 2023 00:22:09.414,120.133
9,6 May 2023 10:26:35.931,6 May 2023 10:28:29.944,114.013
10,7 May 2023 00:13:54.307,7 May 2023 00:16:27.122,152.816
11,7 May 2023 10:21:04.690,7 May 2023 10:21:59.521,54.832
12,8 May 2023 00:07:52.048,8 May 2023 00:10:38.384,166.335
13,9 May 2023 00:01:57.545,9 May 2023 00:04:43.520,165.975
14,9 May 2023 11:38:29.775,9 May 2023 11:39:16.682,46.908
15,9 May 2023 23:56:04.708,9 May 2023 23:58:42.415,157.707
16,10 May 2023 11:32:09.672,10 May 2023 11:33:42.448,92.776
17,10 May 2023 23:50:09.772,10 May 2023 23:52:43.449,153.676
18,11 May 2023 11:26:06.170,11 May 2023 11:28:04.126,117.956
19,11 May 2023 23:44:19.830,11 May 2023 23:46:40.771,140.941
20,12 May 2023 11:20:12.221,12 May 2023 11:22:19.189,126.968
21,12 May 2023 23:38:34.933,12 May 2023 23:40:49.822,134.888
22,13 May 2023 11:14:23.616,13 May 2023 11:16:33.062,129.446
23,13 May 2023 23:32:54.816,13 May 2023 23:34:53.966,119.150
24,14 May 2023 11:08:36.856,14 May 2023 11:10:49.815,132.958
25,14 May 2023 23:27:23.026,14 May 2023 23:28:59.716,96.691
26,15 May 2023 11:02:50.337,15 May 2023 11:05:11.575,141.238
27,15 May 2023 23:21:44.679,15 May 2023 23:22:57.339,72.660

"Access","Start Time (UTCG)","Stop Time (UTCG)","Duration (sec)"
1,1 May 2023 13:09:51.581,1 May 2023 13:11:59.402,127.822
2,2 May 2023 01:28:28.664,2 May 2023 01:30:17.319,108.655
3,2 May 2023 13:04:03.113,2 May 2023 13:06:22.575,139.462
4,3 May 2023 01:22:54.127,3 May 2023 01:24:19.777,85.650
5,3 May 2023 12:58:20.101,3 May 2023 13:00:39.581,139.479
6,4 May 2023 01:17:22.015,4 May 2023 01:18:08.648,46.634
7,4 May 2023 12:52:27.608,4 May 2023 12:54:51.010,143.402
8,5 May 2023 12:46:35.103,5 May 2023 12:48:57.964,142.861
9,6 May 2023 02:35:09.425,6 May 2023 02:35:50.645,41.221
10,6 May 2023 12:40:44.428,6 May 2023 12:43:06.524,142.095
11,7 May 2023 02:28:53.935,7 May 2023 02:30:19.331,85.396
12,7 May 2023 12:34:54.358,7 May 2023 12:37:14.006,139.649
13,8 May 2023 02:22:52.669,8 May 2023 02:24:43.133,110.464
14,8 May 2023 12:29:10.541,8 May 2023 12:31:15.365,124.824
15,9 May 2023 02:16:44.725,9 May 2023 02:19:03.507,138.782
16,9 May 2023 12:23:34.470,9 May 2023 12:25:03.080,88.610
17,10 May 2023 02:10:34.073,10 May 2023 02:13:17.344,163.271
18,11 May 2023 02:04:37.392,11 May 2023 02:07:24.753,167.361
19,11 May 2023 13:41:26.999,11 May 2023 13:41:37.836,10.837
20,12 May 2023 01:58:45.757,12 May 2023 02:01:25.604,159.847
21,12 May 2023 13:34:58.263,12 May 2023 13:36:16.248,77.984
22,13 May 2023 01:52:49.627,13 May 2023 01:55:26.554,156.927
23,13 May 2023 13:28:48.537,13 May 2023 13:30:38.678,110.141
24,14 May 2023 01:46:57.885,14 May 2023 01:49:19.514,141.629
25,14 May 2023 13:22:51.620,14 May 2023 13:24:56.550,124.931
26,15 May 2023 01:41:10.916,15 May 2023 01:43:29.526,138.610
27,15 May 2023 13:17:01.053,15 May 2023 13:19:09.796,128.743
28,16 May 2023 01:35:29.269,16 May 2023 01:37:35.426,126.157

"Access","Start Time (UTCG)","Stop Time (UTCG)","Duration (sec)"
1,1 May 2023 12:25:38.690,1 May 2023 12:27:30.541,111.850
2,2 May 2023 02:12:54.836,2 May 2023 02:15:29.425,154.590
3,2 May 2023 12:20:08.200,2 May 2023 12:21:00.341,52.141
4,3 May 2023 02:06:53.479,3 May 2023 02:09:40.187,166.707
5,4 May 2023 02:00:59.348,4 May 2023 02:03:44.864,165.516
6,4 May 2023 13:37:28.065,4 May 2023 13:38:20.209,52.145
7,5 May 2023 01:55:06.045,5 May 2023 01:57:43.951,157.906
8,5 May 2023 13:31:10.340,5 May 2023 13:32:45.016,94.676
9,6 May 2023 01:49:11.536,6 May 2023 01:51:44.272,152.737
10,6 May 2023 13:25:07.594,6 May 2023 13:27:06.587,118.993
11,7 May 2023 01:43:21.953,7 May 2023 01:45:42.833,140.880
12,7 May 2023 13:19:14.037,7 May 2023 13:21:21.220,127.183
13,8 May 2023 01:37:37.529,8 May 2023 01:39:51.379,133.850
14,8 May 2023 13:13:25.820,8 May 2023 13:15:35.181,129.361
15,9 May 2023 01:31:57.708,9 May 2023 01:33:55.232,117.524
16,9 May 2023 13:07:38.814,9 May 2023 13:09:52.938,134.123
17,10 May 2023 01:26:26.823,10 May 2023 01:28:01.003,94.180
18,10 May 2023 13:01:52.684,10 May 2023 13:04:13.906,141.222
19,11 May 2023 01:20:47.893,11 May 2023 01:21:57.705,69.812
20,11 May 2023 12:56:07.573,11 May 2023 12:58:27.644,140.072
21,12 May 2023 12:50:12.438,12 May 2023 12:52:36.634,144.196
22,13 May 2023 12:44:22.059,13 May 2023 12:46:42.797,140.738
23,14 May 2023 02:32:39.725,14 May 2023 02:33:48.526,68.801
24,14 May 2023 12:38:30.335,14 May 2023 12:40:52.471,142.135
25,15 May 2023 02:26:34.598,15 May 2023 02:28:14.253,99.655
26,15 May 2023 12:32:43.626,15 May 2023 12:34:57.038,133.412
27,16 May 2023 02:20:33.234,16 May 2023 02:22:36.331,123.096

"Access","Start Time (UTCG)","Stop Time (UTCG)","Duration (sec)"
1,1 May 2023 14:39:46.349,1 May 2023 14:42:08.644,142.294
2,2 May 2023 04:27:55.524,2 May 2023 04:29:22.357,86.833
3,2 May 2023 14:33:56.806,2 May 2023 14:36:15.758,138.951
4,3 May 2023 04:21:54.342,3 May 2023 04:23:45.981,111.638
5,3 May 2023 14:28:13.459,3 May 2023 14:30:16.482,123.023
6,4 May 2023 04:15:45.349,4 May 2023 04:18:06.052,140.703
7,4 May 2023 14:22:38.491,4 May 2023 14:24:02.281,83.790
8,5 May 2023 04:09:36.070,5 May 2023 04:12:19.659,163.589
9,6 May 2023 04:03:39.634,6 May 2023 04:06:26.922,167.288
10,6 May 2023 15:40:24.353,6 May 2023 15:40:45.245,20.892
11,7 May 2023 03:57:48.170,7 May 2023 04:00:27.542,159.372
12,7 May 2023 15:33:58.606,7 May 2023 15:35:19.634,81.029
13,8 May 2023 03:51:51.983,8 May 2023 03:54:28.725,156.742
14,8 May 2023 15:27:50.344,8 May 2023 15:29:41.934,111.590
15,9 May 2023 03:46:00.385,9 May 2023 03:48:21.198,140.814
16,9 May 2023 15:21:53.990,9 May 2023 15:23:59.333,125.343
17,10 May 2023 03:40:13.545,10 May 2023 03:42:32.025,138.481
18,10 May 2023 15:16:03.727,10 May 2023 15:18:12.713,128.986
19,11 May 2023 03:34:31.997,11 May 2023 03:36:37.895,125.898
20,11 May 2023 15:10:18.053,11 May 2023 15:12:26.216,128.163
21,12 May 2023 03:28:56.897,12 May 2023 03:30:42.961,106.064
22,12 May 2023 15:04:29.698,12 May 2023 15:06:50.040,140.342
23,13 May 2023 03:23:21.144,13 May 2023 03:24:44.627,83.484
24,13 May 2023 14:58:47.724,13 May 2023 15:01:06.172,138.448
25,14 May 2023 03:17:51.594,14 May 2023 03:18:30.163,38.569
26,14 May 2023 14:52:53.164,14 May 2023 14:55:17.014,143.850
27,15 May 2023 14:47:01.214,15 May 2023 14:49:23.407,142.193
28,16 May 2023 04:35:33.149,16 May 2023 04:36:19.230,46.082

"Access","Start Time (UTCG)","Stop Time (UTCG)","Duration (sec)"
1,1 May 2023 15:24:09.213,1 May 2023 15:26:09.380,120.167
2,2 May 2023 03:42:24.223,2 May 2023 03:44:45.061,140.838
3,2 May 2023 15:18:16.171,2 May 2023 15:20:23.545,127.374
4,3 May 2023 03:36:40.058,3 May 2023 03:38:53.385,133.328
5,3 May 2023 15:12:28.434,3 May 2023 15:14:37.667,129.233
6,4 May 2023 03:31:00.401,4 May 2023 03:32:57.408,117.007
7,4 May 2023 15:06:41.213,4 May 2023 15:08:56.518,135.306
8,5 May 2023 03:25:29.693,5 May 2023 03:27:03.022,93.330
9,5 May 2023 15:00:55.530,5 May 2023 15:03:16.720,141.189
10,6 May 2023 03:19:50.767,6 May 2023 03:20:59.407,68.639
11,6 May 2023 14:55:09.383,6 May 2023 14:57:30.107,140.724
12,7 May 2023 14:49:14.775,7 May 2023 14:51:38.843,144.068
13,8 May 2023 14:43:24.681,8 May 2023 14:45:45.399,140.718
14,9 May 2023 04:31:41.648,9 May 2023 04:32:51.372,69.724
15,9 May 2023 14:37:32.883,9 May 2023 14:39:54.817,141.934
16,10 May 2023 04:25:36.988,10 May 2023 04:27:17.045,100.057
17,10 May 2023 14:31:46.576,10 May 2023 14:33:59.068,132.492
18,11 May 2023 04:19:35.699,11 May 2023 04:21:39.094,123.395
19,11 May 2023 14:26:06.510,11 May 2023 14:27:53.316,106.806
20,12 May 2023 04:13:19.277,12 May 2023 04:15:55.826,156.549
21,12 May 2023 14:20:37.603,12 May 2023 14:21:23.567,45.964
22,13 May 2023 04:07:18.985,13 May 2023 04:10:05.995,167.010
23,14 May 2023 04:01:25.337,14 May 2023 04:04:10.196,164.859
24,14 May 2023 15:37:49.403,14 May 2023 15:38:49.063,59.660
25,15 May 2023 03:55:31.620,15 May 2023 03:58:09.585,157.965
26,15 May 2023 15:31:34.256,15 May 2023 15:33:12.338,98.082
27,16 May 2023 03:49:37.619,16 May 2023 03:52:09.127,151.508

"Access","Start Time (UTCG)","Stop Time (UTCG)","Duration (sec)"
1,1 May 2023 17:39:21.717,1 May 2023 17:39:53.078,31.361
2,2 May 2023 05:56:50.468,2 May 2023 05:59:29.256,158.788
3,2 May 2023 17:32:58.116,2 May 2023 17:34:23.418,85.301
4,3 May 2023 05:50:54.288,3 May 2023 05:53:30.794,156.506
5,3 May 2023 17:26:51.807,3 May 2023 17:28:45.541,113.734
6,4 May 2023 05:45:02.857,4 May 2023 05:47:23.299,140.442
7,4 May 2023 17:20:56.330,4 May 2023 17:23:02.240,125.910
8,5 May 2023 05:39:16.136,5 May 2023 05:41:34.556,138.419
9,5 May 2023 17:15:06.554,5 May 2023 17:17:15.852,129.298
10,6 May 2023 05:33:34.666,6 May 2023 05:35:40.472,125.806
11,6 May 2023 17:09:20.781,6 May 2023 17:11:29.649,128.868
12,7 May 2023 05:27:59.582,7 May 2023 05:29:45.682,106.099
13,7 May 2023 17:03:32.859,7 May 2023 17:05:53.660,140.801
14,8 May 2023 05:22:23.922,8 May 2023 05:23:47.458,83.536
15,8 May 2023 16:57:51.523,8 May 2023 17:00:09.338,137.815
16,9 May 2023 05:16:54.106,9 May 2023 05:17:33.485,39.379
17,9 May 2023 16:51:55.917,9 May 2023 16:54:19.904,143.987
18,10 May 2023 16:46:04.312,10 May 2023 16:48:26.064,141.752
19,11 May 2023 06:34:36.904,11 May 2023 06:35:21.890,44.986
20,11 May 2023 16:40:13.444,11 May 2023 16:42:35.879,142.435
21,12 May 2023 06:28:22.728,12 May 2023 06:29:50.021,87.293
22,12 May 2023 16:34:24.526,12 May 2023 16:36:42.594,138.067
23,13 May 2023 06:22:21.730,13 May 2023 06:24:13.605,111.875
24,13 May 2023 16:28:41.743,13 May 2023 16:30:42.581,120.839
25,14 May 2023 06:16:13.074,14 May 2023 06:18:33.639,140.565
26,14 May 2023 16:23:07.903,14 May 2023 16:24:24.689,76.787
27,15 May 2023 06:10:03.806,15 May 2023 06:12:47.283,163.477
28,16 May 2023 06:04:07.414,16 May 2023 06:06:54.650,167.236

"Access","Start Time (UTCG)","Stop Time (UTCG)","Duration (sec)"
1,1 May 2023 16:54:10.783,1 May 2023 16:56:32.443,141.660
2,2 May 2023 16:48:16.992,2 May 2023 16:50:40.766,143.774
3,3 May 2023 16:42:27.129,3 May 2023 16:44:48.012,140.883
4,4 May 2023 06:30:43.695,4 May 2023 06:31:54.168,70.472
5,4 May 2023 16:36:35.498,4 May 2023 16:38:57.026,141.528
6,5 May 2023 06:24:39.475,5 May 2023 06:26:19.815,100.340
7,5 May 2023 16:30:49.841,5 May 2023 16:33:00.764,130.923
8,6 May 2023 06:18:38.331,6 May 2023 06:20:41.884,123.553
9,6 May 2023 16:25:10.447,6 May 2023 16:26:53.989,103.542
10,7 May 2023 06:12:22.118,7 May 2023 06:14:58.612,156.494
11,7 May 2023 16:19:42.734,7 May 2023 16:20:24.353,41.619
12,8 May 2023 06:06:21.905,8 May 2023 06:09:08.835,166.931
13,9 May 2023 06:00:28.302,9 May 2023 06:03:13.161,164.859
14,9 May 2023 17:36:50.542,9 May 2023 17:37:53.330,62.788
15,10 May 2023 05:54:34.817,10 May 2023 05:57:12.679,157.862
16,10 May 2023 17:30:36.384,10 May 2023 17:32:15.996,99.612
17,11 May 2023 05:48:40.792,11 May 2023 05:51:12.501,151.709
18,11 May 2023 17:24:35.993,11 May 2023 17:26:37.382,121.389
19,12 May 2023 05:42:51.567,12 May 2023 05:45:12.421,140.854
20,12 May 2023 17:18:43.553,12 May 2023 17:20:51.055,127.502
21,13 May 2023 05:37:07.482,13 May 2023 05:39:20.751,133.268
22,13 May 2023 17:12:56.365,13 May 2023 17:15:05.399,129.034
23,14 May 2023 05:31:27.867,14 May 2023 05:33:24.914,117.047
24,14 May 2023 17:07:08.901,14 May 2023 17:09:25.407,136.505
25,15 May 2023 05:25:57.257,15 May 2023 05:27:30.628,93.371
26,15 May 2023 17:01:23.749,15 May 2023 17:03:44.881,141.132
27,16 May 2023 05:20:18.269,16 May 2023 05:21:27.223,68.954

"Access","Start Time (UTCG)","Stop Time (UTCG)","Duration (sec)"
1,1 May 2023 19:08:23.016,1 May 2023 19:10:34.374,131.358
2,2 May 2023 07:27:02.885,2 May 2023 07:28:47.764,104.879
3,2 May 2023 19:02:35.962,2 May 2023 19:04:57.291,141.329
4,3 May 2023 07:21:26.701,3 May 2023 07:22:49.291,82.591
5,3 May 2023 18:56:54.674,3 May 2023 18:59:12.203,137.529
6,4 May 2023 07:15:57.973,4 May 2023 07:16:33.742,35.768
7,4 May 2023 18:50:58.125,4 May 2023 18:53:22.270,144.145
8,5 May 2023 18:45:07.084,5 May 2023 18:47:27.894,140.810
9,6 May 2023 08:33:39.307,6 May 2023 08:34:25.146,45.839
10,6 May 2023 18:39:16.122,6 May 2023 18:41:38.591,142.469
11,7 May 2023 08:27:25.568,7 May 2023 08:28:53.161,87.593
12,7 May 2023 18:33:27.925,7 May 2023 18:35:44.835,136.910
13,8 May 2023 08:21:24.796,8 May 2023 08:23:16.732,111.936
14,8 May 2023 18:27:45.792,8 May 2023 18:29:43.874,118.082
15,9 May 2023 08:15:16.824,9 May 2023 08:17:36.779,139.955
16,9 May 2023 18:22:12.802,9 May 2023 18:23:18.785,65.984
17,10 May 2023 08:09:07.276,10 May 2023 08:11:50.521,163.245
18,11 May 2023 08:03:10.887,11 May 2023 08:05:58.067,167.179
19,11 May 2023 19:39:49.819,11 May 2023 19:40:23.195,33.376
20,12 May 2023 07:57:19.396,12 May 2023 07:59:59.221,159.825
21,12 May 2023 19:33:26.842,12 May 2023 19:34:52.803,85.962
22,13 May 2023 07:51:23.775,13 May 2023 07:54:00.606,156.831
23,13 May 2023 19:27:20.950,13 May 2023 19:29:14.945,113.995
24,14 May 2023 07:45:32.030,14 May 2023 07:47:54.643,142.613
25,14 May 2023 19:21:25.650,14 May 2023 19:23:31.608,125.957
26,15 May 2023 07:39:44.902,15 May 2023 07:42:04.042,139.141
27,15 May 2023 19:15:35.969,15 May 2023 19:17:45.324,129.355
28,16 May 2023 07:34:03.004,16 May 2023 07:36:10.485,127.481

"Access","Start Time (UTCG)","Stop Time (UTCG)","Duration (sec)"
1,1 May 2023 18:24:15.100,1 May 2023 18:25:52.055,96.955
2,2 May 2023 08:11:23.874,2 May 2023 08:14:01.089,157.215
3,2 May 2023 18:18:50.535,2 May 2023 18:19:22.252,31.716
4,3 May 2023 08:05:24.165,3 May 2023 08:08:11.110,166.945
5,4 May 2023 07:59:30.807,4 May 2023 08:02:15.355,164.548
6,4 May 2023 19:35:50.158,4 May 2023 19:36:58.029,67.871
7,5 May 2023 07:53:37.385,5 May 2023 07:56:15.138,157.754
8,5 May 2023 19:29:37.355,5 May 2023 19:31:20.794,103.439
9,6 May 2023 07:47:43.549,6 May 2023 07:50:14.907,151.358
10,6 May 2023 19:23:38.323,6 May 2023 19:25:40.959,122.635
11,7 May 2023 07:41:54.440,7 May 2023 07:44:15.326,140.886
12,7 May 2023 19:17:46.557,7 May 2023 19:19:54.098,127.541
13,8 May 2023 07:36:10.411,8 May 2023 07:38:23.713,133.302
14,8 May 2023 19:12:00.000,8 May 2023 19:14:08.711,128.710
15,9 May 2023 07:30:30.812,9 May 2023 07:32:28.034,117.222
16,9 May 2023 19:06:12.255,9 May 2023 19:08:29.973,137.718
17,10 May 2023 07:25:00.164,10 May 2023 07:26:33.917,93.754
18,10 May 2023 19:00:27.703,10 May 2023 19:02:48.703,141.000
19,11 May 2023 07:19:21.228,11 May 2023 07:20:30.860,69.632
20,11 May 2023 18:54:39.583,11 May 2023 18:57:01.427,141.844
21,12 May 2023 18:48:46.058,12 May 2023 18:51:09.725,143.667
22,13 May 2023 18:42:56.300,13 May 2023 18:45:17.245,140.945
23,14 May 2023 08:31:15.469,14 May 2023 08:32:22.177,66.708
24,14 May 2023 18:37:04.813,14 May 2023 18:39:26.281,141.469
25,15 May 2023 08:25:09.670,15 May 2023 08:26:48.151,98.481
26,15 May 2023 18:31:19.237,15 May 2023 18:33:30.092,130.855
27,16 May 2023 08:19:08.740,16 May 2023 08:21:10.483,121.743

