STK/input/target_primary/access_sensors/RCO_2x4_50_500_0_2.5.csv

"Access","Start Time (UTCG)","Stop Time (UTCG)","Duration (sec)"
1,2 Aug 2023 03:33:58.840,2 Aug 2023 03:38:27.588,268.748
2,2 Aug 2023 05:11:50.049,2 Aug 2023 05:17:22.074,332.025
3,2 Aug 2023 06:51:12.067,2 Aug 2023 06:56:22.504,310.437
4,2 Aug 2023 08:29:53.725,2 Aug 2023 08:35:06.835,313.110
5,3 Aug 2023 03:11:56.151,3 Aug 2023 03:16:28.808,272.657
6,3 Aug 2023 04:49:50.784,3 Aug 2023 04:55:22.504,331.720
7,3 Aug 2023 06:29:12.800,3 Aug 2023 06:34:23.340,310.540
8,3 Aug 2023 08:07:54.096,3 Aug 2023 08:13:06.430,312.334
9,4 Aug 2023 02:49:53.683,4 Aug 2023 02:54:29.991,276.307
10,4 Aug 2023 04:27:51.538,4 Aug 2023 04:33:22.940,331.402
11,4 Aug 2023 06:07:13.526,4 Aug 2023 06:12:24.169,310.644
12,4 Aug 2023 07:45:54.476,4 Aug 2023 07:51:05.973,311.497
13,5 Aug 2023 02:27:51.403,5 Aug 2023 02:32:31.129,279.726
14,5 Aug 2023 04:05:52.311,5 Aug 2023 04:11:23.379,331.069
15,5 Aug 2023 05:45:14.240,5 Aug 2023 05:50:24.997,310.757
16,5 Aug 2023 07:23:54.863,5 Aug 2023 07:29:05.464,310.602
17,6 Aug 2023 02:05:49.301,6 Aug 2023 02:10:32.230,282.929
18,6 Aug 2023 03:43:53.098,6 Aug 2023 03:49:23.823,330.725
19,6 Aug 2023 05:23:14.941,6 Aug 2023 05:28:25.824,310.883
20,6 Aug 2023 07:01:55.258,6 Aug 2023 07:07:04.902,309.644
21,7 Aug 2023 01:43:47.349,7 Aug 2023 01:48:33.297,285.948
22,7 Aug 2023 03:21:53.904,7 Aug 2023 03:27:24.274,330.370
23,7 Aug 2023 05:01:15.629,7 Aug 2023 05:06:26.642,311.014
24,7 Aug 2023 06:39:55.661,7 Aug 2023 06:45:04.282,308.621
25,8 Aug 2023 01:21:45.543,8 Aug 2023 01:26:34.331,288.788
26,8 Aug 2023 02:59:54.724,8 Aug 2023 03:05:24.727,330.003
27,8 Aug 2023 04:39:16.310,8 Aug 2023 04:44:27.461,311.150
28,8 Aug 2023 06:17:56.073,8 Aug 2023 06:23:03.608,307.534

"Access","Start Time (UTCG)","Stop Time (UTCG)","Duration (sec)"
1,2 Aug 2023 04:22:31.905,2 Aug 2023 04:28:01.819,329.914
2,2 Aug 2023 06:01:31.155,2 Aug 2023 06:06:47.373,316.218
3,2 Aug 2023 07:40:36.978,2 Aug 2023 07:45:55.472,318.493
4,2 Aug 2023 09:19:22.302,2 Aug 2023 09:23:12.638,230.336
5,3 Aug 2023 04:00:31.843,3 Aug 2023 04:06:02.298,330.455
6,3 Aug 2023 05:39:32.205,3 Aug 2023 05:44:48.064,315.860
7,3 Aug 2023 07:18:37.353,3 Aug 2023 07:23:56.037,318.684
8,3 Aug 2023 08:57:23.357,3 Aug 2023 09:01:11.740,228.383
9,4 Aug 2023 03:38:31.824,4 Aug 2023 03:44:02.767,330.943
10,4 Aug 2023 05:17:33.252,4 Aug 2023 05:22:48.765,315.514
11,4 Aug 2023 06:56:37.716,4 Aug 2023 07:01:56.585,318.869
12,4 Aug 2023 08:35:24.446,4 Aug 2023 08:39:10.769,226.322
13,5 Aug 2023 03:16:31.845,5 Aug 2023 03:22:03.229,331.384
14,5 Aug 2023 04:55:34.296,5 Aug 2023 05:00:49.473,315.178
15,5 Aug 2023 06:34:38.078,5 Aug 2023 06:39:57.110,319.032
16,5 Aug 2023 08:13:25.578,5 Aug 2023 08:17:09.718,224.139
17,6 Aug 2023 02:54:31.906,6 Aug 2023 03:00:03.684,331.777
18,6 Aug 2023 04:33:35.336,6 Aug 2023 04:38:50.187,314.851
19,6 Aug 2023 06:12:38.436,6 Aug 2023 06:17:57.616,319.181
20,6 Aug 2023 07:51:26.748,6 Aug 2023 07:55:08.583,221.835
21,7 Aug 2023 02:32:32.005,7 Aug 2023 02:38:04.133,332.128
22,7 Aug 2023 04:11:36.382,7 Aug 2023 04:16:50.907,314.525
23,7 Aug 2023 05:50:38.788,7 Aug 2023 05:55:58.100,319.312
24,7 Aug 2023 07:29:27.965,7 Aug 2023 07:33:07.360,219.395
25,8 Aug 2023 02:10:32.142,8 Aug 2023 02:16:04.576,332.435
26,8 Aug 2023 03:49:37.421,8 Aug 2023 03:54:51.635,314.214
27,8 Aug 2023 05:28:39.139,8 Aug 2023 05:33:58.565,319.425
28,8 Aug 2023 07:07:29.225,8 Aug 2023 07:11:06.045,216.820

"Access","Start Time (UTCG)","Stop Time (UTCG)","Duration (sec)"
1,1 Aug 2023 10:14:30.367,1 Aug 2023 10:19:46.734,316.367
2,1 Aug 2023 11:53:07.916,1 Aug 2023 11:58:30.437,322.520
3,1 Aug 2023 13:32:26.016,1 Aug 2023 13:37:38.141,312.125
4,1 Aug 2023 15:11:02.748,1 Aug 2023 15:15:49.807,287.059
5,2 Aug 2023 09:52:30.882,2 Aug 2023 09:57:48.423,317.541
6,2 Aug 2023 11:31:09.900,2 Aug 2023 11:36:31.959,322.060
7,2 Aug 2023 13:10:27.521,2 Aug 2023 13:15:39.932,312.412
8,2 Aug 2023 14:49:04.296,2 Aug 2023 14:53:49.033,284.737
9,3 Aug 2023 09:30:31.454,3 Aug 2023 09:35:50.095,318.641
10,3 Aug 2023 11:09:11.862,3 Aug 2023 11:14:33.490,321.627
11,3 Aug 2023 12:48:29.017,3 Aug 2023 12:53:41.712,312.695
12,3 Aug 2023 14:27:05.858,3 Aug 2023 14:31:48.134,282.276
13,4 Aug 2023 09:08:32.077,4 Aug 2023 09:13:51.753,319.676
14,4 Aug 2023 10:47:13.830,4 Aug 2023 10:52:35.027,321.197
15,4 Aug 2023 12:26:30.500,4 Aug 2023 12:31:43.482,312.982
16,4 Aug 2023 14:05:07.437,4 Aug 2023 14:09:47.091,279.654
17,5 Aug 2023 08:46:32.754,5 Aug 2023 08:51:53.391,320.638
18,5 Aug 2023 10:25:15.808,5 Aug 2023 10:30:36.569,320.761
19,5 Aug 2023 12:04:31.976,5 Aug 2023 12:09:45.242,313.266
20,5 Aug 2023 13:43:09.032,5 Aug 2023 13:47:45.888,276.856
21,6 Aug 2023 08:24:33.454,6 Aug 2023 08:29:55.014,321.561
22,6 Aug 2023 10:03:17.793,6 Aug 2023 10:08:38.121,320.328
23,6 Aug 2023 11:42:33.445,6 Aug 2023 11:47:46.991,313.546
24,6 Aug 2023 13:21:10.645,6 Aug 2023 13:25:44.511,273.866
25,7 Aug 2023 08:02:34.142,7 Aug 2023 08:07:56.626,322.483
26,7 Aug 2023 09:41:19.782,7 Aug 2023 09:46:39.679,319.897
27,7 Aug 2023 11:20:34.902,7 Aug 2023 11:25:48.730,313.828
28,7 Aug 2023 12:59:12.277,7 Aug 2023 13:03:43.118,270.841
29,8 Aug 2023 07:40:34.878,8 Aug 2023 07:45:58.221,323.343
30,8 Aug 2023 09:19:21.783,8 Aug 2023 09:24:41.245,319.463

"Access","Start Time (UTCG)","Stop Time (UTCG)","Duration (sec)"
1,1 Aug 2023 11:03:36.049,1 Aug 2023 11:09:09.846,333.796
2,1 Aug 2023 12:42:52.653,1 Aug 2023 12:48:01.105,308.451
3,1 Aug 2023 14:21:44.578,1 Aug 2023 14:27:04.796,320.218
4,1 Aug 2023 16:00:50.314,1 Aug 2023 16:03:51.976,181.662
5,2 Aug 2023 09:05:31.368,2 Aug 2023 09:07:51.285,139.917
6,2 Aug 2023 10:41:37.333,2 Aug 2023 10:47:11.220,333.887
7,2 Aug 2023 12:20:54.614,2 Aug 2023 12:26:02.912,308.298
8,2 Aug 2023 13:59:45.875,2 Aug 2023 14:05:06.077,320.202
9,2 Aug 2023 15:38:53.541,2 Aug 2023 15:41:51.528,177.986
10,3 Aug 2023 08:43:28.903,3 Aug 2023 08:45:54.857,145.954
11,3 Aug 2023 10:19:38.645,3 Aug 2023 10:25:12.594,333.949
12,3 Aug 2023 11:58:56.567,3 Aug 2023 12:04:04.724,308.157
13,3 Aug 2023 13:37:47.175,3 Aug 2023 13:43:07.327,320.152
14,3 Aug 2023 15:16:56.901,3 Aug 2023 15:19:50.970,174.070
15,4 Aug 2023 08:21:26.754,4 Aug 2023 08:23:58.276,151.522
16,4 Aug 2023 09:57:39.983,4 Aug 2023 10:03:13.966,333.983
17,4 Aug 2023 11:36:58.514,4 Aug 2023 11:42:06.540,308.026
18,4 Aug 2023 13:15:48.471,4 Aug 2023 13:21:08.549,320.078
19,4 Aug 2023 14:55:00.405,4 Aug 2023 14:57:50.296,169.891
20,5 Aug 2023 07:59:24.886,5 Aug 2023 08:02:01.584,156.698
21,5 Aug 2023 09:35:41.348,5 Aug 2023 09:41:15.341,333.993
22,5 Aug 2023 11:15:00.450,5 Aug 2023 11:20:08.360,307.910
23,5 Aug 2023 12:53:49.747,5 Aug 2023 12:59:09.743,319.996
24,5 Aug 2023 14:33:04.075,5 Aug 2023 14:35:49.498,165.424
25,6 Aug 2023 07:37:23.260,6 Aug 2023 07:40:04.891,161.632
26,6 Aug 2023 09:13:42.739,6 Aug 2023 09:19:16.712,333.973
27,6 Aug 2023 10:53:02.376,6 Aug 2023 10:58:10.184,307.808
28,6 Aug 2023 12:31:51.020,6 Aug 2023 12:37:10.907,319.887
29,6 Aug 2023 14:11:07.940,6 Aug 2023 14:13:48.563,160.623
30,7 Aug 2023 07:15:21.844,7 Aug 2023 07:18:08.091,166.247
31,7 Aug 2023 08:51:44.155,7 Aug 2023 08:57:18.086,333.931
32,7 Aug 2023 10:31:04.298,7 Aug 2023 10:36:12.011,307.713
33,7 Aug 2023 12:09:52.296,7 Aug 2023 12:15:12.040,319.744
34,7 Aug 2023 13:49:12.032,7 Aug 2023 13:51:47.480,155.448
35,8 Aug 2023 06:53:10.963,8 Aug 2023 06:56:11.177,180.214
36,8 Aug 2023 08:29:45.596,8 Aug 2023 08:35:19.459,333.863

"Access","Start Time (UTCG)","Stop Time (UTCG)","Duration (sec)"
1,1 Aug 2023 16:33:28.282,1 Aug 2023 16:38:58.292,330.010
2,1 Aug 2023 18:12:27.748,1 Aug 2023 18:17:43.844,316.096
3,1 Aug 2023 19:51:33.474,1 Aug 2023 19:56:51.958,318.484
4,1 Aug 2023 21:30:18.836,1 Aug 2023 21:34:08.957,230.121
5,2 Aug 2023 16:11:28.259,2 Aug 2023 16:16:58.796,330.537
6,2 Aug 2023 17:50:28.826,2 Aug 2023 17:55:44.570,315.744
7,2 Aug 2023 19:29:33.875,2 Aug 2023 19:34:52.553,318.677
8,2 Aug 2023 21:08:19.925,2 Aug 2023 21:12:08.083,228.158
9,3 Aug 2023 15:49:28.277,3 Aug 2023 15:54:59.296,331.019
10,3 Aug 2023 17:28:29.905,3 Aug 2023 17:33:45.302,315.397
11,3 Aug 2023 19:07:34.273,3 Aug 2023 19:12:53.127,318.855
12,3 Aug 2023 20:46:21.047,3 Aug 2023 20:50:07.134,226.088
13,4 Aug 2023 15:27:28.336,4 Aug 2023 15:32:59.786,331.450
14,4 Aug 2023 17:06:30.980,4 Aug 2023 17:11:46.041,315.061
15,4 Aug 2023 18:45:34.665,4 Aug 2023 18:50:53.682,319.017
16,4 Aug 2023 20:24:22.213,4 Aug 2023 20:28:06.105,223.892
17,5 Aug 2023 15:05:28.435,5 Aug 2023 15:11:00.273,331.837
18,5 Aug 2023 16:44:32.052,5 Aug 2023 16:49:46.787,314.735
19,5 Aug 2023 18:23:35.053,5 Aug 2023 18:28:54.217,319.163
20,5 Aug 2023 20:02:23.419,5 Aug 2023 20:06:04.992,221.572
21,6 Aug 2023 14:43:28.573,6 Aug 2023 14:49:00.750,332.177
22,6 Aug 2023 16:22:33.126,6 Aug 2023 16:27:47.540,314.414
23,6 Aug 2023 18:01:35.436,6 Aug 2023 18:06:54.732,319.296
24,6 Aug 2023 19:40:24.672,6 Aug 2023 19:44:03.791,219.119
25,7 Aug 2023 14:21:28.747,7 Aug 2023 14:27:01.222,332.475
26,7 Aug 2023 16:00:34.196,7 Aug 2023 16:05:48.300,314.104
27,7 Aug 2023 17:39:35.813,7 Aug 2023 17:44:55.224,319.411
28,7 Aug 2023 19:18:25.968,7 Aug 2023 19:22:02.499,216.531

"Access","Start Time (UTCG)","Stop Time (UTCG)","Duration (sec)"
1,1 Aug 2023 15:44:54.766,1 Aug 2023 15:49:24.202,269.436
2,1 Aug 2023 17:22:46.564,1 Aug 2023 17:28:18.514,331.950
3,1 Aug 2023 19:02:08.624,1 Aug 2023 19:07:19.008,310.383
4,1 Aug 2023 20:40:50.196,1 Aug 2023 20:46:03.213,313.017
5,2 Aug 2023 15:22:52.151,2 Aug 2023 15:27:25.447,273.296
6,2 Aug 2023 17:00:47.337,2 Aug 2023 17:06:18.979,331.642
7,2 Aug 2023 18:40:09.388,2 Aug 2023 18:45:19.875,310.487
8,2 Aug 2023 20:18:50.599,2 Aug 2023 20:24:02.831,312.232
9,3 Aug 2023 15:00:49.748,3 Aug 2023 15:05:26.652,276.904
10,3 Aug 2023 16:38:48.123,3 Aug 2023 16:44:19.444,331.321
11,3 Aug 2023 18:18:10.141,3 Aug 2023 18:23:20.736,310.595
12,3 Aug 2023 19:56:51.011,3 Aug 2023 20:02:02.403,311.392
13,4 Aug 2023 14:38:47.534,4 Aug 2023 14:43:27.814,280.280
14,4 Aug 2023 16:16:48.928,4 Aug 2023 16:22:19.915,330.987
15,4 Aug 2023 17:56:10.883,4 Aug 2023 18:01:21.595,310.712
16,4 Aug 2023 19:34:51.429,4 Aug 2023 19:40:01.918,310.489
17,5 Aug 2023 14:16:45.490,5 Aug 2023 14:21:28.940,283.449
18,5 Aug 2023 15:54:49.753,5 Aug 2023 16:00:20.392,330.639
19,5 Aug 2023 17:34:11.614,5 Aug 2023 17:39:22.450,310.836
20,5 Aug 2023 19:12:51.855,5 Aug 2023 19:18:01.382,309.527
21,6 Aug 2023 13:54:43.596,6 Aug 2023 13:59:30.032,286.436
22,6 Aug 2023 15:32:50.591,6 Aug 2023 15:38:20.873,330.281
23,6 Aug 2023 17:12:12.337,6 Aug 2023 17:17:23.301,310.964
24,6 Aug 2023 18:50:52.291,6 Aug 2023 18:56:00.791,308.500
25,7 Aug 2023 13:32:41.845,7 Aug 2023 13:37:31.088,289.244
26,7 Aug 2023 15:10:51.446,7 Aug 2023 15:16:21.356,329.910
27,7 Aug 2023 16:50:13.046,7 Aug 2023 16:55:24.150,311.104
28,7 Aug 2023 18:28:52.735,7 Aug 2023 18:34:00.136,307.401

"Access","Start Time (UTCG)","Stop Time (UTCG)","Duration (sec)"
1,1 Aug 2023 21:16:38.186,1 Aug 2023 21:18:43.302,125.116
2,1 Aug 2023 22:52:36.032,1 Aug 2023 22:58:10.248,334.216
3,2 Aug 2023 00:31:49.330,2 Aug 2023 00:37:02.722,313.391
4,2 Aug 2023 02:10:42.247,2 Aug 2023 02:16:03.548,321.301
5,2 Aug 2023 03:49:55.001,2 Aug 2023 03:52:47.061,172.060
6,2 Aug 2023 20:54:33.269,2 Aug 2023 20:56:45.060,131.791
7,2 Aug 2023 22:30:35.313,2 Aug 2023 22:36:09.707,334.394
8,3 Aug 2023 00:09:49.334,3 Aug 2023 00:15:02.580,313.246
9,3 Aug 2023 01:48:41.603,3 Aug 2023 01:54:02.789,321.185
10,3 Aug 2023 03:27:56.753,3 Aug 2023 03:30:44.308,167.555
11,3 Aug 2023 20:32:28.781,3 Aug 2023 20:34:46.908,138.127
12,3 Aug 2023 22:08:34.623,3 Aug 2023 22:14:09.163,334.540
13,3 Aug 2023 23:47:49.329,3 Aug 2023 23:53:02.438,313.110
14,4 Aug 2023 01:26:40.960,4 Aug 2023 01:32:01.996,321.036
15,4 Aug 2023 03:05:58.700,4 Aug 2023 03:08:41.410,162.710
16,4 Aug 2023 20:10:24.153,4 Aug 2023 20:12:48.704,144.552
17,4 Aug 2023 21:46:33.963,4 Aug 2023 21:52:08.614,334.651
18,4 Aug 2023 23:25:49.319,4 Aug 2023 23:31:02.304,312.984
19,5 Aug 2023 01:04:40.318,5 Aug 2023 01:10:01.170,320.852
20,5 Aug 2023 02:44:00.883,5 Aug 2023 02:46:38.359,157.476
21,5 Aug 2023 19:48:19.852,5 Aug 2023 19:50:50.319,150.467
22,5 Aug 2023 21:24:33.332,5 Aug 2023 21:30:08.068,334.736
23,5 Aug 2023 23:03:49.299,5 Aug 2023 23:09:02.168,312.868
24,6 Aug 2023 00:42:39.680,6 Aug 2023 00:48:00.310,320.631
25,6 Aug 2023 02:22:03.345,6 Aug 2023 02:24:35.133,151.788
26,6 Aug 2023 19:26:15.875,6 Aug 2023 19:28:51.780,155.905
27,6 Aug 2023 21:02:32.730,6 Aug 2023 21:08:07.522,334.792
28,6 Aug 2023 22:41:49.267,6 Aug 2023 22:47:02.037,312.770
29,7 Aug 2023 00:20:39.040,7 Aug 2023 00:25:59.416,320.376
30,7 Aug 2023 02:00:06.145,7 Aug 2023 02:02:31.779,145.634
31,7 Aug 2023 19:04:12.160,7 Aug 2023 19:06:53.178,161.018
32,7 Aug 2023 20:40:32.156,7 Aug 2023 20:46:06.976,334.820
33,7 Aug 2023 22:19:49.229,7 Aug 2023 22:25:01.907,312.679
34,7 Aug 2023 23:58:38.404,8 Aug 2023 00:03:58.485,320.081
35,8 Aug 2023 01:38:09.380,8 Aug 2023 01:40:28.339,138.958

"Access","Start Time (UTCG)","Stop Time (UTCG)","Duration (sec)"
1,1 Aug 2023 22:03:31.140,1 Aug 2023 22:08:45.501,314.361
2,1 Aug 2023 23:42:06.153,1 Aug 2023 23:47:31.985,325.831
3,2 Aug 2023 01:21:22.611,2 Aug 2023 01:26:38.647,316.036
4,2 Aug 2023 03:00:02.480,2 Aug 2023 03:04:43.822,281.342
5,2 Aug 2023 21:41:29.593,2 Aug 2023 21:46:45.307,315.714
6,2 Aug 2023 23:20:06.188,2 Aug 2023 23:25:31.577,325.390
7,3 Aug 2023 00:59:22.181,3 Aug 2023 01:04:38.451,316.270
8,3 Aug 2023 02:38:02.154,3 Aug 2023 02:42:40.643,278.489
9,3 Aug 2023 21:19:28.111,3 Aug 2023 21:24:45.091,316.980
10,3 Aug 2023 22:58:06.232,3 Aug 2023 23:03:31.177,324.945
11,4 Aug 2023 00:37:21.743,4 Aug 2023 00:42:38.248,316.506
12,4 Aug 2023 02:16:01.842,4 Aug 2023 02:20:37.278,275.437
13,4 Aug 2023 20:57:26.688,4 Aug 2023 21:02:44.857,318.169
14,4 Aug 2023 22:36:06.281,4 Aug 2023 22:41:30.785,324.504
15,5 Aug 2023 00:15:21.295,5 Aug 2023 00:20:38.031,316.736
16,5 Aug 2023 01:54:01.555,5 Aug 2023 01:58:33.707,272.153
17,5 Aug 2023 20:35:25.328,5 Aug 2023 20:40:44.601,319.273
18,5 Aug 2023 22:14:06.303,5 Aug 2023 22:19:30.402,324.099
19,5 Aug 2023 23:53:20.838,5 Aug 2023 23:58:37.800,316.962
20,6 Aug 2023 01:32:01.283,6 Aug 2023 01:36:30.655,269.371
21,6 Aug 2023 20:13:24.021,6 Aug 2023 20:18:44.331,320.310
22,6 Aug 2023 21:52:06.320,6 Aug 2023 21:57:30.022,323.703
23,6 Aug 2023 23:31:20.372,6 Aug 2023 23:36:37.559,317.187
24,7 Aug 2023 01:10:01.037,7 Aug 2023 01:14:27.943,266.906
25,7 Aug 2023 19:51:22.724,7 Aug 2023 19:56:44.042,321.318
26,7 Aug 2023 21:30:06.346,7 Aug 2023 21:35:29.650,323.305
27,7 Aug 2023 23:09:19.896,7 Aug 2023 23:14:37.303,317.407
28,8 Aug 2023 00:48:00.808,8 Aug 2023 00:52:25.100,264.293

