STK/input/target_primary/access_sensors/RCO_2x5_50_250_0_2.0.csv

"Access","Start Time (UTCG)","Stop Time (UTCG)","Duration (sec)"
1,1 May 2023 10:15:09.792,1 May 2023 10:17:37.256,147.464
2,1 May 2023 11:47:32.629,1 May 2023 11:50:46.188,193.560
3,1 May 2023 13:21:34.164,1 May 2023 13:24:17.808,163.644
4,1 May 2023 14:54:18.609,1 May 2023 14:57:10.998,172.389
5,2 May 2023 10:05:45.402,2 May 2023 10:09:06.603,201.200
6,2 May 2023 11:39:09.201,2 May 2023 11:42:07.991,178.790
7,2 May 2023 13:12:51.269,2 May 2023 13:15:47.667,176.398
8,2 May 2023 14:45:40.625,2 May 2023 14:47:56.841,136.217
9,3 May 2023 09:57:00.817,3 May 2023 10:00:30.348,209.531
10,3 May 2023 11:30:44.840,3 May 2023 11:33:30.782,165.942
11,3 May 2023 13:04:07.744,3 May 2023 13:07:15.093,187.350
12,3 May 2023 14:37:09.822,3 May 2023 14:39:04.844,115.022
13,4 May 2023 09:48:20.120,4 May 2023 09:51:50.621,210.501
14,4 May 2023 11:22:17.963,4 May 2023 11:24:54.912,156.949
15,4 May 2023 12:55:25.013,4 May 2023 12:58:38.564,193.551
16,4 May 2023 14:28:59.671,4 May 2023 14:30:05.879,66.208
17,5 May 2023 09:39:41.257,5 May 2023 09:43:08.588,207.330
18,5 May 2023 11:13:50.496,5 May 2023 11:16:22.684,152.188
19,5 May 2023 12:46:43.998,5 May 2023 12:49:58.220,194.223
20,6 May 2023 07:59:39.690,6 May 2023 08:01:12.367,92.677
21,6 May 2023 09:31:09.996,6 May 2023 09:34:27.876,197.880
22,6 May 2023 11:05:16.621,6 May 2023 11:07:55.529,158.907
23,6 May 2023 12:38:01.269,6 May 2023 12:41:06.685,185.415
24,7 May 2023 07:49:34.133,7 May 2023 07:52:45.941,191.808
25,7 May 2023 09:22:44.431,7 May 2023 09:25:49.501,185.070
26,7 May 2023 10:56:34.954,7 May 2023 10:59:26.396,171.442
27,7 May 2023 12:29:21.429,7 May 2023 12:31:56.357,154.927
28,8 May 2023 07:40:43.483,8 May 2023 07:44:11.730,208.247
29,8 May 2023 09:14:22.243,8 May 2023 09:17:11.819,169.577
30,8 May 2023 10:47:51.432,8 May 2023 10:50:54.802,183.370
31,8 May 2023 12:20:47.306,8 May 2023 12:22:54.448,127.142
32,9 May 2023 07:32:01.393,9 May 2023 07:35:33.169,211.775
33,9 May 2023 09:05:54.921,9 May 2023 09:08:35.408,160.487
34,9 May 2023 10:39:08.266,9 May 2023 10:42:19.767,191.501
35,9 May 2023 12:12:26.455,9 May 2023 12:13:57.161,90.705
36,10 May 2023 07:23:22.113,10 May 2023 07:26:51.925,209.811
37,10 May 2023 08:57:28.103,10 May 2023 09:00:00.244,152.141
38,10 May 2023 10:30:26.448,10 May 2023 10:33:41.821,195.374
39,11 May 2023 05:43:37.946,11 May 2023 05:44:45.443,67.497
40,11 May 2023 07:14:48.065,11 May 2023 07:18:09.524,201.459
41,11 May 2023 08:48:57.727,11 May 2023 08:51:32.886,155.159
42,11 May 2023 10:21:44.352,11 May 2023 10:24:55.749,191.397
43,12 May 2023 05:33:30.369,12 May 2023 05:36:24.454,174.086
44,12 May 2023 07:06:20.080,12 May 2023 07:09:31.126,191.046
45,12 May 2023 08:40:18.407,12 May 2023 08:43:04.555,166.148
46,12 May 2023 10:13:03.189,12 May 2023 10:15:51.477,168.288
47,13 May 2023 05:24:28.270,13 May 2023 05:27:52.388,204.118
48,13 May 2023 06:57:57.703,13 May 2023 07:00:53.069,175.367
49,13 May 2023 08:31:35.187,13 May 2023 08:34:33.852,178.665
50,13 May 2023 10:04:26.422,13 May 2023 10:06:40.539,134.117
51,14 May 2023 05:15:44.507,14 May 2023 05:19:15.274,210.767
52,14 May 2023 06:49:31.983,14 May 2023 06:52:16.114,164.131
53,14 May 2023 08:22:51.739,14 May 2023 08:26:00.663,188.924
54,14 May 2023 09:55:57.844,14 May 2023 09:57:44.809,106.965
55,15 May 2023 05:07:04.403,15 May 2023 05:10:34.991,210.588
56,15 May 2023 06:41:05.228,15 May 2023 06:43:40.497,155.269
57,15 May 2023 08:14:09.274,15 May 2023 08:17:23.848,194.574
58,15 May 2023 09:47:57.790,15 May 2023 09:48:43.588,45.798
59,16 May 2023 03:27:42.199,16 May 2023 03:28:11.135,28.935
60,16 May 2023 04:58:27.074,16 May 2023 05:01:52.619,205.545
61,16 May 2023 06:32:37.120,16 May 2023 06:35:09.962,152.842
62,16 May 2023 08:05:28.100,16 May 2023 08:08:41.620,193.520

"Access","Start Time (UTCG)","Stop Time (UTCG)","Duration (sec)"
1,1 May 2023 11:00:48.027,1 May 2023 11:04:19.679,211.653
2,1 May 2023 12:34:42.805,1 May 2023 12:37:22.384,159.578
3,1 May 2023 14:07:54.537,1 May 2023 14:11:06.604,192.067
4,1 May 2023 15:41:17.660,1 May 2023 15:42:41.878,84.218
5,2 May 2023 10:52:08.889,2 May 2023 10:55:38.217,209.328
6,2 May 2023 12:26:15.891,2 May 2023 12:28:47.435,151.544
7,2 May 2023 13:59:12.906,2 May 2023 14:02:28.182,195.276
8,3 May 2023 09:12:19.284,3 May 2023 09:13:34.361,75.077
9,3 May 2023 10:43:35.623,3 May 2023 10:46:56.235,200.612
10,3 May 2023 12:17:44.720,3 May 2023 12:20:20.708,155.988
11,3 May 2023 13:50:30.624,3 May 2023 13:53:40.952,190.328
12,4 May 2023 09:02:12.170,4 May 2023 09:05:12.112,179.942
13,4 May 2023 10:35:08.174,4 May 2023 10:38:17.822,189.648
14,4 May 2023 12:09:04.679,4 May 2023 12:11:52.189,167.510
15,4 May 2023 13:41:49.777,4 May 2023 13:44:35.222,165.445
16,5 May 2023 08:53:14.056,5 May 2023 08:56:39.423,205.366
17,5 May 2023 10:26:46.401,5 May 2023 10:29:39.854,173.452
18,5 May 2023 12:00:21.345,5 May 2023 12:03:21.211,179.866
19,5 May 2023 13:33:13.690,5 May 2023 13:35:26.358,132.668
20,6 May 2023 08:44:30.643,6 May 2023 08:48:01.904,211.261
21,6 May 2023 10:18:19.825,6 May 2023 10:21:03.035,163.210
22,6 May 2023 11:51:37.956,6 May 2023 11:54:47.586,189.630
23,6 May 2023 13:24:46.507,6 May 2023 13:26:29.763,103.255
24,7 May 2023 08:35:50.791,7 May 2023 08:39:21.362,210.571
25,7 May 2023 10:09:53.091,7 May 2023 10:12:27.540,154.449
26,7 May 2023 11:42:55.642,7 May 2023 11:46:10.592,194.949
27,7 May 2023 13:16:49.908,7 May 2023 13:17:25.022,35.114
28,8 May 2023 06:56:23.476,8 May 2023 06:57:03.908,40.432
29,8 May 2023 08:27:14.331,8 May 2023 08:30:38.831,204.500
30,8 May 2023 10:01:24.530,8 May 2023 10:03:57.847,153.318
31,8 May 2023 11:34:14.201,8 May 2023 11:37:27.389,193.188
32,9 May 2023 06:46:31.593,9 May 2023 06:47:00.717,29.124
33,9 May 2023 06:47:04.916,9 May 2023 06:48:49.155,104.239
34,9 May 2023 08:18:44.739,9 May 2023 08:21:59.498,194.760
35,9 May 2023 09:52:47.763,9 May 2023 09:55:30.149,162.386
36,9 May 2023 11:25:32.176,9 May 2023 11:28:28.441,176.265
37,10 May 2023 06:37:00.088,10 May 2023 06:40:19.368,199.280
38,10 May 2023 08:10:20.828,10 May 2023 08:13:21.242,180.415
39,10 May 2023 09:44:05.097,10 May 2023 09:47:00.285,175.188
40,10 May 2023 11:16:53.609,10 May 2023 11:19:10.578,136.969
41,11 May 2023 06:28:14.173,11 May 2023 06:31:43.622,209.449
42,11 May 2023 08:01:57.035,11 May 2023 08:04:43.904,166.869
43,11 May 2023 09:35:21.552,11 May 2023 09:38:27.986,186.434
44,11 May 2023 11:08:21.838,11 May 2023 11:10:20.556,118.718
45,12 May 2023 06:19:33.168,12 May 2023 06:23:04.188,211.021
46,12 May 2023 07:53:30.074,12 May 2023 07:56:07.900,157.826
47,12 May 2023 09:26:38.700,12 May 2023 09:29:51.608,192.908
48,12 May 2023 11:00:09.064,12 May 2023 11:01:22.181,73.117
49,13 May 2023 06:10:54.234,13 May 2023 06:14:22.334,208.100
50,13 May 2023 07:45:02.852,13 May 2023 07:47:34.765,151.913
51,13 May 2023 09:17:57.465,13 May 2023 09:21:12.152,194.687
52,14 May 2023 04:30:56.000,14 May 2023 04:32:23.665,87.665
53,14 May 2023 06:02:22.386,14 May 2023 06:05:41.184,198.799
54,14 May 2023 07:36:29.950,14 May 2023 07:39:07.768,157.819
55,14 May 2023 09:09:14.873,14 May 2023 09:12:22.302,187.429
56,15 May 2023 04:20:50.107,15 May 2023 04:23:58.599,188.492
57,15 May 2023 05:53:56.081,15 May 2023 05:57:02.787,186.705
58,15 May 2023 07:27:48.752,15 May 2023 07:30:38.863,170.112
59,15 May 2023 09:00:34.672,15 May 2023 09:03:13.677,159.005
60,16 May 2023 04:11:57.401,16 May 2023 04:15:24.861,207.460
61,16 May 2023 05:45:34.522,16 May 2023 05:48:24.999,170.477
62,16 May 2023 07:19:05.270,16 May 2023 07:22:07.472,182.203
63,16 May 2023 08:51:59.878,16 May 2023 08:54:09.137,129.260

"Access","Start Time (UTCG)","Stop Time (UTCG)","Duration (sec)"
1,1 May 2023 14:43:52.218,1 May 2023 14:45:00.834,68.615
2,1 May 2023 16:15:03.208,1 May 2023 16:18:24.099,200.891
3,1 May 2023 17:49:15.979,1 May 2023 17:51:44.787,148.808
4,1 May 2023 19:22:00.679,1 May 2023 19:25:12.606,191.927
5,2 May 2023 14:33:46.253,2 May 2023 14:36:40.653,174.400
6,2 May 2023 16:06:36.702,2 May 2023 16:09:46.363,189.660
7,2 May 2023 17:40:38.732,2 May 2023 17:43:18.623,159.891
8,2 May 2023 19:13:19.765,2 May 2023 19:16:10.887,171.122
9,3 May 2023 14:24:45.078,3 May 2023 14:28:09.351,204.273
10,3 May 2023 15:58:16.447,3 May 2023 16:01:09.000,172.553
11,3 May 2023 17:31:55.979,3 May 2023 17:34:49.762,173.783
12,3 May 2023 19:04:42.811,3 May 2023 19:06:58.621,135.810
13,4 May 2023 14:16:02.280,4 May 2023 14:19:32.912,210.633
14,4 May 2023 15:49:51.628,4 May 2023 15:52:32.844,161.215
15,4 May 2023 17:23:12.042,4 May 2023 17:26:18.237,186.195
16,4 May 2023 18:56:13.391,4 May 2023 18:58:06.318,112.927
17,5 May 2023 14:07:23.160,5 May 2023 14:10:53.179,210.019
18,5 May 2023 15:41:27.993,5 May 2023 15:43:58.200,150.207
19,5 May 2023 17:14:29.619,5 May 2023 17:17:42.697,193.078
20,5 May 2023 18:48:06.186,5 May 2023 18:49:07.819,61.633
21,6 May 2023 12:28:01.969,6 May 2023 12:28:31.327,29.358
22,6 May 2023 13:58:46.969,6 May 2023 14:02:11.144,204.175
23,6 May 2023 15:33:01.571,6 May 2023 15:35:25.996,144.425
24,6 May 2023 17:05:49.232,6 May 2023 17:09:02.974,193.742
25,7 May 2023 12:18:40.898,7 May 2023 12:20:21.999,101.101
26,7 May 2023 13:50:18.107,7 May 2023 13:53:33.152,195.045
27,7 May 2023 15:24:25.658,7 May 2023 15:27:00.953,155.295
28,7 May 2023 16:57:07.462,7 May 2023 17:00:11.523,184.061
29,8 May 2023 12:08:37.044,8 May 2023 12:11:54.047,197.003
30,8 May 2023 13:41:55.347,8 May 2023 13:44:55.515,180.168
31,8 May 2023 15:15:45.790,8 May 2023 15:18:33.277,167.486
32,8 May 2023 16:48:28.522,8 May 2023 16:51:01.157,152.634
33,9 May 2023 11:59:50.453,9 May 2023 12:03:19.597,209.144
34,9 May 2023 13:33:33.268,9 May 2023 13:36:18.783,165.515
35,9 May 2023 15:07:01.203,9 May 2023 15:10:02.849,181.646
36,9 May 2023 16:39:55.503,9 May 2023 16:42:01.769,126.266
37,10 May 2023 11:51:10.076,10 May 2023 11:54:41.114,211.039
38,10 May 2023 13:25:08.626,10 May 2023 13:27:43.522,154.896
39,10 May 2023 14:58:18.121,10 May 2023 15:01:28.816,190.695
40,10 May 2023 16:31:36.737,10 May 2023 16:33:05.280,88.543
41,11 May 2023 11:42:32.051,11 May 2023 11:45:59.926,207.875
42,11 May 2023 13:16:46.539,11 May 2023 13:19:09.626,143.086
43,11 May 2023 14:49:36.803,11 May 2023 14:52:51.752,194.948
44,12 May 2023 10:02:39.373,12 May 2023 10:04:00.425,81.052
45,12 May 2023 11:34:00.661,12 May 2023 11:37:19.932,199.271
46,12 May 2023 13:08:12.099,12 May 2023 13:10:42.799,150.700
47,12 May 2023 14:40:55.666,12 May 2023 14:44:06.281,190.616
48,13 May 2023 09:52:34.330,13 May 2023 09:55:38.020,183.690
49,13 May 2023 11:25:35.164,13 May 2023 11:28:42.185,187.021
50,13 May 2023 12:59:34.357,13 May 2023 13:02:16.142,161.785
51,13 May 2023 14:32:15.293,13 May 2023 14:35:02.532,167.239
52,14 May 2023 09:43:39.413,14 May 2023 09:47:05.700,206.287
53,14 May 2023 11:17:15.342,14 May 2023 11:20:04.981,169.639
54,14 May 2023 12:50:50.610,14 May 2023 12:53:46.744,176.134
55,14 May 2023 14:23:39.447,14 May 2023 14:25:53.273,133.826
56,15 May 2023 09:34:57.285,15 May 2023 09:38:28.586,211.301
57,15 May 2023 11:08:49.707,15 May 2023 11:11:29.083,159.376
58,15 May 2023 12:42:06.922,15 May 2023 12:45:14.651,187.729
59,15 May 2023 14:15:12.089,15 May 2023 14:16:58.125,106.036
60,16 May 2023 09:26:18.585,16 May 2023 09:29:48.388,209.803

"Access","Start Time (UTCG)","Stop Time (UTCG)","Duration (sec)"
1,1 May 2023 15:28:28.979,1 May 2023 15:31:58.382,209.403
2,1 May 2023 17:02:13.425,1 May 2023 17:04:57.705,164.280
3,1 May 2023 18:35:39.190,1 May 2023 18:38:42.287,183.097
4,1 May 2023 20:08:35.306,1 May 2023 20:10:38.450,123.144
5,2 May 2023 15:19:49.010,2 May 2023 15:23:19.527,210.517
6,2 May 2023 16:53:49.073,2 May 2023 16:56:22.625,153.552
7,2 May 2023 18:26:56.297,2 May 2023 18:30:07.709,191.413
8,2 May 2023 20:00:21.022,2 May 2023 20:01:41.459,80.437
9,3 May 2023 15:11:11.110,3 May 2023 15:14:38.079,206.970
10,3 May 2023 16:45:25.836,3 May 2023 16:47:48.855,143.019
11,3 May 2023 18:18:15.230,3 May 2023 18:21:30.052,194.822
12,4 May 2023 13:31:13.685,4 May 2023 13:32:41.950,88.265
13,4 May 2023 15:02:40.517,4 May 2023 15:05:58.641,198.124
14,4 May 2023 16:36:50.961,4 May 2023 16:39:22.984,152.023
15,4 May 2023 18:09:33.880,4 May 2023 18:12:43.155,189.276
16,5 May 2023 13:21:09.133,5 May 2023 13:24:17.625,188.492
17,5 May 2023 14:54:15.876,5 May 2023 14:57:20.909,185.033
18,5 May 2023 16:28:12.906,5 May 2023 16:30:56.040,163.134
19,5 May 2023 18:00:53.902,5 May 2023 18:03:37.549,163.646
20,6 May 2023 13:12:17.225,6 May 2023 13:15:44.688,207.463
21,6 May 2023 14:45:55.371,6 May 2023 14:48:43.832,168.461
22,6 May 2023 16:19:28.526,6 May 2023 16:22:26.284,177.757
23,6 May 2023 17:52:18.889,6 May 2023 17:54:30.910,132.021
24,7 May 2023 13:03:35.660,7 May 2023 13:07:07.144,211.485
25,7 May 2023 14:37:30.028,7 May 2023 14:40:08.115,158.087
26,7 May 2023 16:10:45.015,7 May 2023 16:13:53.662,188.647
27,7 May 2023 17:43:53.275,7 May 2023 17:45:35.198,101.923
28,8 May 2023 12:54:57.202,8 May 2023 12:58:26.643,209.441
29,8 May 2023 14:29:07.251,8 May 2023 14:31:33.876,146.625
30,8 May 2023 16:02:03.114,8 May 2023 16:05:17.620,194.506
31,8 May 2023 17:36:00.920,8 May 2023 17:36:28.154,27.234
32,9 May 2023 11:15:22.018,9 May 2023 11:16:18.989,56.972
33,9 May 2023 12:46:23.491,9 May 2023 12:49:45.369,201.878
34,9 May 2023 14:20:36.990,9 May 2023 14:23:04.511,147.521
35,9 May 2023 15:53:22.619,9 May 2023 15:56:35.072,192.453
36,10 May 2023 11:05:15.647,10 May 2023 11:08:00.647,164.999
37,10 May 2023 12:37:56.307,10 May 2023 12:41:07.654,191.347
38,10 May 2023 14:12:00.111,10 May 2023 14:14:38.678,158.568
39,10 May 2023 15:44:41.341,10 May 2023 15:47:35.648,174.307
40,11 May 2023 10:56:07.504,11 May 2023 10:59:30.163,202.659
41,11 May 2023 12:29:35.223,11 May 2023 12:32:30.199,174.976
42,11 May 2023 14:03:18.114,11 May 2023 14:06:10.179,172.065
43,11 May 2023 15:36:03.670,11 May 2023 15:38:20.457,136.787
44,12 May 2023 10:47:24.378,12 May 2023 10:50:54.235,209.858
45,12 May 2023 12:21:11.385,12 May 2023 12:23:53.864,162.478
46,12 May 2023 13:54:33.998,12 May 2023 13:57:39.003,185.005
47,12 May 2023 15:27:33.054,12 May 2023 15:29:30.596,117.542
48,13 May 2023 10:38:44.903,13 May 2023 10:42:14.850,209.947
49,13 May 2023 12:12:47.449,13 May 2023 12:15:19.047,151.598
50,13 May 2023 13:45:51.381,13 May 2023 13:49:03.621,192.240
51,13 May 2023 15:19:22.147,13 May 2023 15:20:32.986,70.839
52,14 May 2023 10:30:07.629,14 May 2023 10:33:33.048,205.419
53,14 May 2023 12:04:22.401,14 May 2023 12:06:45.584,143.184
54,14 May 2023 13:37:10.708,14 May 2023 13:40:24.988,194.280
55,15 May 2023 08:50:04.756,15 May 2023 08:51:41.110,96.354
56,15 May 2023 10:21:38.067,15 May 2023 10:24:54.447,196.380
57,15 May 2023 11:55:46.911,15 May 2023 11:58:20.859,153.948
58,15 May 2023 13:28:29.092,15 May 2023 13:31:35.673,186.582
59,16 May 2023 08:40:00.651,16 May 2023 08:43:14.570,193.919

"Access","Start Time (UTCG)","Stop Time (UTCG)","Duration (sec)"
1,1 May 2023 20:42:36.042,1 May 2023 20:46:04.622,208.580
2,1 May 2023 22:16:47.113,1 May 2023 22:19:13.885,146.773
3,1 May 2023 23:49:40.638,1 May 2023 23:52:55.740,195.101
4,2 May 2023 19:02:45.640,2 May 2023 19:04:02.818,77.178
5,2 May 2023 20:34:03.775,2 May 2023 20:37:23.797,200.022
6,2 May 2023 22:08:14.849,2 May 2023 22:10:46.957,152.107
7,2 May 2023 23:40:59.140,2 May 2023 23:44:09.934,190.794
8,3 May 2023 18:52:39.722,3 May 2023 18:55:40.880,181.158
9,3 May 2023 20:25:37.418,3 May 2023 20:28:45.813,188.395
10,3 May 2023 21:59:36.970,3 May 2023 22:02:19.661,162.691
11,3 May 2023 23:32:18.517,3 May 2023 23:35:05.857,167.340
12,4 May 2023 18:43:42.884,4 May 2023 18:47:08.571,205.687
13,4 May 2023 20:17:17.263,4 May 2023 20:20:08.315,171.052
14,4 May 2023 21:50:52.558,4 May 2023 21:53:49.770,177.212
15,4 May 2023 23:23:42.414,4 May 2023 23:25:56.199,133.786
16,5 May 2023 18:35:00.183,5 May 2023 18:38:31.406,211.223
17,5 May 2023 20:08:50.967,5 May 2023 20:11:32.049,161.081
18,5 May 2023 21:42:08.996,5 May 2023 21:45:17.242,188.246
19,5 May 2023 23:15:14.755,5 May 2023 23:17:00.727,105.972
20,6 May 2023 18:26:21.015,6 May 2023 18:29:51.158,210.142
21,6 May 2023 20:00:26.274,6 May 2023 20:02:57.222,150.948
22,6 May 2023 21:33:26.774,6 May 2023 21:36:41.051,194.276
23,6 May 2023 23:07:16.371,6 May 2023 23:07:59.199,42.828
24,7 May 2023 16:46:53.532,7 May 2023 16:47:36.003,42.472
25,7 May 2023 18:17:45.465,7 May 2023 18:21:08.790,203.325
26,7 May 2023 19:51:58.872,7 May 2023 19:54:26.829,147.958
27,7 May 2023 21:24:46.211,7 May 2023 21:27:59.223,193.012
28,8 May 2023 16:37:02.111,8 May 2023 16:37:33.398,31.286
29,8 May 2023 16:37:36.156,8 May 2023 16:39:21.225,105.069
30,8 May 2023 18:09:16.829,8 May 2023 18:12:30.758,193.929
31,8 May 2023 19:43:22.205,8 May 2023 19:46:00.564,158.359
32,8 May 2023 21:16:04.317,8 May 2023 21:19:03.371,179.054
33,9 May 2023 16:27:32.123,9 May 2023 16:30:51.802,199.679
34,9 May 2023 18:00:54.100,9 May 2023 18:03:52.950,178.850
35,9 May 2023 19:34:40.051,9 May 2023 19:37:31.861,171.810
36,9 May 2023 21:07:25.798,9 May 2023 21:09:43.232,137.434
37,10 May 2023 16:18:46.993,10 May 2023 16:22:16.424,209.431
38,10 May 2023 17:52:30.954,10 May 2023 17:55:16.117,165.163
39,10 May 2023 19:25:56.092,10 May 2023 19:29:00.555,184.464
40,10 May 2023 20:58:53.857,10 May 2023 21:00:55.262,121.405
41,11 May 2023 16:10:06.677,11 May 2023 16:13:37.340,210.662
42,11 May 2023 17:44:05.610,11 May 2023 17:46:40.722,155.113
43,11 May 2023 19:17:13.250,11 May 2023 19:20:25.297,192.047
44,11 May 2023 20:50:40.175,11 May 2023 20:51:57.747,77.572
45,12 May 2023 16:01:28.414,12 May 2023 16:04:55.735,207.322
46,12 May 2023 17:35:41.633,12 May 2023 17:38:06.556,144.923
47,12 May 2023 19:08:32.149,12 May 2023 19:11:46.954,194.804
48,13 May 2023 14:21:30.412,13 May 2023 14:22:58.895,88.483
49,13 May 2023 15:52:57.418,13 May 2023 15:56:15.719,198.300
50,13 May 2023 17:27:06.992,13 May 2023 17:29:41.010,154.018
51,13 May 2023 18:59:50.335,13 May 2023 19:02:58.918,188.583
52,14 May 2023 14:11:25.408,14 May 2023 14:14:34.191,188.783
53,14 May 2023 15:44:32.234,14 May 2023 15:47:37.751,185.517
54,14 May 2023 17:18:27.654,14 May 2023 17:21:13.321,165.667
55,14 May 2023 18:51:10.307,14 May 2023 18:53:52.049,161.742
56,15 May 2023 14:02:33.393,15 May 2023 14:06:00.924,207.531
57,15 May 2023 15:36:11.299,15 May 2023 15:39:00.433,169.134
58,15 May 2023 17:09:43.375,15 May 2023 17:12:42.928,179.553
59,15 May 2023 18:42:35.482,15 May 2023 18:44:46.384,130.902

"Access","Start Time (UTCG)","Stop Time (UTCG)","Duration (sec)"
1,1 May 2023 19:56:12.213,1 May 2023 19:59:33.960,201.748
2,1 May 2023 21:29:37.705,1 May 2023 21:32:34.586,176.882
3,1 May 2023 23:03:20.905,1 May 2023 23:06:14.284,173.378
4,2 May 2023 00:36:07.670,2 May 2023 00:38:24.453,136.783
5,2 May 2023 19:47:28.560,2 May 2023 19:50:58.033,209.473
6,2 May 2023 21:21:13.869,2 May 2023 21:23:57.905,164.037
7,2 May 2023 22:54:37.045,2 May 2023 22:57:42.677,185.632
8,3 May 2023 00:27:36.739,3 May 2023 00:29:34.324,117.585
9,3 May 2023 19:38:48.583,3 May 2023 19:42:18.604,210.020
10,3 May 2023 21:12:48.722,3 May 2023 21:15:22.673,153.952
11,3 May 2023 22:45:54.367,3 May 2023 22:49:06.915,192.548
12,4 May 2023 00:19:25.407,4 May 2023 00:20:36.398,70.990
13,4 May 2023 19:30:10.406,4 May 2023 19:33:36.775,206.369
14,4 May 2023 21:04:24.360,4 May 2023 21:06:49.463,145.104
15,4 May 2023 22:37:13.517,4 May 2023 22:40:27.897,194.380
16,5 May 2023 17:50:08.743,5 May 2023 17:51:42.675,93.932
17,5 May 2023 19:21:40.082,5 May 2023 19:24:57.288,197.206
18,5 May 2023 20:55:48.658,5 May 2023 20:58:23.870,155.212
19,5 May 2023 22:28:31.536,5 May 2023 22:31:38.231,186.695
20,6 May 2023 17:40:04.066,6 May 2023 17:43:16.493,192.427
21,6 May 2023 19:13:15.793,6 May 2023 19:16:19.349,183.556
22,6 May 2023 20:47:08.487,6 May 2023 20:49:55.920,167.433
23,6 May 2023 22:19:51.901,6 May 2023 22:22:29.822,157.921
24,7 May 2023 17:31:14.320,7 May 2023 17:34:42.689,208.369
25,7 May 2023 19:04:54.110,7 May 2023 19:07:42.155,168.045
26,7 May 2023 20:38:24.286,7 May 2023 20:41:25.298,181.012
27,7 May 2023 22:11:17.787,7 May 2023 22:13:26.585,128.798
28,8 May 2023 17:22:32.934,8 May 2023 17:26:04.497,211.563
29,8 May 2023 18:56:28.223,8 May 2023 18:59:06.324,158.101
30,8 May 2023 20:29:41.057,8 May 2023 20:32:51.349,190.291
31,8 May 2023 22:02:55.378,8 May 2023 22:04:30.147,94.769
32,9 May 2023 17:13:54.325,9 May 2023 17:17:23.529,209.204
33,9 May 2023 18:48:03.914,9 May 2023 18:50:31.859,147.944
34,9 May 2023 20:20:59.360,9 May 2023 20:24:14.431,195.071
35,10 May 2023 15:34:10.003,10 May 2023 15:35:18.836,68.833
36,10 May 2023 17:05:21.178,10 May 2023 17:08:42.213,201.036
37,10 May 2023 18:39:33.080,10 May 2023 18:42:04.018,150.937
38,10 May 2023 20:12:18.085,10 May 2023 20:15:29.832,191.747
39,11 May 2023 15:24:03.477,11 May 2023 15:26:58.256,174.779
40,11 May 2023 16:56:54.181,11 May 2023 17:00:04.240,190.059
41,11 May 2023 18:30:55.528,11 May 2023 18:33:37.021,161.493
42,11 May 2023 20:03:37.110,11 May 2023 20:06:27.146,170.036
43,12 May 2023 15:15:02.313,12 May 2023 15:18:26.630,204.318
44,12 May 2023 16:48:33.193,12 May 2023 16:51:26.638,173.445
45,12 May 2023 18:22:11.676,12 May 2023 18:25:07.456,175.780
46,12 May 2023 19:55:00.276,12 May 2023 19:57:15.447,135.171
47,13 May 2023 15:06:19.187,13 May 2023 15:09:49.914,210.728
48,13 May 2023 16:40:07.987,13 May 2023 16:42:50.211,162.224
49,13 May 2023 18:13:27.997,13 May 2023 18:16:35.319,187.321
50,13 May 2023 19:46:31.219,13 May 2023 19:48:21.455,110.237
51,14 May 2023 14:57:39.737,14 May 2023 15:01:09.966,210.229
52,14 May 2023 16:31:43.117,14 May 2023 16:34:15.230,152.113
53,14 May 2023 18:04:45.594,14 May 2023 18:07:59.312,193.717
54,14 May 2023 19:38:26.475,14 May 2023 19:39:22.313,55.838
55,15 May 2023 13:18:17.688,15 May 2023 13:18:47.995,30.307
56,15 May 2023 14:49:03.209,15 May 2023 14:52:27.803,204.594
57,15 May 2023 16:23:16.936,15 May 2023 16:25:43.791,146.855
58,15 May 2023 17:56:05.172,15 May 2023 17:59:18.619,193.447

"Access","Start Time (UTCG)","Stop Time (UTCG)","Duration (sec)"
1,2 May 2023 01:10:15.217,2 May 2023 01:13:46.942,211.725
2,2 May 2023 02:44:09.284,2 May 2023 02:46:50.310,161.026
3,2 May 2023 04:17:20.458,2 May 2023 04:20:33.663,193.205
4,2 May 2023 05:50:49.545,2 May 2023 05:52:05.659,76.114
5,3 May 2023 01:01:35.560,3 May 2023 01:05:05.087,209.527
6,3 May 2023 02:35:40.447,3 May 2023 02:38:17.017,156.571
7,3 May 2023 04:08:38.830,3 May 2023 04:11:53.874,195.045
8,3 May 2023 23:21:42.201,3 May 2023 23:23:01.403,79.202
9,4 May 2023 00:53:02.040,4 May 2023 00:56:22.407,200.367
10,4 May 2023 02:27:07.120,4 May 2023 02:29:48.835,161.715
11,4 May 2023 03:59:55.712,4 May 2023 04:03:04.157,188.445
12,4 May 2023 23:11:34.790,4 May 2023 23:14:37.936,183.146
13,5 May 2023 00:44:34.068,5 May 2023 00:47:43.600,189.531
14,5 May 2023 02:18:27.081,5 May 2023 02:21:19.106,172.025
15,5 May 2023 03:51:14.929,5 May 2023 03:53:55.583,160.654
16,5 May 2023 23:02:38.328,5 May 2023 23:06:04.413,206.085
17,6 May 2023 00:36:11.440,6 May 2023 00:39:05.265,173.826
18,6 May 2023 02:09:44.044,6 May 2023 02:12:47.062,183.018
19,6 May 2023 03:42:39.393,6 May 2023 03:44:49.454,130.061
20,6 May 2023 22:53:54.642,6 May 2023 22:57:26.246,211.605
21,7 May 2023 00:27:43.797,7 May 2023 00:30:28.050,164.253
22,7 May 2023 02:01:00.729,7 May 2023 02:04:11.948,191.219
23,7 May 2023 03:34:14.419,7 May 2023 03:35:52.010,97.591
24,7 May 2023 22:45:14.366,7 May 2023 22:48:45.223,210.857
25,8 May 2023 00:19:15.491,8 May 2023 00:21:52.042,156.550
26,8 May 2023 01:52:18.420,8 May 2023 01:55:33.996,195.576
27,8 May 2023 21:05:43.832,8 May 2023 21:06:29.782,45.950
28,8 May 2023 22:36:37.799,8 May 2023 22:40:02.408,204.609
29,9 May 2023 00:10:44.528,9 May 2023 00:13:23.486,158.958
30,9 May 2023 01:43:36.008,9 May 2023 01:46:48.792,192.784
31,9 May 2023 20:55:49.384,9 May 2023 20:58:12.481,143.097
32,9 May 2023 22:28:07.809,9 May 2023 22:31:22.310,194.501
33,10 May 2023 00:02:06.883,10 May 2023 00:04:54.425,167.542
34,10 May 2023 01:34:54.039,10 May 2023 01:37:45.563,171.524
35,10 May 2023 20:46:21.010,10 May 2023 20:49:41.607,200.597
36,10 May 2023 22:19:43.232,10 May 2023 22:22:43.686,180.454
37,10 May 2023 23:53:24.558,10 May 2023 23:56:23.302,178.744
38,11 May 2023 01:26:15.981,11 May 2023 01:28:31.631,135.651
39,11 May 2023 20:37:35.522,11 May 2023 20:41:05.089,209.567
40,11 May 2023 22:11:18.399,11 May 2023 22:14:05.985,167.586
41,11 May 2023 23:44:41.160,11 May 2023 23:47:49.870,188.710
42,12 May 2023 01:17:45.289,12 May 2023 01:19:37.938,112.649
43,12 May 2023 20:28:54.155,12 May 2023 20:32:25.088,210.932
44,12 May 2023 22:02:50.152,12 May 2023 22:05:29.532,159.380
45,12 May 2023 23:35:58.330,12 May 2023 23:39:12.654,194.324
46,13 May 2023 01:09:36.513,13 May 2023 01:10:37.993,61.480
47,13 May 2023 20:20:14.679,13 May 2023 20:23:42.850,208.172
48,13 May 2023 21:54:20.777,13 May 2023 21:56:57.958,157.182
49,13 May 2023 23:27:16.918,13 May 2023 23:30:31.135,194.217
50,14 May 2023 18:40:13.353,14 May 2023 18:41:44.638,91.285
51,14 May 2023 20:11:42.545,14 May 2023 20:15:01.036,198.491
52,14 May 2023 21:45:45.952,14 May 2023 21:48:29.531,163.579
53,14 May 2023 23:18:33.744,14 May 2023 23:21:37.873,184.129
54,15 May 2023 18:30:06.970,15 May 2023 18:33:18.064,191.094
55,15 May 2023 20:03:15.831,15 May 2023 20:06:22.256,186.425
56,15 May 2023 21:37:04.922,15 May 2023 21:39:59.376,174.454
57,15 May 2023 23:09:53.697,15 May 2023 23:12:25.492,151.795

"Access","Start Time (UTCG)","Stop Time (UTCG)","Duration (sec)"
1,2 May 2023 00:24:21.844,2 May 2023 00:27:04.969,163.126
2,2 May 2023 01:57:00.204,2 May 2023 02:00:13.638,193.434
3,2 May 2023 03:30:58.013,2 May 2023 03:33:46.549,168.536
4,2 May 2023 05:03:45.208,2 May 2023 05:06:34.821,169.613
5,3 May 2023 00:15:11.229,3 May 2023 00:18:33.379,202.150
6,3 May 2023 01:48:36.032,3 May 2023 01:51:35.071,179.039
7,3 May 2023 03:22:15.481,3 May 2023 03:25:15.178,179.697
8,3 May 2023 04:55:07.708,3 May 2023 04:57:22.371,134.663
9,4 May 2023 00:06:26.548,4 May 2023 00:09:56.432,209.885
10,4 May 2023 01:40:10.671,4 May 2023 01:42:57.477,166.805
11,4 May 2023 03:13:32.084,4 May 2023 03:16:41.461,189.377
12,4 May 2023 04:46:38.043,4 May 2023 04:48:26.613,108.570
13,4 May 2023 23:57:45.499,5 May 2023 00:01:16.180,210.681
14,5 May 2023 01:31:42.441,5 May 2023 01:34:21.133,158.692
15,5 May 2023 03:04:49.359,5 May 2023 03:08:04.115,194.757
16,5 May 2023 04:38:34.330,5 May 2023 04:39:26.063,51.733
17,5 May 2023 23:49:06.329,5 May 2023 23:52:33.798,207.468
18,6 May 2023 01:23:12.773,6 May 2023 01:25:50.281,157.509
19,6 May 2023 02:56:07.685,6 May 2023 02:59:21.727,194.041
20,6 May 2023 22:09:02.293,6 May 2023 22:10:37.615,95.323
21,6 May 2023 23:40:34.709,6 May 2023 23:43:52.365,197.655
22,7 May 2023 01:14:37.290,7 May 2023 01:17:21.727,164.438
23,7 May 2023 02:47:24.883,7 May 2023 02:50:26.492,181.609
24,7 May 2023 21:58:56.192,7 May 2023 22:02:09.922,193.730
25,7 May 2023 23:32:08.641,7 May 2023 23:35:13.608,184.967
26,8 May 2023 01:05:55.899,8 May 2023 01:08:51.370,175.472
27,8 May 2023 02:38:45.167,8 May 2023 02:41:10.390,145.223
28,8 May 2023 21:50:06.277,8 May 2023 21:53:34.951,208.674
29,8 May 2023 23:23:45.419,8 May 2023 23:26:35.566,170.147
30,9 May 2023 00:57:12.593,9 May 2023 01:00:18.709,186.117
31,9 May 2023 02:30:11.713,9 May 2023 02:32:14.889,123.175
32,9 May 2023 21:41:23.894,9 May 2023 21:44:55.788,211.894
33,9 May 2023 23:15:16.977,9 May 2023 23:17:58.736,161.759
34,10 May 2023 00:48:29.470,10 May 2023 00:51:42.324,192.854
35,10 May 2023 02:21:55.726,10 May 2023 02:23:16.452,80.726
36,10 May 2023 21:32:44.128,10 May 2023 21:36:14.106,209.979
37,10 May 2023 23:06:48.315,10 May 2023 23:09:24.685,156.369
38,11 May 2023 00:39:47.671,11 May 2023 00:43:03.017,195.346
39,11 May 2023 19:52:55.509,11 May 2023 19:54:08.284,72.776
40,11 May 2023 21:24:09.928,11 May 2023 21:27:31.065,201.137
41,11 May 2023 22:58:15.594,11 May 2023 23:00:56.586,160.992
42,12 May 2023 00:31:04.692,12 May 2023 00:34:14.507,189.815
43,12 May 2023 19:42:47.297,12 May 2023 19:45:45.815,178.518
44,12 May 2023 21:15:41.491,12 May 2023 21:18:52.263,190.772
45,12 May 2023 22:49:36.047,12 May 2023 22:52:27.022,170.975
46,13 May 2023 00:22:23.618,13 May 2023 00:25:07.253,163.635
47,13 May 2023 19:33:47.821,13 May 2023 19:37:12.812,204.991
48,13 May 2023 21:07:18.353,13 May 2023 21:10:13.854,175.502
49,13 May 2023 22:40:53.131,13 May 2023 22:43:55.135,182.004
50,14 May 2023 00:13:47.525,14 May 2023 00:15:59.140,131.615
51,14 May 2023 19:25:03.740,14 May 2023 19:28:34.989,211.250
52,14 May 2023 20:58:51.498,14 May 2023 21:01:36.521,165.023
53,14 May 2023 22:32:09.782,14 May 2023 22:35:20.490,190.708
54,15 May 2023 00:05:20.809,15 May 2023 00:07:01.874,101.065
55,15 May 2023 19:16:23.263,15 May 2023 19:19:54.185,210.922
56,15 May 2023 20:50:23.238,15 May 2023 20:53:00.414,157.176
57,15 May 2023 22:23:27.340,15 May 2023 22:26:42.771,195.431
58,15 May 2023 23:57:26.991,15 May 2023 23:57:53.107,26.116

"Access","Start Time (UTCG)","Stop Time (UTCG)","Duration (sec)"
1,1 May 2023 10:26:38.758,1 May 2023 10:28:55.133,136.375
2,2 May 2023 05:37:58.496,2 May 2023 05:41:27.843,209.348
3,2 May 2023 07:11:39.234,2 May 2023 07:14:28.882,169.649
4,2 May 2023 08:45:03.644,2 May 2023 08:48:12.290,188.646
5,2 May 2023 10:18:06.867,2 May 2023 10:20:02.860,115.993
6,3 May 2023 05:29:16.278,3 May 2023 05:32:47.967,211.689
7,3 May 2023 07:03:10.091,3 May 2023 07:05:51.884,161.792
8,3 May 2023 08:36:20.600,3 May 2023 08:39:34.758,194.158
9,3 May 2023 10:09:54.859,3 May 2023 10:11:03.203,68.344
10,4 May 2023 05:20:36.284,4 May 2023 05:24:05.795,209.511
11,4 May 2023 06:54:40.033,4 May 2023 06:57:19.726,159.693
12,4 May 2023 08:27:39.006,4 May 2023 08:30:53.572,194.567
13,5 May 2023 03:40:39.572,5 May 2023 03:42:03.034,83.462
14,5 May 2023 05:12:02.773,5 May 2023 05:15:22.735,199.961
15,5 May 2023 06:46:05.444,5 May 2023 06:48:50.620,165.176
16,5 May 2023 08:18:55.320,5 May 2023 08:22:01.467,186.148
17,6 May 2023 03:30:32.051,6 May 2023 03:33:38.209,186.158
18,6 May 2023 05:03:34.566,6 May 2023 05:06:43.655,189.089
19,6 May 2023 06:37:25.070,6 May 2023 06:40:20.037,174.968
20,6 May 2023 08:10:14.682,6 May 2023 08:12:50.565,155.883
21,7 May 2023 03:21:37.155,7 May 2023 03:25:03.988,206.833
22,7 May 2023 04:55:11.473,7 May 2023 04:58:05.093,173.620
23,7 May 2023 06:28:42.031,7 May 2023 06:31:47.250,185.219
24,7 May 2023 08:01:39.663,7 May 2023 08:03:47.069,127.406
25,8 May 2023 03:12:53.416,8 May 2023 03:16:25.298,211.882
26,8 May 2023 04:46:42.874,8 May 2023 04:49:27.624,164.750
27,8 May 2023 06:19:58.721,8 May 2023 06:23:11.126,192.405
28,8 May 2023 07:53:17.579,8 May 2023 07:54:48.906,91.327
29,9 May 2023 03:04:12.892,9 May 2023 03:07:43.890,210.998
30,9 May 2023 04:38:13.530,9 May 2023 04:40:52.422,158.892
31,9 May 2023 06:11:16.441,9 May 2023 06:14:32.207,195.766
32,10 May 2023 01:24:39.294,10 May 2023 01:25:30.492,51.198
33,10 May 2023 02:55:36.448,10 May 2023 02:59:00.855,204.407
34,10 May 2023 04:29:41.151,10 May 2023 04:32:23.550,162.399
35,10 May 2023 06:02:33.347,10 May 2023 06:05:45.266,191.918
36,11 May 2023 01:14:29.588,11 May 2023 01:17:11.152,161.564
37,11 May 2023 02:47:06.312,11 May 2023 02:50:20.333,194.020
38,11 May 2023 04:21:02.780,11 May 2023 04:23:53.613,170.834
39,11 May 2023 05:53:51.484,11 May 2023 05:56:40.151,168.667
40,12 May 2023 01:05:17.500,12 May 2023 01:08:39.356,201.856
41,12 May 2023 02:38:41.378,12 May 2023 02:41:41.475,180.097
42,12 May 2023 04:12:20.396,12 May 2023 04:15:21.566,181.170
43,12 May 2023 05:45:13.976,12 May 2023 05:47:28.048,134.072
44,13 May 2023 00:56:32.403,13 May 2023 01:00:02.192,209.789
45,13 May 2023 02:30:15.687,13 May 2023 02:33:03.543,167.857
46,13 May 2023 04:03:37.001,13 May 2023 04:06:47.205,190.204
47,13 May 2023 05:36:44.525,13 May 2023 05:38:31.480,106.955
48,14 May 2023 00:47:50.928,14 May 2023 00:51:21.745,210.818
49,14 May 2023 02:21:46.579,14 May 2023 02:24:26.794,160.216
50,14 May 2023 03:54:54.190,14 May 2023 03:58:09.372,195.183
51,14 May 2023 05:28:43.094,14 May 2023 05:29:29.604,46.509
52,15 May 2023 00:39:11.192,15 May 2023 00:42:39.214,208.023
53,15 May 2023 02:13:15.862,15 May 2023 02:15:56.304,160.442
54,15 May 2023 03:46:11.964,15 May 2023 03:49:26.110,194.146
55,15 May 2023 22:59:07.142,15 May 2023 23:00:41.795,94.653
56,16 May 2023 00:30:39.006,16 May 2023 00:33:57.039,198.034
57,16 May 2023 02:04:39.883,16 May 2023 02:07:26.947,167.063
58,16 May 2023 03:37:29.059,16 May 2023 03:40:29.313,180.254

"Access","Start Time (UTCG)","Stop Time (UTCG)","Duration (sec)"
1,2 May 2023 04:53:26.793,2 May 2023 04:54:27.474,60.682
2,2 May 2023 06:24:31.513,2 May 2023 06:27:54.986,203.473
3,2 May 2023 07:58:35.947,2 May 2023 08:01:18.888,162.940
4,2 May 2023 09:31:27.510,2 May 2023 09:34:38.548,191.038
5,3 May 2023 04:43:17.102,3 May 2023 04:46:06.626,169.524
6,3 May 2023 06:16:01.801,3 May 2023 06:19:14.834,193.033
7,3 May 2023 07:49:57.101,3 May 2023 07:52:48.827,171.726
8,3 May 2023 09:22:45.894,3 May 2023 09:25:32.273,166.379
9,4 May 2023 04:34:11.094,4 May 2023 04:37:34.218,203.124
10,4 May 2023 06:07:37.225,4 May 2023 06:10:36.031,178.806
11,4 May 2023 07:41:14.539,4 May 2023 07:44:16.588,182.049
12,4 May 2023 09:14:08.934,4 May 2023 09:16:21.828,132.894
13,5 May 2023 04:25:26.232,5 May 2023 04:28:56.692,210.460
14,5 May 2023 05:59:11.015,5 May 2023 06:01:58.195,167.180
15,5 May 2023 07:32:31.147,5 May 2023 07:35:41.860,190.712
16,5 May 2023 09:05:40.613,5 May 2023 09:07:24.331,103.718
17,6 May 2023 04:16:45.003,6 May 2023 04:20:16.017,211.014
18,6 May 2023 05:50:41.891,6 May 2023 05:53:21.540,159.649
19,6 May 2023 07:23:48.439,6 May 2023 07:27:03.887,195.448
20,6 May 2023 08:57:41.728,6 May 2023 08:58:20.028,38.300
21,7 May 2023 02:37:26.641,7 May 2023 02:37:43.879,17.237
22,7 May 2023 04:08:06.022,7 May 2023 04:11:33.366,207.343
23,7 May 2023 05:42:10.867,7 May 2023 05:44:51.669,160.802
24,7 May 2023 07:15:05.998,7 May 2023 07:18:19.824,193.826
25,8 May 2023 02:27:59.689,8 May 2023 02:29:37.754,98.065
26,8 May 2023 03:59:34.287,8 May 2023 04:02:51.541,197.253
27,8 May 2023 05:33:34.356,8 May 2023 05:36:22.189,167.833
28,8 May 2023 07:06:23.309,8 May 2023 07:09:20.475,177.166
29,9 May 2023 02:17:53.293,9 May 2023 02:21:08.910,195.617
30,9 May 2023 03:51:08.049,9 May 2023 03:54:12.529,184.481
31,9 May 2023 05:24:52.806,9 May 2023 05:27:50.944,178.138
32,9 May 2023 06:57:44.004,9 May 2023 07:00:00.982,136.978
33,10 May 2023 02:09:04.237,10 May 2023 02:12:33.280,209.044
34,10 May 2023 03:42:43.932,10 May 2023 03:45:34.258,170.326
35,10 May 2023 05:16:09.505,10 May 2023 05:19:17.484,187.978
36,10 May 2023 06:49:11.336,10 May 2023 06:51:10.330,118.994
37,11 May 2023 02:00:21.733,11 May 2023 02:03:53.634,211.901
38,11 May 2023 03:34:14.751,11 May 2023 03:36:57.162,162.410
39,11 May 2023 05:07:26.391,11 May 2023 05:10:40.034,193.643
40,11 May 2023 06:40:57.317,11 May 2023 06:42:11.074,73.758
41,12 May 2023 01:51:41.655,12 May 2023 01:55:11.609,209.954
42,12 May 2023 03:25:44.898,12 May 2023 03:28:24.352,159.453
43,12 May 2023 04:58:44.645,12 May 2023 05:01:59.602,194.958
44,13 May 2023 00:11:48.598,13 May 2023 00:13:06.745,78.147
45,13 May 2023 01:43:07.533,13 May 2023 01:46:28.291,200.757
46,13 May 2023 03:17:10.820,13 May 2023 03:19:55.328,164.507
47,13 May 2023 04:50:01.056,13 May 2023 04:53:08.859,187.804
48,14 May 2023 00:01:40.500,14 May 2023 00:04:43.051,182.551
49,14 May 2023 01:34:38.908,14 May 2023 01:37:49.149,190.240
50,14 May 2023 03:08:30.833,14 May 2023 03:11:24.902,174.069
51,14 May 2023 04:41:20.133,14 May 2023 04:43:59.302,159.169
52,14 May 2023 23:52:43.358,14 May 2023 23:56:09.276,205.918
53,15 May 2023 01:26:15.376,15 May 2023 01:29:10.509,175.133
54,15 May 2023 02:59:47.901,15 May 2023 03:02:52.271,184.370
55,15 May 2023 04:32:44.569,15 May 2023 04:34:53.712,129.144
56,15 May 2023 23:43:59.241,15 May 2023 23:47:30.881,211.640
57,16 May 2023 01:17:47.530,16 May 2023 01:20:32.940,165.410
58,16 May 2023 02:51:04.554,16 May 2023 02:54:16.482,191.928
59,16 May 2023 04:24:20.316,16 May 2023 04:25:55.783,95.467

