STK/input/target_primary/access_sensors/RCO_2x4_50_400_0_3.0.csv

"Access","Start Time (UTCG)","Stop Time (UTCG)","Duration (sec)"
1,2 Aug 2023 03:12:04.542,2 Aug 2023 03:13:49.717,105.175
2,2 Aug 2023 04:45:49.979,2 Aug 2023 04:51:01.349,311.370
3,2 Aug 2023 06:22:50.631,2 Aug 2023 06:27:37.253,286.623
4,2 Aug 2023 07:59:28.825,2 Aug 2023 08:04:26.935,298.110
5,2 Aug 2023 09:36:16.054,2 Aug 2023 09:39:08.279,172.224
6,3 Aug 2023 03:51:47.675,3 Aug 2023 03:56:53.528,305.853
7,3 Aug 2023 05:28:28.141,3 Aug 2023 05:33:22.713,294.572
8,3 Aug 2023 07:05:23.606,3 Aug 2023 07:10:17.222,293.617
9,3 Aug 2023 08:41:48.744,3 Aug 2023 08:45:40.395,231.651
10,4 Aug 2023 02:58:02.665,4 Aug 2023 03:02:39.008,276.343
11,4 Aug 2023 04:34:07.084,4 Aug 2023 04:39:12.585,305.501
12,4 Aug 2023 06:11:14.158,4 Aug 2023 06:16:01.331,287.173
13,4 Aug 2023 07:47:37.618,4 Aug 2023 07:52:22.683,285.065
14,5 Aug 2023 02:05:46.807,5 Aug 2023 02:08:06.065,139.258
15,5 Aug 2023 03:39:53.827,5 Aug 2023 03:45:05.582,311.755
16,5 Aug 2023 05:16:58.128,5 Aug 2023 05:21:43.859,285.731
17,5 Aug 2023 06:53:32.597,5 Aug 2023 06:58:30.629,298.033
18,5 Aug 2023 08:30:31.136,5 Aug 2023 08:33:02.514,151.378
19,6 Aug 2023 02:45:50.633,6 Aug 2023 02:50:58.378,307.745
20,6 Aug 2023 04:22:36.084,6 Aug 2023 04:27:28.403,292.319
21,6 Aug 2023 05:59:27.777,6 Aug 2023 06:04:22.636,294.859
22,6 Aug 2023 07:35:55.726,6 Aug 2023 07:39:32.027,216.301
23,7 Aug 2023 01:51:58.804,7 Aug 2023 01:56:46.084,287.279
24,7 Aug 2023 03:28:14.285,7 Aug 2023 03:33:17.276,302.990
25,7 Aug 2023 05:05:19.612,7 Aug 2023 05:10:07.905,288.294
26,7 Aug 2023 06:41:42.127,7 Aug 2023 06:46:19.610,277.483
27,8 Aug 2023 00:59:16.187,8 Aug 2023 01:02:19.784,183.596
28,8 Aug 2023 02:33:58.497,8 Aug 2023 02:39:09.803,311.306
29,8 Aug 2023 04:11:05.101,8 Aug 2023 04:15:50.589,285.488
30,8 Aug 2023 05:47:36.290,8 Aug 2023 05:52:33.378,297.087
31,8 Aug 2023 07:24:53.808,8 Aug 2023 07:26:52.898,119.089

"Access","Start Time (UTCG)","Stop Time (UTCG)","Duration (sec)"
1,2 Aug 2023 03:57:51.544,2 Aug 2023 04:02:44.557,293.013
2,2 Aug 2023 05:34:13.463,2 Aug 2023 05:39:14.618,301.155
3,2 Aug 2023 07:11:17.155,2 Aug 2023 07:16:06.546,289.391
4,2 Aug 2023 08:47:39.448,2 Aug 2023 08:52:09.942,270.494
5,3 Aug 2023 03:04:44.010,3 Aug 2023 03:08:21.707,217.697
6,3 Aug 2023 04:39:56.135,3 Aug 2023 04:45:06.726,310.591
7,3 Aug 2023 06:17:03.716,3 Aug 2023 06:21:49.255,285.539
8,3 Aug 2023 07:53:32.842,3 Aug 2023 07:58:28.659,295.818
9,3 Aug 2023 09:31:05.676,3 Aug 2023 09:32:36.336,90.660
10,4 Aug 2023 03:45:49.273,4 Aug 2023 03:51:00.050,310.776
11,4 Aug 2023 05:22:43.499,4 Aug 2023 05:27:32.539,289.040
12,4 Aug 2023 06:59:28.434,4 Aug 2023 07:04:24.982,296.548
13,4 Aug 2023 08:36:03.524,4 Aug 2023 08:39:20.551,197.027
14,5 Aug 2023 02:51:51.393,5 Aug 2023 02:56:50.531,299.139
15,5 Aug 2023 04:28:20.993,5 Aug 2023 04:33:19.661,298.668
16,5 Aug 2023 06:05:22.032,5 Aug 2023 06:10:13.050,291.018
17,5 Aug 2023 07:41:44.643,5 Aug 2023 07:46:01.434,256.791
18,6 Aug 2023 01:58:24.009,6 Aug 2023 02:02:31.512,247.503
19,6 Aug 2023 03:34:01.971,6 Aug 2023 03:39:11.037,309.066
20,6 Aug 2023 05:11:10.135,6 Aug 2023 05:15:56.034,285.898
21,6 Aug 2023 06:47:36.676,6 Aug 2023 06:52:29.631,292.955
22,7 Aug 2023 01:06:21.497,7 Aug 2023 01:07:41.024,79.527
23,7 Aug 2023 02:39:53.475,7 Aug 2023 02:45:04.413,310.938
24,7 Aug 2023 04:16:51.332,7 Aug 2023 04:21:38.824,287.493
25,7 Aug 2023 05:53:32.241,7 Aug 2023 05:58:29.907,297.666
26,7 Aug 2023 07:30:13.710,7 Aug 2023 07:33:16.700,182.990
27,8 Aug 2023 01:45:52.287,8 Aug 2023 01:50:56.003,303.716
28,8 Aug 2023 03:22:28.719,8 Aug 2023 03:27:24.939,296.220
29,8 Aug 2023 04:59:26.612,8 Aug 2023 05:04:19.214,292.603
30,8 Aug 2023 06:35:50.391,8 Aug 2023 06:39:53.068,242.678

"Access","Start Time (UTCG)","Stop Time (UTCG)","Duration (sec)"
1,1 Aug 2023 10:14:19.039,1 Aug 2023 10:19:12.060,293.021
2,1 Aug 2023 11:50:41.058,1 Aug 2023 11:55:40.806,299.748
3,1 Aug 2023 13:27:46.160,1 Aug 2023 13:32:32.929,286.769
4,1 Aug 2023 15:04:06.838,1 Aug 2023 15:08:41.124,274.286
5,2 Aug 2023 09:21:14.170,2 Aug 2023 09:24:50.331,216.161
6,2 Aug 2023 10:56:24.454,2 Aug 2023 11:01:34.389,309.936
7,2 Aug 2023 12:33:33.453,2 Aug 2023 12:38:16.277,282.824
8,2 Aug 2023 14:10:02.148,2 Aug 2023 14:14:58.257,296.109
9,2 Aug 2023 15:47:25.220,2 Aug 2023 15:49:12.259,107.039
10,3 Aug 2023 10:02:18.594,3 Aug 2023 10:07:29.185,310.592
11,3 Aug 2023 11:39:13.744,3 Aug 2023 11:44:00.451,286.707
12,3 Aug 2023 13:15:59.195,3 Aug 2023 13:20:54.451,295.256
13,3 Aug 2023 14:52:31.056,3 Aug 2023 14:55:53.495,202.439
14,4 Aug 2023 09:08:21.920,4 Aug 2023 09:13:21.004,299.085
15,4 Aug 2023 10:44:51.660,4 Aug 2023 10:49:48.809,297.150
16,4 Aug 2023 12:21:54.080,4 Aug 2023 12:26:42.643,288.563
17,4 Aug 2023 13:58:14.826,4 Aug 2023 14:02:37.380,262.554
18,5 Aug 2023 08:14:56.739,5 Aug 2023 08:19:03.096,246.357
19,5 Aug 2023 09:50:33.352,5 Aug 2023 09:55:41.651,308.299
20,5 Aug 2023 11:27:43.001,5 Aug 2023 11:32:26.172,283.172
21,5 Aug 2023 13:04:08.873,5 Aug 2023 13:09:02.771,293.898
22,5 Aug 2023 14:42:06.230,5 Aug 2023 14:42:51.256,45.026
23,6 Aug 2023 07:22:55.254,6 Aug 2023 07:24:12.803,77.549
24,6 Aug 2023 08:56:25.829,6 Aug 2023 09:01:36.510,310.681
25,6 Aug 2023 10:33:24.732,6 Aug 2023 10:38:09.760,285.028
26,6 Aug 2023 12:10:05.961,6 Aug 2023 12:15:02.369,296.408
27,6 Aug 2023 13:46:43.488,6 Aug 2023 13:49:51.812,188.324
28,7 Aug 2023 08:02:25.857,7 Aug 2023 08:07:29.452,303.595
29,7 Aug 2023 09:39:02.491,7 Aug 2023 09:43:57.047,294.556
30,7 Aug 2023 11:16:01.692,7 Aug 2023 11:20:52.048,290.356
31,7 Aug 2023 12:52:23.306,7 Aug 2023 12:56:31.593,248.287
32,8 Aug 2023 07:08:48.734,8 Aug 2023 07:13:14.453,265.720
33,8 Aug 2023 08:44:42.822,8 Aug 2023 08:49:49.023,306.201

"Access","Start Time (UTCG)","Stop Time (UTCG)","Duration (sec)"
1,1 Aug 2023 11:02:17.248,1 Aug 2023 11:07:28.282,311.034
2,1 Aug 2023 12:39:19.147,1 Aug 2023 12:44:03.165,284.018
3,1 Aug 2023 14:15:57.348,1 Aug 2023 14:20:54.536,297.187
4,1 Aug 2023 15:52:40.245,1 Aug 2023 15:55:38.694,178.449
5,2 Aug 2023 10:08:16.022,2 Aug 2023 10:13:21.853,305.831
6,2 Aug 2023 11:44:57.004,2 Aug 2023 11:49:49.708,292.703
7,2 Aug 2023 13:21:53.563,2 Aug 2023 13:26:45.165,291.602
8,2 Aug 2023 14:58:16.369,2 Aug 2023 15:02:14.060,237.690
9,3 Aug 2023 09:14:32.548,3 Aug 2023 09:19:08.557,276.009
10,3 Aug 2023 10:50:36.542,3 Aug 2023 10:55:40.976,304.434
11,3 Aug 2023 12:27:45.136,3 Aug 2023 12:32:29.674,284.538
12,3 Aug 2023 14:04:07.434,3 Aug 2023 14:08:54.529,287.095
13,4 Aug 2023 08:22:18.051,4 Aug 2023 08:24:36.531,138.480
14,4 Aug 2023 09:56:24.156,4 Aug 2023 10:01:35.469,311.313
15,4 Aug 2023 11:33:29.684,4 Aug 2023 11:38:12.772,283.087
16,4 Aug 2023 13:10:04.051,4 Aug 2023 13:15:01.638,297.587
17,4 Aug 2023 14:46:56.708,4 Aug 2023 14:49:37.091,160.383
18,5 Aug 2023 09:02:22.096,5 Aug 2023 09:07:29.674,307.578
19,5 Aug 2023 10:39:08.072,5 Aug 2023 10:43:58.382,290.309
20,5 Aug 2023 12:16:00.730,5 Aug 2023 12:20:53.860,293.130
21,5 Aug 2023 13:52:26.010,5 Aug 2023 13:56:05.720,219.710
22,6 Aug 2023 08:08:31.675,6 Aug 2023 08:13:18.662,286.987
23,6 Aug 2023 09:44:46.825,6 Aug 2023 09:49:48.616,301.791
24,6 Aug 2023 11:21:53.669,6 Aug 2023 11:26:39.342,285.673
25,6 Aug 2023 12:58:14.777,6 Aug 2023 13:02:55.419,280.642
26,7 Aug 2023 07:15:52.321,7 Aug 2023 07:18:53.273,180.952
27,7 Aug 2023 08:50:31.875,7 Aug 2023 08:55:42.645,310.770
28,7 Aug 2023 10:27:39.782,7 Aug 2023 10:32:22.577,282.795
29,7 Aug 2023 12:04:10.792,7 Aug 2023 12:09:07.862,297.069
30,7 Aug 2023 13:41:18.210,7 Aug 2023 13:43:32.192,133.982
31,8 Aug 2023 07:56:27.469,8 Aug 2023 08:01:37.255,309.786
32,8 Aug 2023 09:33:19.169,8 Aug 2023 09:38:07.301,288.131

"Access","Start Time (UTCG)","Stop Time (UTCG)","Duration (sec)"
1,1 Aug 2023 16:24:43.027,1 Aug 2023 16:29:47.825,304.798
2,1 Aug 2023 18:01:21.390,1 Aug 2023 18:06:16.799,295.409
3,1 Aug 2023 19:38:18.231,1 Aug 2023 19:43:11.248,293.017
4,1 Aug 2023 21:14:42.504,1 Aug 2023 21:18:40.447,237.943
5,2 Aug 2023 15:31:01.154,2 Aug 2023 15:35:32.505,271.352
6,2 Aug 2023 17:07:00.725,2 Aug 2023 17:12:07.072,306.347
7,2 Aug 2023 18:44:08.299,2 Aug 2023 18:48:55.046,286.747
8,2 Aug 2023 20:20:32.254,2 Aug 2023 20:25:19.596,287.343
9,3 Aug 2023 14:38:48.952,3 Aug 2023 14:40:56.372,127.420
10,3 Aug 2023 16:12:48.542,3 Aug 2023 16:18:00.244,311.702
11,3 Aug 2023 17:49:51.642,3 Aug 2023 17:54:37.578,285.936
12,3 Aug 2023 19:26:27.472,3 Aug 2023 19:31:25.628,298.157
13,3 Aug 2023 21:03:21.063,3 Aug 2023 21:06:01.410,160.347
14,4 Aug 2023 15:18:45.782,4 Aug 2023 15:23:52.885,307.102
15,4 Aug 2023 16:55:29.409,4 Aug 2023 17:00:22.491,293.082
16,4 Aug 2023 18:32:22.574,4 Aug 2023 18:37:16.951,294.377
17,4 Aug 2023 20:08:49.279,4 Aug 2023 20:12:28.787,219.508
18,5 Aug 2023 14:24:56.282,5 Aug 2023 14:29:39.826,283.543
19,5 Aug 2023 16:01:07.862,5 Aug 2023 16:06:11.787,303.925
20,5 Aug 2023 17:38:13.980,5 Aug 2023 17:43:01.717,287.737
21,5 Aug 2023 19:14:36.726,5 Aug 2023 19:19:17.458,280.731
22,6 Aug 2023 13:32:31.923,6 Aug 2023 13:35:11.288,159.365
23,6 Aug 2023 15:06:53.011,6 Aug 2023 15:12:04.557,311.547
24,6 Aug 2023 16:43:58.914,6 Aug 2023 16:48:44.368,285.453
25,6 Aug 2023 18:20:31.307,6 Aug 2023 18:25:28.856,297.549
26,6 Aug 2023 19:57:39.866,6 Aug 2023 19:59:53.480,133.614
27,7 Aug 2023 14:12:48.352,7 Aug 2023 14:17:57.659,309.307
28,7 Aug 2023 15:49:37.462,7 Aug 2023 15:54:28.423,290.961
29,7 Aug 2023 17:26:26.722,7 Aug 2023 17:31:22.168,295.446
30,7 Aug 2023 19:02:56.772,7 Aug 2023 19:06:27.293,210.521

"Access","Start Time (UTCG)","Stop Time (UTCG)","Duration (sec)"
1,1 Aug 2023 15:37:57.416,1 Aug 2023 15:41:13.743,196.327
2,1 Aug 2023 17:12:50.308,1 Aug 2023 17:18:01.305,310.998
3,1 Aug 2023 18:49:57.458,1 Aug 2023 18:54:42.868,285.410
4,1 Aug 2023 20:26:27.669,1 Aug 2023 20:31:24.244,296.576
5,1 Aug 2023 22:03:51.040,1 Aug 2023 22:05:39.087,108.046
6,2 Aug 2023 16:18:44.188,2 Aug 2023 16:23:54.600,310.412
7,2 Aug 2023 17:55:36.784,2 Aug 2023 18:00:26.420,289.636
8,2 Aug 2023 19:32:23.255,2 Aug 2023 19:37:19.462,296.207
9,2 Aug 2023 21:08:56.319,2 Aug 2023 21:12:18.735,202.417
10,3 Aug 2023 15:24:47.514,3 Aug 2023 15:29:44.620,297.106
11,3 Aug 2023 17:01:14.420,3 Aug 2023 17:06:13.969,299.548
12,3 Aug 2023 18:38:16.551,3 Aug 2023 18:43:06.883,290.332
13,3 Aug 2023 20:14:38.891,3 Aug 2023 20:19:01.614,262.722
14,4 Aug 2023 14:31:26.163,4 Aug 2023 14:35:24.326,238.163
15,4 Aug 2023 16:06:56.001,4 Aug 2023 16:12:05.681,309.679
16,4 Aug 2023 17:44:04.102,4 Aug 2023 17:48:49.749,285.647
17,4 Aug 2023 19:20:31.535,4 Aug 2023 19:25:25.766,294.231
18,4 Aug 2023 20:58:28.700,4 Aug 2023 20:59:15.542,46.843
19,5 Aug 2023 13:39:26.583,5 Aug 2023 13:40:26.010,59.427
20,5 Aug 2023 15:12:48.108,5 Aug 2023 15:17:59.105,310.998
21,5 Aug 2023 16:49:44.763,5 Aug 2023 16:54:32.725,287.962
22,5 Aug 2023 18:26:27.181,5 Aug 2023 18:31:24.428,297.247
23,5 Aug 2023 20:03:05.912,5 Aug 2023 20:06:13.920,188.007
24,6 Aug 2023 14:18:48.175,6 Aug 2023 14:23:50.359,302.185
25,6 Aug 2023 15:55:22.159,6 Aug 2023 16:00:19.250,297.091
26,6 Aug 2023 17:32:21.332,6 Aug 2023 17:37:13.286,291.954
27,6 Aug 2023 19:08:44.502,6 Aug 2023 19:12:52.653,248.151
28,7 Aug 2023 13:25:12.985,7 Aug 2023 13:29:33.270,260.285
29,7 Aug 2023 15:01:02.298,7 Aug 2023 15:06:10.150,307.852
30,7 Aug 2023 16:38:10.395,7 Aug 2023 16:42:56.598,286.203
31,7 Aug 2023 18:14:35.572,7 Aug 2023 18:19:26.250,290.678

"Access","Start Time (UTCG)","Stop Time (UTCG)","Duration (sec)"
1,1 Aug 2023 22:35:14.849,1 Aug 2023 22:40:24.658,309.809
2,2 Aug 2023 00:12:04.200,2 Aug 2023 00:16:56.885,292.685
3,2 Aug 2023 01:48:52.071,2 Aug 2023 01:53:49.130,297.060
4,2 Aug 2023 03:25:25.791,2 Aug 2023 03:28:49.697,203.906
5,2 Aug 2023 21:41:18.633,2 Aug 2023 21:46:12.554,293.921
6,2 Aug 2023 23:17:41.559,2 Aug 2023 23:22:43.690,302.131
7,3 Aug 2023 00:54:43.642,3 Aug 2023 00:59:35.554,291.912
8,3 Aug 2023 02:31:07.532,3 Aug 2023 02:35:32.069,264.536
9,3 Aug 2023 20:48:05.129,3 Aug 2023 20:51:49.185,224.056
10,3 Aug 2023 22:23:23.257,3 Aug 2023 22:28:34.299,311.042
11,4 Aug 2023 00:00:29.647,4 Aug 2023 00:05:17.683,288.036
12,4 Aug 2023 01:36:58.894,4 Aug 2023 01:41:53.813,294.918
13,4 Aug 2023 03:14:51.141,4 Aug 2023 03:15:49.387,58.246
14,4 Aug 2023 21:29:15.191,4 Aug 2023 21:34:26.227,311.037
15,4 Aug 2023 23:06:09.069,4 Aug 2023 23:11:00.058,290.989
16,5 Aug 2023 00:42:53.072,5 Aug 2023 00:47:51.019,297.947
17,5 Aug 2023 02:19:32.253,5 Aug 2023 02:22:41.344,189.091
18,5 Aug 2023 20:35:15.698,5 Aug 2023 20:40:15.574,299.876
19,5 Aug 2023 22:11:46.097,5 Aug 2023 22:16:45.884,299.788
20,5 Aug 2023 23:48:45.524,5 Aug 2023 23:53:38.888,293.363
21,6 Aug 2023 01:25:10.109,6 Aug 2023 01:29:19.649,249.540
22,6 Aug 2023 19:41:44.437,6 Aug 2023 19:45:55.891,251.453
23,6 Aug 2023 21:17:26.190,6 Aug 2023 21:22:35.757,309.567
24,6 Aug 2023 22:54:32.988,6 Aug 2023 22:59:21.421,288.434
25,7 Aug 2023 00:30:59.950,7 Aug 2023 00:35:51.286,291.337
26,7 Aug 2023 18:49:40.398,7 Aug 2023 18:51:07.123,86.725
27,7 Aug 2023 20:23:16.573,7 Aug 2023 20:28:27.695,311.122
28,7 Aug 2023 22:00:13.816,7 Aug 2023 22:05:03.420,289.603
29,7 Aug 2023 23:36:53.998,7 Aug 2023 23:41:52.686,298.687
30,8 Aug 2023 01:13:40.687,8 Aug 2023 01:16:35.694,175.007

"Access","Start Time (UTCG)","Stop Time (UTCG)","Duration (sec)"
1,1 Aug 2023 21:47:36.542,1 Aug 2023 21:52:00.534,263.992
2,1 Aug 2023 23:23:29.462,1 Aug 2023 23:28:37.812,308.350
3,2 Aug 2023 01:00:36.028,2 Aug 2023 01:05:24.868,288.839
4,2 Aug 2023 02:37:01.797,2 Aug 2023 02:41:50.030,288.233
5,2 Aug 2023 20:55:28.116,2 Aug 2023 20:57:19.248,111.132
6,2 Aug 2023 22:29:17.848,2 Aug 2023 22:34:29.644,311.795
7,3 Aug 2023 00:06:17.866,3 Aug 2023 00:11:06.787,288.922
8,3 Aug 2023 01:42:55.634,3 Aug 2023 01:47:54.377,298.743
9,3 Aug 2023 03:19:48.820,3 Aug 2023 03:22:31.599,162.779
10,3 Aug 2023 21:35:14.388,3 Aug 2023 21:40:20.568,306.181
11,3 Aug 2023 23:11:55.036,3 Aug 2023 23:16:51.066,296.030
12,4 Aug 2023 00:48:49.078,4 Aug 2023 00:53:44.565,295.487
13,4 Aug 2023 02:25:16.880,4 Aug 2023 02:28:58.952,222.071
14,4 Aug 2023 20:41:26.914,4 Aug 2023 20:46:05.137,278.223
15,4 Aug 2023 22:17:33.285,4 Aug 2023 22:22:39.485,306.200
16,4 Aug 2023 23:54:38.792,4 Aug 2023 23:59:28.450,289.658
17,5 Aug 2023 01:31:03.266,5 Aug 2023 01:35:45.004,281.739
18,5 Aug 2023 19:49:08.718,5 Aug 2023 19:51:32.270,143.552
19,5 Aug 2023 21:23:18.836,5 Aug 2023 21:28:30.999,312.163
20,5 Aug 2023 23:00:22.267,5 Aug 2023 23:05:10.448,288.181
21,6 Aug 2023 00:36:56.435,6 Aug 2023 00:41:54.619,298.184
22,6 Aug 2023 02:14:03.937,6 Aug 2023 02:16:21.074,137.136
23,6 Aug 2023 20:29:14.221,6 Aug 2023 20:34:22.495,308.274
24,6 Aug 2023 22:05:59.949,6 Aug 2023 22:10:53.879,293.930
25,6 Aug 2023 23:42:50.312,6 Aug 2023 23:47:46.726,296.414
26,7 Aug 2023 01:19:21.305,7 Aug 2023 01:22:52.688,211.383
27,7 Aug 2023 19:35:20.497,7 Aug 2023 19:40:09.213,288.716
28,7 Aug 2023 21:11:37.538,7 Aug 2023 21:16:41.334,303.796
29,7 Aug 2023 22:48:41.204,7 Aug 2023 22:53:32.162,290.958
30,8 Aug 2023 00:25:05.080,8 Aug 2023 00:29:37.617,272.537

